[{"name":"Codrington","state_code":"10","latitude":"17.63333000","longitude":"-61.83333000","population":1252,"timezone":"America/Antigua","type":"adm1","translations":{"es":"Codrington","en":"Codrington"}},{"name":"Piggotts","state_code":"03","latitude":"17.11667000","longitude":"-61.80000000","population":1878,"timezone":"America/Antigua","type":"adm1","translations":{"es":"Piggotts","en":"Piggotts"}},{"name":"Potters Village","state_code":"04","latitude":"17.11337000","longitude":"-61.81962000","population":1433,"timezone":"America/Antigua","type":"city","translations":{"es":"Pueblo de alfareros","en":"Potters Village"}},{"name":"Saint John’s","state_code":"04","latitude":"17.12096000","longitude":"-61.84329000","population":24226,"timezone":"America/Antigua","type":"capital","translations":{"es":"San Juan","en":"Saint John’s"}},{"name":"Bolands","state_code":"05","latitude":"17.06565000","longitude":"-61.87466000","population":1657,"timezone":"America/Antigua","type":"adm1","translations":{"es":"Bolands","en":"Bolands"}},{"name":"Falmouth","state_code":"06","latitude":"17.02741000","longitude":"-61.78136000","population":619,"timezone":"America/Antigua","type":"adm1","translations":{"es":"Falmouth","en":"Falmouth"}},{"name":"Liberta","state_code":"06","latitude":"17.04141000","longitude":"-61.79052000","population":1668,"timezone":"America/Antigua","type":"city","translations":{"es":"Libertad","en":"Liberta"}},{"name":"All Saints","state_code":"07","latitude":"17.06671000","longitude":"-61.79303000","population":2526,"timezone":"America/Antigua","type":"city","translations":{"es":"Todos los Santos","en":"All Saints"}},{"name":"Parham","state_code":"07","latitude":"17.09682000","longitude":"-61.77046000","population":969,"timezone":"America/Antigua","type":"adm1","translations":{"es":"Parham","en":"Parham"}}]