[{"name":"Banaj","state_code":"01","latitude":"40.82492000","longitude":"19.84074000","population":844,"timezone":"Europe/Tirane","type":"city","translations":{"es":"Banaj","en":"Banaj"}},{"name":"Bashkia Berat","state_code":"01","latitude":"40.69997000","longitude":"19.94983000","population":null,"timezone":"Europe/Tirane","type":"municipality","translations":{"es":"Bashkia Berat","en":"Bashkia Berat"}},{"name":"Bashkia Kuçovë","state_code":"01","latitude":"40.82489000","longitude":"19.95350000","population":null,"timezone":"Europe/Tirane","type":"municipality","translations":{"es":"Bashkia Kuçovë","en":"Bashkia Kuçovë"}},{"name":"Bashkia Poliçan","state_code":"01","latitude":"40.58608000","longitude":"20.04535000","population":null,"timezone":"Europe/Tirane","type":"municipality","translations":{"es":"Policía de Bashkia","en":"Bashkia Poliçan"}},{"name":"Bashkia Skrapar","state_code":"01","latitude":"40.56036000","longitude":"20.25477000","population":null,"timezone":"Europe/Tirane","type":"municipality","translations":{"es":"Bashkia Skrapar","en":"Bashkia Skrapar"}},{"name":"Berat","state_code":"01","latitude":"40.70583000","longitude":"19.95222000","population":62232,"timezone":"Europe/Tirane","type":"adm1","translations":{"es":"Berat","en":"Berat"}},{"name":"Çorovodë","state_code":"01","latitude":"40.50417000","longitude":"20.22722000","population":4051,"timezone":"Europe/Tirane","type":"adm2","translations":{"es":"Çorovodë","en":"Çorovodë"}},{"name":"Kuçovë","state_code":"01","latitude":"40.80028000","longitude":"19.91667000","population":31077,"timezone":"Europe/Tirane","type":"adm2","translations":{"es":"Kuçovë","en":"Kuçovë"}},{"name":"Poliçan","state_code":"01","latitude":"40.61222000","longitude":"20.09806000","population":4318,"timezone":"Europe/Tirane","type":"adm3","translations":{"es":"Policía","en":"Poliçan"}},{"name":"Rrethi i Beratit","state_code":"01","latitude":"40.66667000","longitude":"20.00000000","population":null,"timezone":"Europe/Tirane","type":"city","translations":{"es":"Rrethi y Beratit","en":"Rrethi i Beratit"}},{"name":"Rrethi i Kuçovës","state_code":"01","latitude":"40.83333000","longitude":"19.91667000","population":null,"timezone":"Europe/Tirane","type":"city","translations":{"es":"Rrethi y Kuçovës","en":"Rrethi i Kuçovës"}},{"name":"Rrethi i Skraparit","state_code":"01","latitude":"40.55000000","longitude":"20.26667000","population":null,"timezone":"Europe/Tirane","type":"adm3","translations":{"es":"Rrethi y Skraparit","en":"Rrethi i Skraparit"}},{"name":"Skrapar","state_code":"01","latitude":"40.54071390","longitude":"20.10188400","population":12403,"timezone":"Europe/Tirane","type":"adm3","translations":{"es":"Skrapar","en":"Skrapar"}},{"name":"Ura Vajgurore","state_code":"01","latitude":"40.76889000","longitude":"19.87778000","population":7232,"timezone":"Europe/Tirane","type":"adm3","translations":{"es":"Ura Vajgurore","en":"Ura Vajgurore"}},{"name":"Bashkia Bulqizë","state_code":"09","latitude":"41.47152000","longitude":"20.33192000","population":null,"timezone":"Europe/Tirane","type":"municipality","translations":{"es":"Bashkia Bulqizë","en":"Bashkia Bulqizë"}},{"name":"Bashkia Klos","state_code":"09","latitude":"41.50826000","longitude":"20.07107000","population":null,"timezone":"Europe/Tirane","type":"municipality","translations":{"es":"Bashkia Klos","en":"Bashkia Klos"}},{"name":"Bashkia Mat","state_code":"09","latitude":"41.63317000","longitude":"20.01228000","population":null,"timezone":"Europe/Tirane","type":"municipality","translations":{"es":"Estera Bashkia","en":"Bashkia Mat"}},{"name":"Bulqizë","state_code":"09","latitude":"41.49167000","longitude":"20.22194000","population":26826,"timezone":"Europe/Tirane","type":"adm2","translations":{"es":"Bulqizë","en":"Bulqizë"}},{"name":"Burrel","state_code":"09","latitude":"41.61028000","longitude":"20.00889000","population":7928,"timezone":"Europe/Tirane","type":"adm2","translations":{"es":"Burrel","en":"Burrel"}},{"name":"Dibër","state_code":"09","latitude":"41.73099090","longitude":"20.18908580","population":null,"timezone":"Europe/Tirane","type":"adm3","translations":{"es":"Dibër","en":"Dibër"}},{"name":"Klos","state_code":"09","latitude":"41.50694000","longitude":"20.08667000","population":7873,"timezone":"Europe/Tirane","type":"adm3","translations":{"es":"Klos","en":"Klos"}},{"name":"Mat","state_code":"09","latitude":"41.63648120","longitude":"19.84055600","population":null,"timezone":"Europe/Tirane","type":"adm3","translations":{"es":"Estera","en":"Mat"}},{"name":"Peshkopi","state_code":"09","latitude":"41.68500000","longitude":"20.42889000","population":13251,"timezone":"Europe/Tirane","type":"adm1","translations":{"es":"Peshkopi","en":"Peshkopi"}},{"name":"Rrethi i Bulqizës","state_code":"09","latitude":"41.50000000","longitude":"20.33333000","population":null,"timezone":"Europe/Tirane","type":"adm3","translations":{"es":"Rrethi y Bulqizës","en":"Rrethi i Bulqizës"}},{"name":"Rrethi i Dibrës","state_code":"09","latitude":"41.75000000","longitude":"20.33333000","population":0,"timezone":"Europe/Tirane","type":"adm3","translations":{"es":"Rrethi y Dibrës","en":"Rrethi i Dibrës"}},{"name":"Rrethi i Matit","state_code":"09","latitude":"41.58333000","longitude":"20.08333000","population":null,"timezone":"Europe/Tirane","type":"city","translations":{"es":"Rrethi y Matit","en":"Rrethi i Matit"}},{"name":"Ulëz","state_code":"09","latitude":"41.68278000","longitude":"19.89333000","population":1229,"timezone":"Europe/Tirane","type":"adm3","translations":{"es":"Ulez","en":"Ulëz"}},{"name":"Bashkia Durrës","state_code":"02","latitude":"41.42743000","longitude":"19.48690000","population":null,"timezone":"Europe/Tirane","type":"municipality","translations":{"es":"Bashkia Durrës","en":"Bashkia Durrës"}},{"name":"Bashkia Krujë","state_code":"02","latitude":"41.50091000","longitude":"19.72571000","population":null,"timezone":"Europe/Tirane","type":"municipality","translations":{"es":"Bashkia Krujë","en":"Bashkia Krujë"}},{"name":"Bashkia Shijak","state_code":"02","latitude":"41.33558000","longitude":"19.58977000","population":null,"timezone":"Europe/Tirane","type":"municipality","translations":{"es":"Bashkia Shijak","en":"Bashkia Shijak"}},{"name":"Durrës","state_code":"02","latitude":"41.33139290","longitude":"19.42515790","population":113249,"timezone":"Europe/Tirane","type":"city","translations":{"es":"Durres","en":"Durrës"}},{"name":"Durrës District","state_code":"02","latitude":"41.31660000","longitude":"19.45000000","population":null,"timezone":"Europe/Tirane","type":"district","translations":{"es":"Distrito de Durrës","en":"Durrës District"}},{"name":"Fushë-Krujë","state_code":"02","latitude":"41.47833000","longitude":"19.71778000","population":10458,"timezone":"Europe/Tirane","type":"adm3","translations":{"es":"Fushë-Krujë","en":"Fushë-Krujë"}},{"name":"Krujë","state_code":"02","latitude":"41.50917000","longitude":"19.79278000","population":51191,"timezone":"Europe/Tirane","type":"adm2","translations":{"es":"Krujë","en":"Krujë"}},{"name":"Rrethi i Krujës","state_code":"02","latitude":"41.55000000","longitude":"19.75000000","population":null,"timezone":"Europe/Tirane","type":"adm3","translations":{"es":"Rrethi y Krujës","en":"Rrethi i Krujës"}},{"name":"Shijak","state_code":"02","latitude":"41.34556000","longitude":"19.56722000","population":14138,"timezone":"Europe/Tirane","type":"adm3","translations":{"es":"Shijak","en":"Shijak"}},{"name":"Sukth","state_code":"02","latitude":"41.38056000","longitude":"19.53778000","population":0,"timezone":"Europe/Tirane","type":"adm3","translations":{"es":"Sukth","en":"Sukth"}},{"name":"Gramsh","state_code":"03","latitude":"40.86614460","longitude":"20.17637010","population":8440,"timezone":"Europe/Tirane","type":"adm2","translations":{"es":"Gramsh","en":"Gramsh"}},{"name":"Librazhd","state_code":"03","latitude":"41.18323980","longitude":"20.30362480","population":6937,"timezone":"Europe/Tirane","type":"adm2","translations":{"es":"Librazhd","en":"Librazhd"}},{"name":"Peqin","state_code":"03","latitude":"41.04641030","longitude":"19.74050040","population":6353,"timezone":"Europe/Tirane","type":"adm2","translations":{"es":"Peqin","en":"Peqin"}},{"name":"Ballsh","state_code":"04","latitude":"40.59889000","longitude":"19.73472000","population":4944,"timezone":"Europe/Tirane","type":"adm2","translations":{"es":"Pelota","en":"Ballsh"}},{"name":"Bashkia Divjakë","state_code":"04","latitude":"40.95716000","longitude":"19.52364000","population":null,"timezone":"Europe/Tirane","type":"municipality","translations":{"es":"Bashkia Divjakë","en":"Bashkia Divjakë"}},{"name":"Bashkia Fier","state_code":"04","latitude":"40.72937000","longitude":"19.48690000","population":null,"timezone":"Europe/Tirane","type":"municipality","translations":{"es":"Bashkia Fier","en":"Bashkia Fier"}},{"name":"Bashkia Mallakastër","state_code":"04","latitude":"40.55669000","longitude":"19.77347000","population":null,"timezone":"Europe/Tirane","type":"municipality","translations":{"es":"Bashkia Mallakastër","en":"Bashkia Mallakastër"}},{"name":"Bashkia Patos","state_code":"04","latitude":"40.67793000","longitude":"19.65591000","population":null,"timezone":"Europe/Tirane","type":"municipality","translations":{"es":"Bashkia Patos","en":"Bashkia Patos"}},{"name":"Divjakë","state_code":"04","latitude":"40.99667000","longitude":"19.52944000","population":0,"timezone":"Europe/Tirane","type":"adm3","translations":{"es":"Divjakë","en":"Divjakë"}},{"name":"Fier","state_code":"04","latitude":"40.72389000","longitude":"19.55611000","population":55845,"timezone":"Europe/Tirane","type":"adm1","translations":{"es":"Ardiente","en":"Fier"}},{"name":"Fier-Çifçi","state_code":"04","latitude":"40.71667000","longitude":"19.56667000","population":60995,"timezone":"Europe/Tirane","type":"section","translations":{"es":"Fier-Çifçi","en":"Fier-Çifçi"}},{"name":"Lushnjë","state_code":"04","latitude":"40.94194000","longitude":"19.70500000","population":63135,"timezone":"Europe/Tirane","type":"adm2","translations":{"es":"Lushnjë","en":"Lushnjë"}},{"name":"Mallakastër","state_code":"04","latitude":"40.54335440","longitude":"19.62480730","population":null,"timezone":"Europe/Tirane","type":"adm3","translations":{"es":"Mallakastër","en":"Mallakastër"}},{"name":"Patos","state_code":"04","latitude":"40.68333000","longitude":"19.61944000","population":15397,"timezone":"Europe/Tirane","type":"adm3","translations":{"es":"Patos","en":"Patos"}},{"name":"Patos Fshat","state_code":"04","latitude":"40.64278000","longitude":"19.65083000","population":22679,"timezone":"Europe/Tirane","type":"city","translations":{"es":"Patos Fshat","en":"Patos Fshat"}},{"name":"Roskovec","state_code":"04","latitude":"40.73750000","longitude":"19.70222000","population":6657,"timezone":"Europe/Tirane","type":"adm3","translations":{"es":"Roskovec","en":"Roskovec"}},{"name":"Rrethi i Mallakastrës","state_code":"04","latitude":"40.55000000","longitude":"19.78333000","population":null,"timezone":"Europe/Tirane","type":"city","translations":{"es":"Rrethi y Mallakastrës","en":"Rrethi i Mallakastrës"}},{"name":"Bashkia Kelcyrë","state_code":"05","latitude":"40.36196000","longitude":"20.16476000","population":null,"timezone":"Europe/Tirane","type":"municipality","translations":{"es":"Bashkia Kelcyrë","en":"Bashkia Kelcyrë"}},{"name":"Bashkia Libohovë","state_code":"05","latitude":"40.10754000","longitude":"20.25753000","population":null,"timezone":"Europe/Tirane","type":"municipality","translations":{"es":"Bashkia Libohovë","en":"Bashkia Libohovë"}},{"name":"Bashkia Memaliaj","state_code":"05","latitude":"40.41524000","longitude":"19.96911000","population":null,"timezone":"Europe/Tirane","type":"municipality","translations":{"es":"Bashkia Memaliaj","en":"Bashkia Memaliaj"}},{"name":"Bashkia Përmet","state_code":"05","latitude":"40.23246000","longitude":"20.41091000","population":null,"timezone":"Europe/Tirane","type":"municipality","translations":{"es":"Bashkia Përmet","en":"Bashkia Përmet"}},{"name":"Bashkia Tepelenë","state_code":"05","latitude":"40.26736000","longitude":"19.97003000","population":null,"timezone":"Europe/Tirane","type":"municipality","translations":{"es":"Bashkia Tepelenë","en":"Bashkia Tepelenë"}},{"name":"Dropull","state_code":"05","latitude":"39.98584000","longitude":"20.30529000","population":null,"timezone":"Europe/Tirane","type":"municipality","translations":{"es":"Bashkia Dropull","en":"Dropull"}},{"name":"Gjinkar","state_code":"05","latitude":"40.19944000","longitude":"20.40611000","population":3243,"timezone":"Europe/Tirane","type":"city","translations":{"es":"Gjinkar","en":"Gjinkar"}},{"name":"Gjirokastër","state_code":"05","latitude":"40.07583000","longitude":"20.13889000","population":19400,"timezone":"Europe/Tirane","type":"adm1","translations":{"es":"Gjirokastra","en":"Gjirokastër"}},{"name":"Këlcyrë","state_code":"05","latitude":"40.31306000","longitude":"20.18944000","population":4900,"timezone":"Europe/Tirane","type":"adm3","translations":{"es":"Këlcyrë","en":"Këlcyrë"}},{"name":"Lazarat","state_code":"05","latitude":"40.04667000","longitude":"20.14750000","population":0,"timezone":"Europe/Tirane","type":"adm3","translations":{"es":"Lazarat","en":"Lazarat"}},{"name":"Libohovë","state_code":"05","latitude":"40.03111000","longitude":"20.26306000","population":3651,"timezone":"Europe/Tirane","type":"adm3","translations":{"es":"Libohovë","en":"Libohovë"}},{"name":"Memaliaj","state_code":"05","latitude":"40.35167000","longitude":"19.98028000","population":4951,"timezone":"Europe/Tirane","type":"adm3","translations":{"es":"Memoria","en":"Memaliaj"}},{"name":"Përmet","state_code":"05","latitude":"40.23361000","longitude":"20.35167000","population":7980,"timezone":"Europe/Tirane","type":"adm2","translations":{"es":"Permet","en":"Përmet"}},{"name":"Tepelenë","state_code":"05","latitude":"40.29583000","longitude":"20.01917000","population":11955,"timezone":"Europe/Tirane","type":"adm2","translations":{"es":"Tepelenë","en":"Tepelenë"}},{"name":"Bashkia Devoll","state_code":"06","latitude":"40.60078000","longitude":"20.93814000","population":null,"timezone":"Europe/Tirane","type":"municipality","translations":{"es":"Bashkia Devoll","en":"Bashkia Devoll"}},{"name":"Bashkia Kolonjë","state_code":"06","latitude":"40.31420000","longitude":"20.61482000","population":null,"timezone":"Europe/Tirane","type":"municipality","translations":{"es":"Bashkia Kolonjë","en":"Bashkia Kolonjë"}},{"name":"Bashkia Maliq","state_code":"06","latitude":"40.75508000","longitude":"20.60748000","population":null,"timezone":"Europe/Tirane","type":"municipality","translations":{"es":"Bashkia Maliq","en":"Bashkia Maliq"}},{"name":"Bilisht","state_code":"06","latitude":"40.62750000","longitude":"20.99000000","population":7114,"timezone":"Europe/Tirane","type":"adm3","translations":{"es":"Bilisht","en":"Bilisht"}},{"name":"Devoll","state_code":"06","latitude":"40.58998300","longitude":"20.74813130","population":26716,"timezone":"Europe/Tirane","type":"adm3","translations":{"es":"Devoll","en":"Devoll"}},{"name":"Ersekë","state_code":"06","latitude":"40.33778000","longitude":"20.67889000","population":7890,"timezone":"Europe/Tirane","type":"adm2","translations":{"es":"Ersekë","en":"Ersekë"}},{"name":"Kolonjë","state_code":"06","latitude":"40.28305450","longitude":"20.45647260","population":0,"timezone":"Europe/Tirane","type":"adm3","translations":{"es":"Kolonjë","en":"Kolonjë"}},{"name":"Korçë","state_code":"06","latitude":"40.61861000","longitude":"20.78083000","population":58259,"timezone":"Europe/Tirane","type":"adm1","translations":{"es":"Korçë","en":"Korçë"}},{"name":"Leskovik","state_code":"06","latitude":"40.15139000","longitude":"20.59722000","population":2655,"timezone":"Europe/Tirane","type":"adm3","translations":{"es":"Leskovik","en":"Leskovik"}},{"name":"Libonik","state_code":"06","latitude":"40.70444000","longitude":"20.70861000","population":0,"timezone":"Europe/Tirane","type":"adm3","translations":{"es":"Libonik","en":"Libonik"}},{"name":"Maliq","state_code":"06","latitude":"40.70583000","longitude":"20.69972000","population":3735,"timezone":"Europe/Tirane","type":"adm3","translations":{"es":"Maliq","en":"Maliq"}},{"name":"Mborje","state_code":"06","latitude":"40.60333000","longitude":"20.80306000","population":3850,"timezone":"Europe/Tirane","type":"city","translations":{"es":"Mborje","en":"Mborje"}},{"name":"Pogradec","state_code":"06","latitude":"40.90250000","longitude":"20.65250000","population":46070,"timezone":"Europe/Tirane","type":"adm2","translations":{"es":"Pogradec","en":"Pogradec"}},{"name":"Pustec","state_code":"06","latitude":"40.83591000","longitude":"20.89405000","population":null,"timezone":"Europe/Tirane","type":"municipality","translations":{"es":"Bashkia Pustec","en":"Pustec"}},{"name":"Rrethi i Devollit","state_code":"06","latitude":"40.58333000","longitude":"20.91667000","population":null,"timezone":"Europe/Tirane","type":"city","translations":{"es":"Rrethi y Devollit","en":"Rrethi i Devollit"}},{"name":"Rrethi i Kolonjës","state_code":"06","latitude":"40.25000000","longitude":"20.66667000","population":null,"timezone":"Europe/Tirane","type":"adm2","translations":{"es":"Rrethi y Kolonjës","en":"Rrethi i Kolonjës"}},{"name":"Velçan","state_code":"06","latitude":"40.95472000","longitude":"20.46222000","population":0,"timezone":"Europe/Tirane","type":"adm3","translations":{"es":"Velçan","en":"Velçan"}},{"name":"Voskopojë","state_code":"06","latitude":"40.63306000","longitude":"20.58889000","population":0,"timezone":"Europe/Tirane","type":"adm3","translations":{"es":"Voskopojë","en":"Voskopojë"}},{"name":"Bajram Curri","state_code":"07","latitude":"42.35734000","longitude":"20.07679000","population":4113,"timezone":"Europe/Tirane","type":"adm2","translations":{"es":"Bajram Curri","en":"Bajram Curri"}},{"name":"Krumë","state_code":"07","latitude":"42.19694000","longitude":"20.41333000","population":6006,"timezone":"Europe/Tirane","type":"adm2","translations":{"es":"Krumë","en":"Krumë"}},{"name":"Kukës","state_code":"07","latitude":"42.07694000","longitude":"20.42194000","population":36125,"timezone":"Europe/Tirane","type":"adm1","translations":{"es":"Kukës","en":"Kukës"}},{"name":"Rrethi i Hasit","state_code":"07","latitude":"42.16667000","longitude":"20.33333000","population":null,"timezone":"Europe/Tirane","type":"adm3","translations":{"es":"Rrethi y Hasit","en":"Rrethi i Hasit"}},{"name":"Rrethi i Kukësit","state_code":"07","latitude":"42.00000000","longitude":"20.33333000","population":null,"timezone":"Europe/Tirane","type":"adm3","translations":{"es":"Rrethi y Kukësit","en":"Rrethi i Kukësit"}},{"name":"Tropojë","state_code":"07","latitude":"42.37624000","longitude":"19.74539290","population":0,"timezone":"Europe/Tirane","type":"city","translations":{"es":"Tropojë","en":"Tropojë"}},{"name":"Bashkia Kurbin","state_code":"08","latitude":"41.62215000","longitude":"19.70734000","population":null,"timezone":"Europe/Tirane","type":"municipality","translations":{"es":"Bashkia Kurbin","en":"Bashkia Kurbin"}},{"name":"Bashkia Lezhë","state_code":"08","latitude":"41.81320000","longitude":"19.64121000","population":null,"timezone":"Europe/Tirane","type":"municipality","translations":{"es":"Bashkia Lezhë","en":"Bashkia Lezhë"}},{"name":"Bashkia Mirditë","state_code":"08","latitude":"41.80953000","longitude":"19.99024000","population":null,"timezone":"Europe/Tirane","type":"municipality","translations":{"es":"Bashkia Mirditë","en":"Bashkia Mirditë"}},{"name":"Kurbin","state_code":"08","latitude":"41.63891890","longitude":"19.69333630","population":null,"timezone":"Europe/Tirane","type":"adm2","translations":{"es":"Kurbin","en":"Kurbin"}},{"name":"Kurbnesh","state_code":"08","latitude":"41.77972000","longitude":"20.08361000","population":1429,"timezone":"Europe/Tirane","type":"city","translations":{"es":"Kurbnesh","en":"Kurbnesh"}},{"name":"Laç","state_code":"08","latitude":"41.63556000","longitude":"19.71306000","population":12854,"timezone":"Europe/Tirane","type":"adm2","translations":{"es":"Laca","en":"Laç"}},{"name":"Lezhë","state_code":"08","latitude":"41.78361000","longitude":"19.64361000","population":15510,"timezone":"Europe/Tirane","type":"adm1","translations":{"es":"Lezhë","en":"Lezhë"}},{"name":"Mamurras","state_code":"08","latitude":"41.57750000","longitude":"19.69222000","population":8282,"timezone":"Europe/Tirane","type":"adm3","translations":{"es":"Mamurras","en":"Mamurras"}},{"name":"Milot","state_code":"08","latitude":"41.68389000","longitude":"19.71556000","population":2157,"timezone":"Europe/Tirane","type":"adm3","translations":{"es":"Milot","en":"Milot"}},{"name":"Mirditë","state_code":"08","latitude":"41.86072800","longitude":"19.66757220","population":22103,"timezone":"Europe/Tirane","type":"adm3","translations":{"es":"Mirditë","en":"Mirditë"}},{"name":"Rrëshen","state_code":"08","latitude":"41.76750000","longitude":"19.87556000","population":6773,"timezone":"Europe/Tirane","type":"adm2","translations":{"es":"Rrëshen","en":"Rrëshen"}},{"name":"Rrethi i Kurbinit","state_code":"08","latitude":"41.63333000","longitude":"19.71667000","population":2157,"timezone":"Europe/Tirane","type":"adm3","translations":{"es":"Rrethi y Kurbinit","en":"Rrethi i Kurbinit"}},{"name":"Rubik","state_code":"08","latitude":"41.77444000","longitude":"19.78611000","population":2332,"timezone":"Europe/Tirane","type":"adm3","translations":{"es":"Rubik","en":"Rubik"}},{"name":"Shëngjin","state_code":"08","latitude":"41.81361000","longitude":"19.59389000","population":8091,"timezone":"Europe/Tirane","type":"city","translations":{"es":"Shengjin","en":"Shëngjin"}},{"name":"Bashkia Malësi e Madhe","state_code":"10","latitude":"42.36798000","longitude":"19.58977000","population":null,"timezone":"Europe/Tirane","type":"municipality","translations":{"es":"Bashkia Malësi e Madhe","en":"Bashkia Malësi e Madhe"}},{"name":"Bashkia Pukë","state_code":"10","latitude":"42.02997000","longitude":"19.92778000","population":null,"timezone":"Europe/Tirane","type":"municipality","translations":{"es":"Bashkia Pukë","en":"Bashkia Pukë"}},{"name":"Bashkia Vau i Dejës","state_code":"10","latitude":"42.04834000","longitude":"19.69999000","population":null,"timezone":"Europe/Tirane","type":"municipality","translations":{"es":"Bashkia Vau i Dejës","en":"Bashkia Vau i Dejës"}},{"name":"Fushë-Arrëz","state_code":"10","latitude":"42.06222000","longitude":"20.01667000","population":2438,"timezone":"Europe/Tirane","type":"adm3","translations":{"es":"Fushë-Arrëz","en":"Fushë-Arrëz"}},{"name":"Koplik","state_code":"10","latitude":"42.21361000","longitude":"19.43639000","population":3734,"timezone":"Europe/Tirane","type":"adm2","translations":{"es":"Koplik","en":"Koplik"}},{"name":"Malësi e Madhe","state_code":"10","latitude":"42.39016310","longitude":"19.19918420","population":30823,"timezone":"Europe/Tirane","type":"city","translations":{"es":"Malësi y Madhe","en":"Malësi e Madhe"}},{"name":"Pukë","state_code":"10","latitude":"42.04444000","longitude":"19.89972000","population":6495,"timezone":"Europe/Tirane","type":"adm2","translations":{"es":"Vómito","en":"Pukë"}},{"name":"Rrethi i Malësia e Madhe","state_code":"10","latitude":"42.33333000","longitude":"19.58333000","population":null,"timezone":"Europe/Tirane","type":"city","translations":{"es":"Rrethi i Malësia e Madhe","en":"Rrethi i Malësia e Madhe"}},{"name":"Rrethi i Shkodrës","state_code":"10","latitude":"42.06917000","longitude":"19.53506000","population":null,"timezone":"Europe/Tirane","type":"city","translations":{"es":"Rrethi y Shkodrës","en":"Rrethi i Shkodrës"}},{"name":"Shkodër","state_code":"10","latitude":"42.06828000","longitude":"19.51258000","population":95553,"timezone":"Europe/Tirane","type":"adm1","translations":{"es":"Shkodër","en":"Shkodër"}},{"name":"Vau i Dejës","state_code":"10","latitude":"42.01000000","longitude":"19.62472000","population":0,"timezone":"Europe/Tirane","type":"adm3","translations":{"es":"Vau i Dejës","en":"Vau i Dejës"}},{"name":"Vukatanë","state_code":"10","latitude":"42.02806000","longitude":"19.54778000","population":1113,"timezone":"Europe/Tirane","type":"city","translations":{"es":"Vukatanë","en":"Vukatanë"}},{"name":"Bashkia Kavajë","state_code":"11","latitude":"41.18127000","longitude":"19.55579000","population":null,"timezone":"Europe/Tirane","type":"municipality","translations":{"es":"Bashkia Kavajë","en":"Bashkia Kavajë"}},{"name":"Bashkia Vorë","state_code":"11","latitude":"41.39804000","longitude":"19.67703000","population":null,"timezone":"Europe/Tirane","type":"municipality","translations":{"es":"Bashkia Vorë","en":"Bashkia Vorë"}},{"name":"Kamëz","state_code":"11","latitude":"41.38167000","longitude":"19.76028000","population":11026,"timezone":"Europe/Tirane","type":"adm3","translations":{"es":"Kamëz","en":"Kamëz"}},{"name":"Kavajë","state_code":"11","latitude":"41.18556000","longitude":"19.55694000","population":30012,"timezone":"Europe/Tirane","type":"adm2","translations":{"es":"Kavajë","en":"Kavajë"}},{"name":"Krrabë","state_code":"11","latitude":"41.21556000","longitude":"19.97139000","population":1177,"timezone":"Europe/Tirane","type":"adm3","translations":{"es":"Krrabë","en":"Krrabë"}},{"name":"Rrethi i Kavajës","state_code":"11","latitude":"41.16667000","longitude":"19.58333000","population":null,"timezone":"Europe/Tirane","type":"adm3","translations":{"es":"Rrethi y Kavajës","en":"Rrethi i Kavajës"}},{"name":"Rrethi i Tiranës","state_code":"11","latitude":"41.33333000","longitude":"19.91667000","population":null,"timezone":"Europe/Tirane","type":"adm3","translations":{"es":"Rrethi y Tiranës","en":"Rrethi i Tiranës"}},{"name":"Rrogozhinë","state_code":"11","latitude":"41.07639000","longitude":"19.66528000","population":7049,"timezone":"Europe/Tirane","type":"adm3","translations":{"es":"Rrogozhinë","en":"Rrogozhinë"}},{"name":"Sinaballaj","state_code":"11","latitude":"41.06889000","longitude":"19.69944000","population":0,"timezone":"Europe/Tirane","type":"adm3","translations":{"es":"Sinaballaj","en":"Sinaballaj"}},{"name":"Tirana","state_code":"11","latitude":"41.32750000","longitude":"19.81889000","population":418495,"timezone":"Europe/Tirane","type":"capital","translations":{"es":"Tirana","en":"Tirana"}},{"name":"Vorë","state_code":"11","latitude":"41.39083000","longitude":"19.65500000","population":4973,"timezone":"Europe/Tirane","type":"adm3","translations":{"es":"Vorë","en":"Vorë"}},{"name":"Bashkia Himarë","state_code":"12","latitude":"40.11581000","longitude":"19.81389000","population":null,"timezone":"Europe/Tirane","type":"municipality","translations":{"es":"Bashkia Himarë","en":"Bashkia Himarë"}},{"name":"Bashkia Konispol","state_code":"12","latitude":"39.70064000","longitude":"20.13353000","population":null,"timezone":"Europe/Tirane","type":"municipality","translations":{"es":"Baskia Konispol","en":"Bashkia Konispol"}},{"name":"Bashkia Selenicë","state_code":"12","latitude":"40.39503000","longitude":"19.65958000","population":null,"timezone":"Europe/Tirane","type":"municipality","translations":{"es":"Bashkia Selenicë","en":"Bashkia Selenicë"}},{"name":"Bashkia Vlorë","state_code":"12","latitude":"40.41340000","longitude":"19.49792000","population":null,"timezone":"Europe/Tirane","type":"municipality","translations":{"es":"Bashkia Vlorë","en":"Bashkia Vlorë"}},{"name":"Delvinë","state_code":"12","latitude":"39.95111000","longitude":"20.09778000","population":5754,"timezone":"Europe/Tirane","type":"adm2","translations":{"es":"Delvina","en":"Delvinë"}},{"name":"Finiq","state_code":"12","latitude":"39.84393000","longitude":"20.16659000","population":null,"timezone":"Europe/Tirane","type":"municipality","translations":{"es":"Bashkia Finiq","en":"Finiq"}},{"name":"Himarë","state_code":"12","latitude":"40.10167000","longitude":"19.74472000","population":4596,"timezone":"Europe/Tirane","type":"adm3","translations":{"es":"Himarë","en":"Himarë"}},{"name":"Konispol","state_code":"12","latitude":"39.65889000","longitude":"20.18139000","population":1349,"timezone":"Europe/Tirane","type":"adm3","translations":{"es":"Konispol","en":"Konispol"}},{"name":"Ksamil","state_code":"12","latitude":"39.76889000","longitude":"19.99972000","population":2731,"timezone":"Europe/Tirane","type":"city","translations":{"es":"Ksamil","en":"Ksamil"}},{"name":"Orikum","state_code":"12","latitude":"40.32528000","longitude":"19.47139000","population":2604,"timezone":"Europe/Tirane","type":"adm3","translations":{"es":"Orikum","en":"Orikum"}},{"name":"Rrethi i Delvinës","state_code":"12","latitude":"39.91667000","longitude":"20.08333000","population":null,"timezone":"Europe/Tirane","type":"adm3","translations":{"es":"Rrethi y Delvinës","en":"Rrethi i Delvinës"}},{"name":"Sarandë","state_code":"12","latitude":"39.87534000","longitude":"20.00477000","population":22613,"timezone":"Europe/Tirane","type":"adm2","translations":{"es":"Sarandë","en":"Sarandë"}},{"name":"Selenicë","state_code":"12","latitude":"40.53056000","longitude":"19.63583000","population":6912,"timezone":"Europe/Tirane","type":"adm3","translations":{"es":"Selenica","en":"Selenicë"}},{"name":"Vlorë","state_code":"12","latitude":"40.46860000","longitude":"19.48318000","population":130827,"timezone":"Europe/Tirane","type":"adm1","translations":{"es":"Vlorë","en":"Vlorë"}}]