[{"name":"Agarakavan","state_code":"AG","latitude":"40.33069000","longitude":"44.07233000","population":881,"timezone":"Asia/Yerevan","type":"city","translations":{"es":"Agarakavan","en":"Agarakavan"}},{"name":"Aparan","state_code":"AG","latitude":"40.59323000","longitude":"44.35890000","population":6400,"timezone":"Asia/Yerevan","type":"adm2","translations":{"es":"Aparan","en":"Aparan"}},{"name":"Aragats","state_code":"AG","latitude":"40.48889000","longitude":"44.35290000","population":2924,"timezone":"Asia/Yerevan","type":"city","translations":{"es":"Aragats","en":"Aragats"}},{"name":"Arteni","state_code":"AG","latitude":"40.29730000","longitude":"43.76672000","population":3278,"timezone":"Asia/Yerevan","type":"city","translations":{"es":"Arteni","en":"Arteni"}},{"name":"Ashnak","state_code":"AG","latitude":"40.33069000","longitude":"43.91669000","population":1307,"timezone":"Asia/Yerevan","type":"city","translations":{"es":"Ashnak","en":"Ashnak"}},{"name":"Ashtarak","state_code":"AG","latitude":"40.29910000","longitude":"44.36204000","population":21600,"timezone":"Asia/Yerevan","type":"adm1","translations":{"es":"Ashtarak","en":"Ashtarak"}},{"name":"Byurakan","state_code":"AG","latitude":"40.33894000","longitude":"44.27275000","population":5981,"timezone":"Asia/Yerevan","type":"city","translations":{"es":"Byurakan","en":"Byurakan"}},{"name":"Hnaberd","state_code":"AG","latitude":"40.63721000","longitude":"44.14058000","population":1836,"timezone":"Asia/Yerevan","type":"city","translations":{"es":"Hnaberd","en":"Hnaberd"}},{"name":"Karbi","state_code":"AG","latitude":"40.33069000","longitude":"44.37793000","population":4844,"timezone":"Asia/Yerevan","type":"city","translations":{"es":"Karbi","en":"Karbi"}},{"name":"Kasakh","state_code":"AG","latitude":"40.53697000","longitude":"44.41046000","population":4247,"timezone":"Asia/Yerevan","type":"city","translations":{"es":"Kazajistán","en":"Kasakh"}},{"name":"Kosh","state_code":"AG","latitude":"40.30011000","longitude":"44.16107000","population":2513,"timezone":"Asia/Yerevan","type":"city","translations":{"es":"Kosh","en":"Kosh"}},{"name":"Nor Yerznka","state_code":"AG","latitude":"40.30011000","longitude":"44.38892000","population":1628,"timezone":"Asia/Yerevan","type":"city","translations":{"es":"Ni Yerznka","en":"Nor Yerznka"}},{"name":"Oshakan","state_code":"AG","latitude":"40.26392000","longitude":"44.31671000","population":5962,"timezone":"Asia/Yerevan","type":"city","translations":{"es":"Oshakan","en":"Oshakan"}},{"name":"Sasunik","state_code":"AG","latitude":"40.25012000","longitude":"44.34448000","population":2455,"timezone":"Asia/Yerevan","type":"city","translations":{"es":"Sasunik","en":"Sasunik"}},{"name":"Shenavan","state_code":"AG","latitude":"40.48328000","longitude":"44.38348000","population":1638,"timezone":"Asia/Yerevan","type":"city","translations":{"es":"Shenavan","en":"Shenavan"}},{"name":"T’alin","state_code":"AG","latitude":"40.39172000","longitude":"43.87793000","population":4451,"timezone":"Asia/Yerevan","type":"city","translations":{"es":"Talin","en":"T’alin"}},{"name":"Tsaghkahovit","state_code":"AG","latitude":"40.63428000","longitude":"44.22241000","population":2113,"timezone":"Asia/Yerevan","type":"adm2","translations":{"es":"Tsaghkahovit","en":"Tsaghkahovit"}},{"name":"Ushi","state_code":"AG","latitude":"40.34729000","longitude":"44.37512000","population":1617,"timezone":"Asia/Yerevan","type":"city","translations":{"es":"Ushi","en":"Ushi"}},{"name":"Voskevaz","state_code":"AG","latitude":"40.27508000","longitude":"44.30011000","population":4168,"timezone":"Asia/Yerevan","type":"city","translations":{"es":"Voskevaz","en":"Voskevaz"}},{"name":"Zovuni","state_code":"AG","latitude":"40.51111000","longitude":"44.43890000","population":5479,"timezone":"Asia/Yerevan","type":"city","translations":{"es":"Zovuni","en":"Zovuni"}},{"name":"Abovyan","state_code":"AR","latitude":"40.04851000","longitude":"44.54742000","population":1402,"timezone":"Asia/Yerevan","type":"city","translations":{"es":"Abovyan","en":"Abovyan"}},{"name":"Aralez","state_code":"AR","latitude":"39.90008000","longitude":"44.65570000","population":2243,"timezone":"Asia/Yerevan","type":"city","translations":{"es":"Aralez","en":"Aralez"}},{"name":"Ararat","state_code":"AR","latitude":"39.83069000","longitude":"44.70569000","population":7609,"timezone":"Asia/Yerevan","type":"city","translations":{"es":"Ararat","en":"Ararat"}},{"name":"Arevabuyr","state_code":"AR","latitude":"40.03607000","longitude":"44.46948000","population":1362,"timezone":"Asia/Yerevan","type":"city","translations":{"es":"Arevabuyr","en":"Arevabuyr"}},{"name":"Arevshat","state_code":"AR","latitude":"40.03963000","longitude":"44.54179000","population":1809,"timezone":"Asia/Yerevan","type":"city","translations":{"es":"Arevshat","en":"Arevshat"}},{"name":"Armash","state_code":"AR","latitude":"39.76672000","longitude":"44.81110000","population":2378,"timezone":"Asia/Yerevan","type":"city","translations":{"es":"Armash","en":"Armash"}},{"name":"Artashat","state_code":"AR","latitude":"39.96144000","longitude":"44.54447000","population":21300,"timezone":"Asia/Yerevan","type":"adm1","translations":{"es":"Artashat","en":"Artashat"}},{"name":"Avshar","state_code":"AR","latitude":"39.85553000","longitude":"44.65832000","population":4929,"timezone":"Asia/Yerevan","type":"city","translations":{"es":"Avshar","en":"Avshar"}},{"name":"Aygavan","state_code":"AR","latitude":"39.87327000","longitude":"44.66984000","population":3914,"timezone":"Asia/Yerevan","type":"city","translations":{"es":"Aygavan","en":"Aygavan"}},{"name":"Aygepat","state_code":"AR","latitude":"39.95845000","longitude":"44.59981000","population":1287,"timezone":"Asia/Yerevan","type":"city","translations":{"es":"Aygepat","en":"Aygepat"}},{"name":"Aygestan","state_code":"AR","latitude":"40.00293000","longitude":"44.55829000","population":2397,"timezone":"Asia/Yerevan","type":"city","translations":{"es":"Aygestan","en":"Aygestan"}},{"name":"Aygezard","state_code":"AR","latitude":"39.95436000","longitude":"44.60229000","population":2994,"timezone":"Asia/Yerevan","type":"city","translations":{"es":"Aygezard","en":"Aygezard"}},{"name":"Bardzrashen","state_code":"AR","latitude":"40.08533000","longitude":"44.57957000","population":1335,"timezone":"Asia/Yerevan","type":"city","translations":{"es":"Bardzrashen","en":"Bardzrashen"}},{"name":"Berk’anush","state_code":"AR","latitude":"39.97790000","longitude":"44.51672000","population":null,"timezone":"Asia/Yerevan","type":"city","translations":{"es":"Berk'anush","en":"Berk’anush"}},{"name":"Burastan","state_code":"AR","latitude":"39.99157000","longitude":"44.49681000","population":2012,"timezone":"Asia/Yerevan","type":"city","translations":{"es":"Burastán","en":"Burastan"}},{"name":"Byuravan","state_code":"AR","latitude":"40.01604000","longitude":"44.51889000","population":1191,"timezone":"Asia/Yerevan","type":"city","translations":{"es":"Byuravan","en":"Byuravan"}},{"name":"Dalar","state_code":"AR","latitude":"39.97653000","longitude":"44.52649000","population":2594,"timezone":"Asia/Yerevan","type":"city","translations":{"es":"Dalar","en":"Dalar"}},{"name":"Darakert","state_code":"AR","latitude":"40.10553000","longitude":"44.41388000","population":2723,"timezone":"Asia/Yerevan","type":"city","translations":{"es":"Darakert","en":"Darakert"}},{"name":"Dashtavan","state_code":"AR","latitude":"40.10010000","longitude":"44.39172000","population":1970,"timezone":"Asia/Yerevan","type":"city","translations":{"es":"Dashtavan","en":"Dashtavan"}},{"name":"Dimitrov","state_code":"AR","latitude":"40.00848000","longitude":"44.49170000","population":1391,"timezone":"Asia/Yerevan","type":"city","translations":{"es":"Dimitrov","en":"Dimitrov"}},{"name":"Dvin","state_code":"AR","latitude":"40.01984000","longitude":"44.58376000","population":2751,"timezone":"Asia/Yerevan","type":"city","translations":{"es":"Dvin","en":"Dvin"}},{"name":"Getazat","state_code":"AR","latitude":"40.03844000","longitude":"44.56369000","population":2157,"timezone":"Asia/Yerevan","type":"city","translations":{"es":"Getazat","en":"Getazat"}},{"name":"Ghukasavan","state_code":"AR","latitude":"40.12793000","longitude":"44.41669000","population":2019,"timezone":"Asia/Yerevan","type":"city","translations":{"es":"Ghukasavan","en":"Ghukasavan"}},{"name":"Goravan","state_code":"AR","latitude":"39.90832000","longitude":"44.73328000","population":2340,"timezone":"Asia/Yerevan","type":"city","translations":{"es":"Goravan","en":"Goravan"}},{"name":"Hayanist","state_code":"AR","latitude":"40.12231000","longitude":"44.37793000","population":3098,"timezone":"Asia/Yerevan","type":"city","translations":{"es":"Hayanista","en":"Hayanist"}},{"name":"Hovtashat","state_code":"AR","latitude":"40.09729000","longitude":"44.34448000","population":4224,"timezone":"Asia/Yerevan","type":"city","translations":{"es":"Hovtashat","en":"Hovtashat"}},{"name":"Hovtashen","state_code":"AR","latitude":"40.02508000","longitude":"44.45007000","population":1034,"timezone":"Asia/Yerevan","type":"city","translations":{"es":"Hovtashen","en":"Hovtashen"}},{"name":"Jrahovit","state_code":"AR","latitude":"40.04730000","longitude":"44.47510000","population":1072,"timezone":"Asia/Yerevan","type":"city","translations":{"es":"Jrahovit","en":"Jrahovit"}},{"name":"Lusarrat","state_code":"AR","latitude":"39.87403000","longitude":"44.58678000","population":2739,"timezone":"Asia/Yerevan","type":"city","translations":{"es":"Lusarrat","en":"Lusarrat"}},{"name":"Marmarashen","state_code":"AR","latitude":"40.05829000","longitude":"44.47229000","population":3607,"timezone":"Asia/Yerevan","type":"city","translations":{"es":"Marmarashen","en":"Marmarashen"}},{"name":"Masis","state_code":"AR","latitude":"40.06542000","longitude":"44.41618000","population":21376,"timezone":"Asia/Yerevan","type":"city","translations":{"es":"Masis","en":"Masis"}},{"name":"Mrganush","state_code":"AR","latitude":"40.02857000","longitude":"44.55831000","population":1101,"timezone":"Asia/Yerevan","type":"city","translations":{"es":"Mrganush","en":"Mrganush"}},{"name":"Mrgavan","state_code":"AR","latitude":"39.97251000","longitude":"44.53565000","population":1606,"timezone":"Asia/Yerevan","type":"city","translations":{"es":"Mrgavan","en":"Mrgavan"}},{"name":"Mrgavet","state_code":"AR","latitude":"40.02789000","longitude":"44.48328000","population":2084,"timezone":"Asia/Yerevan","type":"city","translations":{"es":"Mrgavet","en":"Mrgavet"}},{"name":"Nizami","state_code":"AR","latitude":"40.09168000","longitude":"44.40570000","population":1327,"timezone":"Asia/Yerevan","type":"city","translations":{"es":"Nizami","en":"Nizami"}},{"name":"Norabats’","state_code":"AR","latitude":"40.10553000","longitude":"44.43329000","population":2579,"timezone":"Asia/Yerevan","type":"city","translations":{"es":"Norabats","en":"Norabats’"}},{"name":"Noramarg","state_code":"AR","latitude":"40.02228000","longitude":"44.42511000","population":2069,"timezone":"Asia/Yerevan","type":"city","translations":{"es":"Noramarg","en":"Noramarg"}},{"name":"Norashen","state_code":"AR","latitude":"40.00130000","longitude":"44.59296000","population":3737,"timezone":"Asia/Yerevan","type":"city","translations":{"es":"Norashen","en":"Norashen"}},{"name":"Noyakert","state_code":"AR","latitude":"39.83069000","longitude":"44.66949000","population":2140,"timezone":"Asia/Yerevan","type":"city","translations":{"es":"Noyakert","en":"Noyakert"}},{"name":"Nshavan","state_code":"AR","latitude":"40.02787000","longitude":"44.52565000","population":1725,"timezone":"Asia/Yerevan","type":"city","translations":{"es":"Nshavan","en":"Nshavan"}},{"name":"Sayat’-Nova","state_code":"AR","latitude":"40.07507000","longitude":"44.40008000","population":2375,"timezone":"Asia/Yerevan","type":"city","translations":{"es":"Sayat'-Nova","en":"Sayat’-Nova"}},{"name":"Shahumyan","state_code":"AR","latitude":"39.94171000","longitude":"44.57233000","population":4409,"timezone":"Asia/Yerevan","type":"city","translations":{"es":"Shahumyan","en":"Shahumyan"}},{"name":"Sis","state_code":"AR","latitude":"40.05829000","longitude":"44.38892000","population":1475,"timezone":"Asia/Yerevan","type":"city","translations":{"es":"Hermana","en":"Sis"}},{"name":"Sisavan","state_code":"AR","latitude":"39.90802000","longitude":"44.66721000","population":1841,"timezone":"Asia/Yerevan","type":"city","translations":{"es":"Sisavan","en":"Sisavan"}},{"name":"Surenavan","state_code":"AR","latitude":"39.79449000","longitude":"44.77508000","population":2172,"timezone":"Asia/Yerevan","type":"city","translations":{"es":"Surenavan","en":"Surenavan"}},{"name":"Vedi","state_code":"AR","latitude":"39.91388000","longitude":"44.72510000","population":13600,"timezone":"Asia/Yerevan","type":"adm2","translations":{"es":"Vedi","en":"Vedi"}},{"name":"Verin Artashat","state_code":"AR","latitude":"39.99731000","longitude":"44.58893000","population":4334,"timezone":"Asia/Yerevan","type":"city","translations":{"es":"Verin Artashat","en":"Verin Artashat"}},{"name":"Verin Dvin","state_code":"AR","latitude":"40.02434000","longitude":"44.59038000","population":1831,"timezone":"Asia/Yerevan","type":"adm2","translations":{"es":"Verin Dvin","en":"Verin Dvin"}},{"name":"Vosketap’","state_code":"AR","latitude":"39.88114000","longitude":"44.64917000","population":4820,"timezone":"Asia/Yerevan","type":"city","translations":{"es":"Vosketap’","en":"Vosketap’"}},{"name":"Vostan","state_code":"AR","latitude":"39.96515000","longitude":"44.55937000","population":2739,"timezone":"Asia/Yerevan","type":"city","translations":{"es":"Vostan","en":"Vostan"}},{"name":"Yeghegnavan","state_code":"AR","latitude":"39.83893000","longitude":"44.61951000","population":1420,"timezone":"Asia/Yerevan","type":"city","translations":{"es":"Yeghegnavan","en":"Yeghegnavan"}},{"name":"Zangakatun","state_code":"AR","latitude":"39.82233000","longitude":"45.04169000","population":1042,"timezone":"Asia/Yerevan","type":"city","translations":{"es":"Zangakatún","en":"Zangakatun"}},{"name":"Zorak","state_code":"AR","latitude":"40.09168000","longitude":"44.39447000","population":1783,"timezone":"Asia/Yerevan","type":"city","translations":{"es":"Zorak","en":"Zorak"}},{"name":"Aghavnatun","state_code":"AV","latitude":"40.23330000","longitude":"44.25295000","population":3742,"timezone":"Asia/Yerevan","type":"city","translations":{"es":"Aghavnatun","en":"Aghavnatun"}},{"name":"Aknalich","state_code":"AV","latitude":"40.14728000","longitude":"44.16669000","population":3212,"timezone":"Asia/Yerevan","type":"city","translations":{"es":"Aknalich","en":"Aknalich"}},{"name":"Aknashen","state_code":"AV","latitude":"40.09551000","longitude":"44.28604000","population":1569,"timezone":"Asia/Yerevan","type":"city","translations":{"es":"Aknashen","en":"Aknashen"}},{"name":"Alashkert","state_code":"AV","latitude":"40.10712000","longitude":"44.05108000","population":2045,"timezone":"Asia/Yerevan","type":"city","translations":{"es":"Alashkert","en":"Alashkert"}},{"name":"Apaga","state_code":"AV","latitude":"40.09729000","longitude":"44.25293000","population":1853,"timezone":"Asia/Yerevan","type":"city","translations":{"es":"Apaga","en":"Apaga"}},{"name":"Arak’s","state_code":"AV","latitude":"40.05548000","longitude":"44.30292000","population":1727,"timezone":"Asia/Yerevan","type":"city","translations":{"es":"De Arak","en":"Arak’s"}},{"name":"Arazap’","state_code":"AV","latitude":"40.04169000","longitude":"44.14728000","population":1730,"timezone":"Asia/Yerevan","type":"city","translations":{"es":"Arazap’","en":"Arazap’"}},{"name":"Arbat’","state_code":"AV","latitude":"40.13892000","longitude":"44.40289000","population":2220,"timezone":"Asia/Yerevan","type":"city","translations":{"es":"Arbat’","en":"Arbat’"}},{"name":"Arevashat","state_code":"AV","latitude":"40.14447000","longitude":"44.37512000","population":1917,"timezone":"Asia/Yerevan","type":"city","translations":{"es":"Arevashat","en":"Arevashat"}},{"name":"Arevik","state_code":"AV","latitude":"40.10010000","longitude":"44.09448000","population":2991,"timezone":"Asia/Yerevan","type":"city","translations":{"es":"Arevik","en":"Arevik"}},{"name":"Argavand","state_code":"AV","latitude":"40.06110000","longitude":"44.09448000","population":2301,"timezone":"Asia/Yerevan","type":"city","translations":{"es":"Argavand","en":"Argavand"}},{"name":"Armavir","state_code":"AV","latitude":"40.15446000","longitude":"44.03815000","population":29700,"timezone":"Asia/Yerevan","type":"adm1","translations":{"es":"Armavir","en":"Armavir"}},{"name":"Arshaluys","state_code":"AV","latitude":"40.16949000","longitude":"44.21393000","population":4250,"timezone":"Asia/Yerevan","type":"city","translations":{"es":"Arshaluys","en":"Arshaluys"}},{"name":"Artimet","state_code":"AV","latitude":"40.15008000","longitude":"44.26672000","population":2427,"timezone":"Asia/Yerevan","type":"city","translations":{"es":"Artimet","en":"Artimet"}},{"name":"Aygek","state_code":"AV","latitude":"40.18890000","longitude":"44.38611000","population":1433,"timezone":"Asia/Yerevan","type":"city","translations":{"es":"Aygek","en":"Aygek"}},{"name":"Aygeshat","state_code":"AV","latitude":"40.07507000","longitude":"44.06110000","population":2111,"timezone":"Asia/Yerevan","type":"city","translations":{"es":"Aygeshat","en":"Aygeshat"}},{"name":"Baghramyan","state_code":"AV","latitude":"40.19452000","longitude":"44.36951000","population":2838,"timezone":"Asia/Yerevan","type":"city","translations":{"es":"Baghramyan","en":"Baghramyan"}},{"name":"Bambakashat","state_code":"AV","latitude":"40.10828000","longitude":"44.01947000","population":646,"timezone":"Asia/Yerevan","type":"city","translations":{"es":"Bambakashat","en":"Bambakashat"}},{"name":"Dalarik","state_code":"AV","latitude":"40.22790000","longitude":"43.87793000","population":3975,"timezone":"Asia/Yerevan","type":"city","translations":{"es":"Dalarik","en":"Dalarik"}},{"name":"Doghs","state_code":"AV","latitude":"40.22229000","longitude":"44.27228000","population":1339,"timezone":"Asia/Yerevan","type":"city","translations":{"es":"Perros","en":"Doghs"}},{"name":"Gay","state_code":"AV","latitude":"40.08444000","longitude":"44.30528000","population":4135,"timezone":"Asia/Yerevan","type":"city","translations":{"es":"Gay","en":"Gay"}},{"name":"Geghakert","state_code":"AV","latitude":"40.18516000","longitude":"44.24331000","population":2564,"timezone":"Asia/Yerevan","type":"adm2","translations":{"es":"Geghakert","en":"Geghakert"}},{"name":"Geghanist","state_code":"AV","latitude":"40.14587000","longitude":"44.43048000","population":2739,"timezone":"Asia/Yerevan","type":"city","translations":{"es":"Geghanista","en":"Geghanist"}},{"name":"Getashen","state_code":"AV","latitude":"40.04449000","longitude":"43.94171000","population":2137,"timezone":"Asia/Yerevan","type":"city","translations":{"es":"Getashén","en":"Getashen"}},{"name":"Gmbet’","state_code":"AV","latitude":"40.22369000","longitude":"44.25409000","population":3742,"timezone":"Asia/Yerevan","type":"city","translations":{"es":"Gmbet’","en":"Gmbet’"}},{"name":"Griboyedov","state_code":"AV","latitude":"40.11307000","longitude":"44.27169000","population":1845,"timezone":"Asia/Yerevan","type":"city","translations":{"es":"Griboyédov","en":"Griboyedov"}},{"name":"Haykashen","state_code":"AV","latitude":"40.07233000","longitude":"44.30829000","population":1115,"timezone":"Asia/Yerevan","type":"city","translations":{"es":"Haykashen","en":"Haykashen"}},{"name":"Hovtamej","state_code":"AV","latitude":"40.18329000","longitude":"44.25848000","population":1044,"timezone":"Asia/Yerevan","type":"city","translations":{"es":"Hovtamej","en":"Hovtamej"}},{"name":"Janfida","state_code":"AV","latitude":"40.04449000","longitude":"44.02789000","population":2963,"timezone":"Asia/Yerevan","type":"city","translations":{"es":"Janfida","en":"Janfida"}},{"name":"Khoronk’","state_code":"AV","latitude":"40.13611000","longitude":"44.24731000","population":3010,"timezone":"Asia/Yerevan","type":"city","translations":{"es":"Khoronk’","en":"Khoronk’"}},{"name":"Lenughi","state_code":"AV","latitude":"40.12512000","longitude":"43.96393000","population":1470,"timezone":"Asia/Yerevan","type":"city","translations":{"es":"Lenughi","en":"Lenughi"}},{"name":"Lukashin","state_code":"AV","latitude":"40.18726000","longitude":"44.00390000","population":2216,"timezone":"Asia/Yerevan","type":"city","translations":{"es":"Lukashin","en":"Lukashin"}},{"name":"Margara","state_code":"AV","latitude":"40.03332000","longitude":"44.18048000","population":5783,"timezone":"Asia/Yerevan","type":"city","translations":{"es":"Márgara","en":"Margara"}},{"name":"Mayisyan","state_code":"AV","latitude":"40.15701000","longitude":"44.09192000","population":2069,"timezone":"Asia/Yerevan","type":"city","translations":{"es":"Mayisyan","en":"Mayisyan"}},{"name":"Merdzavan","state_code":"AV","latitude":"40.18140000","longitude":"44.40033000","population":3303,"timezone":"Asia/Yerevan","type":"city","translations":{"es":"Merdzavan","en":"Merdzavan"}},{"name":"Metsamor","state_code":"AV","latitude":"40.14447000","longitude":"44.11670000","population":9131,"timezone":"Asia/Yerevan","type":"adm2","translations":{"es":"Metsamor","en":"Metsamor"}},{"name":"Mrgashat","state_code":"AV","latitude":"40.13068000","longitude":"44.08069000","population":4993,"timezone":"Asia/Yerevan","type":"city","translations":{"es":"Mrgashat","en":"Mrgashat"}},{"name":"Musalerr","state_code":"AV","latitude":"40.15570000","longitude":"44.37793000","population":3098,"timezone":"Asia/Yerevan","type":"city","translations":{"es":"Musalerr","en":"Musalerr"}},{"name":"Myasnikyan","state_code":"AV","latitude":"40.18048000","longitude":"43.91949000","population":4036,"timezone":"Asia/Yerevan","type":"city","translations":{"es":"Myasnikyan","en":"Myasnikyan"}},{"name":"Nalbandyan","state_code":"AV","latitude":"40.06390000","longitude":"43.98889000","population":2013,"timezone":"Asia/Yerevan","type":"city","translations":{"es":"Nalbandyan","en":"Nalbandyan"}},{"name":"Nor Armavir","state_code":"AV","latitude":"40.08612000","longitude":"43.99451000","population":1148,"timezone":"Asia/Yerevan","type":"city","translations":{"es":"Ni Armavir","en":"Nor Armavir"}},{"name":"Norakert","state_code":"AV","latitude":"40.19733000","longitude":"44.35010000","population":2739,"timezone":"Asia/Yerevan","type":"city","translations":{"es":"Norakert","en":"Norakert"}},{"name":"P’shatavan","state_code":"AV","latitude":"40.03888000","longitude":"44.06671000","population":2379,"timezone":"Asia/Yerevan","type":"city","translations":{"es":"P'shatavan","en":"P’shatavan"}},{"name":"Ptghunk’","state_code":"AV","latitude":"40.16388000","longitude":"44.36389000","population":1996,"timezone":"Asia/Yerevan","type":"city","translations":{"es":"Ptghunk'","en":"Ptghunk’"}},{"name":"Sardarapat","state_code":"AV","latitude":"40.13206000","longitude":"44.00969000","population":6539,"timezone":"Asia/Yerevan","type":"city","translations":{"es":"Sardarapat","en":"Sardarapat"}},{"name":"Shenavan","state_code":"AV","latitude":"40.05548000","longitude":"43.93048000","population":1638,"timezone":"Asia/Yerevan","type":"city","translations":{"es":"Shenavan","en":"Shenavan"}},{"name":"Tandzut","state_code":"AV","latitude":"40.06952000","longitude":"44.07788000","population":2016,"timezone":"Asia/Yerevan","type":"city","translations":{"es":"Tandzut","en":"Tandzut"}},{"name":"Taronik","state_code":"AV","latitude":"40.13367000","longitude":"44.19957000","population":1892,"timezone":"Asia/Yerevan","type":"city","translations":{"es":"Taronik","en":"Taronik"}},{"name":"Tsaghkunk’","state_code":"AV","latitude":"40.18048000","longitude":"44.27228000","population":1406,"timezone":"Asia/Yerevan","type":"city","translations":{"es":"Tsaghkunk’","en":"Tsaghkunk’"}},{"name":"Tsiatsan","state_code":"AV","latitude":"40.18610000","longitude":"44.26947000","population":1358,"timezone":"Asia/Yerevan","type":"city","translations":{"es":"Tsiatsan","en":"Tsiatsan"}},{"name":"Vagharshapat","state_code":"AV","latitude":"40.16557000","longitude":"44.29462000","population":45842,"timezone":"Asia/Yerevan","type":"adm2","translations":{"es":"Vagharshapat","en":"Vagharshapat"}},{"name":"Voskehat","state_code":"AV","latitude":"40.14172000","longitude":"44.33069000","population":3491,"timezone":"Asia/Yerevan","type":"city","translations":{"es":"Voskehat","en":"Voskehat"}},{"name":"Yeghegnut","state_code":"AV","latitude":"40.08893000","longitude":"44.16669000","population":1726,"timezone":"Asia/Yerevan","type":"city","translations":{"es":"Yeghegnut","en":"Yeghegnut"}},{"name":"Yeraskhahun","state_code":"AV","latitude":"40.07233000","longitude":"44.21948000","population":1834,"timezone":"Asia/Yerevan","type":"city","translations":{"es":"Yeraskhahun","en":"Yeraskhahun"}},{"name":"Akunk’","state_code":"GR","latitude":"40.15886000","longitude":"45.72568000","population":3850,"timezone":"Asia/Yerevan","type":"city","translations":{"es":"Akunk’","en":"Akunk’"}},{"name":"Astghadzor","state_code":"GR","latitude":"40.12231000","longitude":"45.35553000","population":4215,"timezone":"Asia/Yerevan","type":"city","translations":{"es":"Astghadzor","en":"Astghadzor"}},{"name":"Chambarak","state_code":"GR","latitude":"40.59655000","longitude":"45.35498000","population":5850,"timezone":"Asia/Yerevan","type":"city","translations":{"es":"Chambarak","en":"Chambarak"}},{"name":"Ddmashen","state_code":"GR","latitude":"40.57028000","longitude":"44.82295000","population":2806,"timezone":"Asia/Yerevan","type":"city","translations":{"es":"Ddmashen","en":"Ddmashen"}},{"name":"Drakhtik","state_code":"GR","latitude":"40.56497000","longitude":"45.23670000","population":909,"timezone":"Asia/Yerevan","type":"city","translations":{"es":"Drakhtik","en":"Drakhtik"}},{"name":"Dzoragyugh","state_code":"GR","latitude":"40.16957000","longitude":"45.18337000","population":4737,"timezone":"Asia/Yerevan","type":"city","translations":{"es":"Dzoragyugh","en":"Dzoragyugh"}},{"name":"Gagarin","state_code":"GR","latitude":"40.54026000","longitude":"44.86962000","population":1800,"timezone":"Asia/Yerevan","type":"city","translations":{"es":"Gagarin","en":"Gagarin"}},{"name":"Gandzak","state_code":"GR","latitude":"40.31472000","longitude":"45.11139000","population":4377,"timezone":"Asia/Yerevan","type":"city","translations":{"es":"Gandzak","en":"Gandzak"}},{"name":"Gavarr","state_code":"GR","latitude":"40.35398000","longitude":"45.12386000","population":18900,"timezone":"Asia/Yerevan","type":"adm1","translations":{"es":"Gavarr","en":"Gavarr"}},{"name":"Geghamasar","state_code":"GR","latitude":"40.31091000","longitude":"45.67924000","population":1132,"timezone":"Asia/Yerevan","type":"city","translations":{"es":"Geghamasar","en":"Geghamasar"}},{"name":"Geghamavan","state_code":"GR","latitude":"40.56250000","longitude":"44.88892000","population":1721,"timezone":"Asia/Yerevan","type":"city","translations":{"es":"Geghamavan","en":"Geghamavan"}},{"name":"Karanlukh","state_code":"GR","latitude":"40.10444000","longitude":"45.28972000","population":5104,"timezone":"Asia/Yerevan","type":"city","translations":{"es":"Karanlukh","en":"Karanlukh"}},{"name":"Karchaghbyur","state_code":"GR","latitude":"40.17048000","longitude":"45.57785000","population":2337,"timezone":"Asia/Yerevan","type":"city","translations":{"es":"Karchaghbyur","en":"Karchaghbyur"}},{"name":"Lanjaghbyur","state_code":"GR","latitude":"40.26947000","longitude":"45.14447000","population":2115,"timezone":"Asia/Yerevan","type":"city","translations":{"es":"Lanjaghbyur","en":"Lanjaghbyur"}},{"name":"Lchap’","state_code":"GR","latitude":"40.45569000","longitude":"45.07507000","population":1191,"timezone":"Asia/Yerevan","type":"city","translations":{"es":"Lchap’","en":"Lchap’"}},{"name":"Lchashen","state_code":"GR","latitude":"40.51947000","longitude":"44.93048000","population":4969,"timezone":"Asia/Yerevan","type":"city","translations":{"es":"Lchashen","en":"Lchashen"}},{"name":"Lichk’","state_code":"GR","latitude":"40.15933000","longitude":"45.23467000","population":5369,"timezone":"Asia/Yerevan","type":"city","translations":{"es":"Lichk’","en":"Lichk’"}},{"name":"Madina","state_code":"GR","latitude":"40.07637000","longitude":"45.25507000","population":1111,"timezone":"Asia/Yerevan","type":"city","translations":{"es":"Medina","en":"Madina"}},{"name":"Martuni","state_code":"GR","latitude":"40.08333000","longitude":"45.25000000","population":null,"timezone":"Asia/Yerevan","type":"city","translations":{"es":"Martuni","en":"Martuni"}},{"name":"Mets Masrik","state_code":"GR","latitude":"40.21948000","longitude":"45.76391000","population":3132,"timezone":"Asia/Yerevan","type":"city","translations":{"es":"Mets Masrik","en":"Mets Masrik"}},{"name":"Nerk’in Getashen","state_code":"GR","latitude":"40.14172000","longitude":"45.27087000","population":9381,"timezone":"Asia/Yerevan","type":"city","translations":{"es":"Nerk'in Getashen","en":"Nerk’in Getashen"}},{"name":"Noratus","state_code":"GR","latitude":"40.37793000","longitude":"45.18048000","population":6732,"timezone":"Asia/Yerevan","type":"city","translations":{"es":"Norato","en":"Noratus"}},{"name":"Sarukhan","state_code":"GR","latitude":"40.29169000","longitude":"45.13068000","population":8309,"timezone":"Asia/Yerevan","type":"city","translations":{"es":"Sarukhan","en":"Sarukhan"}},{"name":"Sevan","state_code":"GR","latitude":"40.54730000","longitude":"44.94171000","population":23200,"timezone":"Asia/Yerevan","type":"adm2","translations":{"es":"Seván","en":"Sevan"}},{"name":"Tsovagyugh","state_code":"GR","latitude":"40.63348000","longitude":"44.96112000","population":3943,"timezone":"Asia/Yerevan","type":"city","translations":{"es":"Tsovagyugh","en":"Tsovagyugh"}},{"name":"Tsovak","state_code":"GR","latitude":"40.18254000","longitude":"45.63286000","population":2319,"timezone":"Asia/Yerevan","type":"city","translations":{"es":"Tsovak","en":"Tsovak"}},{"name":"Tsovasar","state_code":"GR","latitude":"40.13820000","longitude":"45.19096000","population":2708,"timezone":"Asia/Yerevan","type":"city","translations":{"es":"Tsovasar","en":"Tsovasar"}},{"name":"Tsovazard","state_code":"GR","latitude":"40.47510000","longitude":"45.05011000","population":1905,"timezone":"Asia/Yerevan","type":"city","translations":{"es":"Tsovazard","en":"Tsovazard"}},{"name":"Tsovinar","state_code":"GR","latitude":"40.15959000","longitude":"45.46786000","population":5115,"timezone":"Asia/Yerevan","type":"city","translations":{"es":"Tsovinar","en":"Tsovinar"}},{"name":"Vaghashen","state_code":"GR","latitude":"40.13611000","longitude":"45.33069000","population":4267,"timezone":"Asia/Yerevan","type":"city","translations":{"es":"Vaghashen","en":"Vaghashen"}},{"name":"Vahan","state_code":"GR","latitude":"40.57549000","longitude":"45.39769000","population":1127,"timezone":"Asia/Yerevan","type":"city","translations":{"es":"Vahan","en":"Vahan"}},{"name":"Vardenik","state_code":"GR","latitude":"40.13348000","longitude":"45.44311000","population":9880,"timezone":"Asia/Yerevan","type":"city","translations":{"es":"Vardenik","en":"Vardenik"}},{"name":"Vardenis","state_code":"GR","latitude":"40.18329000","longitude":"45.73053000","population":12575,"timezone":"Asia/Yerevan","type":"adm2","translations":{"es":"Vardenis","en":"Vardenis"}},{"name":"Varser","state_code":"GR","latitude":"40.55548000","longitude":"44.90832000","population":1437,"timezone":"Asia/Yerevan","type":"city","translations":{"es":"Varser","en":"Varser"}},{"name":"Verin Getashen","state_code":"GR","latitude":"40.13068000","longitude":"45.25293000","population":5010,"timezone":"Asia/Yerevan","type":"city","translations":{"es":"Verin Getashen","en":"Verin Getashen"}},{"name":"Yeranos","state_code":"GR","latitude":"40.20428000","longitude":"45.19209000","population":5479,"timezone":"Asia/Yerevan","type":"city","translations":{"es":"Yeranos","en":"Yeranos"}},{"name":"Abovyan","state_code":"KT","latitude":"40.27368000","longitude":"44.63348000","population":47546,"timezone":"Asia/Yerevan","type":"adm2","translations":{"es":"Abovyan","en":"Abovyan"}},{"name":"Aghavnadzor","state_code":"KT","latitude":"40.58195000","longitude":"44.69581000","population":1890,"timezone":"Asia/Yerevan","type":"city","translations":{"es":"Aghavnadzor","en":"Aghavnadzor"}},{"name":"Akunk’","state_code":"KT","latitude":"40.26672000","longitude":"44.68610000","population":2387,"timezone":"Asia/Yerevan","type":"city","translations":{"es":"Akunk’","en":"Akunk’"}},{"name":"Aramus","state_code":"KT","latitude":"40.25095000","longitude":"44.66351000","population":3412,"timezone":"Asia/Yerevan","type":"city","translations":{"es":"Aramus","en":"Aramus"}},{"name":"Argel","state_code":"KT","latitude":"40.37793000","longitude":"44.60010000","population":2501,"timezone":"Asia/Yerevan","type":"city","translations":{"es":"Argel","en":"Argel"}},{"name":"Arzakan","state_code":"KT","latitude":"40.45007000","longitude":"44.60828000","population":2390,"timezone":"Asia/Yerevan","type":"city","translations":{"es":"Arzakan","en":"Arzakan"}},{"name":"Arzni","state_code":"KT","latitude":"40.29730000","longitude":"44.59869000","population":11093,"timezone":"Asia/Yerevan","type":"adm2","translations":{"es":"Arzni","en":"Arzni"}},{"name":"Balahovit","state_code":"KT","latitude":"40.25153000","longitude":"44.60828000","population":3435,"timezone":"Asia/Yerevan","type":"city","translations":{"es":"Balahovit","en":"Balahovit"}},{"name":"Bjni","state_code":"KT","latitude":"40.45831000","longitude":"44.65008000","population":2547,"timezone":"Asia/Yerevan","type":"city","translations":{"es":"Bjni","en":"Bjni"}},{"name":"Buzhakan","state_code":"KT","latitude":"40.45569000","longitude":"44.51947000","population":1546,"timezone":"Asia/Yerevan","type":"city","translations":{"es":"Buzhakán","en":"Buzhakan"}},{"name":"Byureghavan","state_code":"KT","latitude":"40.31417000","longitude":"44.59333000","population":865,"timezone":"Asia/Yerevan","type":"city","translations":{"es":"Byureghavan","en":"Byureghavan"}},{"name":"Dzoraghbyur","state_code":"KT","latitude":"40.20412000","longitude":"44.64150000","population":2124,"timezone":"Asia/Yerevan","type":"city","translations":{"es":"Dzoraghbyur","en":"Dzoraghbyur"}},{"name":"Fantan","state_code":"KT","latitude":"40.39447000","longitude":"44.68610000","population":930,"timezone":"Asia/Yerevan","type":"city","translations":{"es":"Fantan","en":"Fantan"}},{"name":"Garrni","state_code":"KT","latitude":"40.11931000","longitude":"44.73442000","population":8248,"timezone":"Asia/Yerevan","type":"city","translations":{"es":"Garrni","en":"Garrni"}},{"name":"Goght’","state_code":"KT","latitude":"40.13470000","longitude":"44.78332000","population":2136,"timezone":"Asia/Yerevan","type":"city","translations":{"es":"Goght’","en":"Goght’"}},{"name":"Hrazdan","state_code":"KT","latitude":"40.49748000","longitude":"44.76620000","population":52283,"timezone":"Asia/Yerevan","type":"adm1","translations":{"es":"Hrazdan","en":"Hrazdan"}},{"name":"Kaputan","state_code":"KT","latitude":"40.32507000","longitude":"44.70007000","population":1210,"timezone":"Asia/Yerevan","type":"city","translations":{"es":"Capitán","en":"Kaputan"}},{"name":"Kotayk’","state_code":"KT","latitude":"40.27789000","longitude":"44.66388000","population":1785,"timezone":"Asia/Yerevan","type":"city","translations":{"es":"Kotayk’","en":"Kotayk’"}},{"name":"Lerrnanist","state_code":"KT","latitude":"40.46676000","longitude":"44.79249000","population":3002,"timezone":"Asia/Yerevan","type":"city","translations":{"es":"Lerrnanista","en":"Lerrnanist"}},{"name":"Mayakovski","state_code":"KT","latitude":"40.25293000","longitude":"44.63892000","population":2161,"timezone":"Asia/Yerevan","type":"city","translations":{"es":"Mayakovski","en":"Mayakovski"}},{"name":"Meghradzor","state_code":"KT","latitude":"40.60611000","longitude":"44.65147000","population":2309,"timezone":"Asia/Yerevan","type":"city","translations":{"es":"Meghradzor","en":"Meghradzor"}},{"name":"Mrgashen","state_code":"KT","latitude":"40.28607000","longitude":"44.54449000","population":2035,"timezone":"Asia/Yerevan","type":"city","translations":{"es":"Mrgashen","en":"Mrgashen"}},{"name":"Nor Geghi","state_code":"KT","latitude":"40.32233000","longitude":"44.58331000","population":10025,"timezone":"Asia/Yerevan","type":"adm2","translations":{"es":"Nor Geghi","en":"Nor Geghi"}},{"name":"Nor Gyugh","state_code":"KT","latitude":"40.26672000","longitude":"44.65832000","population":1423,"timezone":"Asia/Yerevan","type":"city","translations":{"es":"Ni Gyugh","en":"Nor Gyugh"}},{"name":"Prroshyan","state_code":"KT","latitude":"40.24731000","longitude":"44.41949000","population":5950,"timezone":"Asia/Yerevan","type":"city","translations":{"es":"Prroshyan","en":"Prroshyan"}},{"name":"Ptghni","state_code":"KT","latitude":"40.25568000","longitude":"44.58612000","population":1595,"timezone":"Asia/Yerevan","type":"city","translations":{"es":"Ptghni","en":"Ptghni"}},{"name":"Solak","state_code":"KT","latitude":"40.46252000","longitude":"44.70709000","population":2240,"timezone":"Asia/Yerevan","type":"city","translations":{"es":"Solak","en":"Solak"}},{"name":"Tsaghkadzor","state_code":"KT","latitude":"40.53259000","longitude":"44.72025000","population":1200,"timezone":"Asia/Yerevan","type":"adm2","translations":{"es":"Tsaghkadzor","en":"Tsaghkadzor"}},{"name":"Yeghvard","state_code":"KT","latitude":"40.32507000","longitude":"44.48608000","population":10656,"timezone":"Asia/Yerevan","type":"adm2","translations":{"es":"Yeghvard","en":"Yeghvard"}},{"name":"Zarr","state_code":"KT","latitude":"40.25848000","longitude":"44.73328000","population":1520,"timezone":"Asia/Yerevan","type":"city","translations":{"es":"Zarr","en":"Zarr"}},{"name":"Zoravan","state_code":"KT","latitude":"40.35553000","longitude":"44.52228000","population":1758,"timezone":"Asia/Yerevan","type":"city","translations":{"es":"Zoravan","en":"Zoravan"}},{"name":"Zovaber","state_code":"KT","latitude":"40.56671000","longitude":"44.79028000","population":1683,"timezone":"Asia/Yerevan","type":"city","translations":{"es":"Zovaber","en":"Zovaber"}},{"name":"Agarak","state_code":"LO","latitude":"41.01072000","longitude":"44.46845000","population":1221,"timezone":"Asia/Yerevan","type":"city","translations":{"es":"Agarak","en":"Agarak"}},{"name":"Akht’ala","state_code":"LO","latitude":"41.16838000","longitude":"44.75811000","population":null,"timezone":"Asia/Yerevan","type":"city","translations":{"es":"Akht'ala","en":"Akht’ala"}},{"name":"Alaverdi","state_code":"LO","latitude":"41.09766000","longitude":"44.67316000","population":13000,"timezone":"Asia/Yerevan","type":"city","translations":{"es":"Alaverdi","en":"Alaverdi"}},{"name":"Arevashogh","state_code":"LO","latitude":"40.86039000","longitude":"44.27438000","population":2515,"timezone":"Asia/Yerevan","type":"city","translations":{"es":"Arevashogh","en":"Arevashogh"}},{"name":"Bazum","state_code":"LO","latitude":"40.86763000","longitude":"44.43978000","population":1116,"timezone":"Asia/Yerevan","type":"city","translations":{"es":"Bazum","en":"Bazum"}},{"name":"Chochkan","state_code":"LO","latitude":"41.18118000","longitude":"44.83217000","population":1993,"timezone":"Asia/Yerevan","type":"city","translations":{"es":"Chochkan","en":"Chochkan"}},{"name":"Darpas","state_code":"LO","latitude":"40.83674000","longitude":"44.42494000","population":1869,"timezone":"Asia/Yerevan","type":"city","translations":{"es":"Darpas","en":"Darpas"}},{"name":"Dsegh","state_code":"LO","latitude":"40.96170000","longitude":"44.65003000","population":2137,"timezone":"Asia/Yerevan","type":"city","translations":{"es":"Dsegh","en":"Dsegh"}},{"name":"Fioletovo","state_code":"LO","latitude":"40.72241000","longitude":"44.71769000","population":1325,"timezone":"Asia/Yerevan","type":"adm2","translations":{"es":"Fioletovo","en":"Fioletovo"}},{"name":"Gogaran","state_code":"LO","latitude":"40.89255000","longitude":"44.19915000","population":1065,"timezone":"Asia/Yerevan","type":"city","translations":{"es":"Gogaran","en":"Gogaran"}},{"name":"Gugark’","state_code":"LO","latitude":"40.80460000","longitude":"44.54025000","population":5740,"timezone":"Asia/Yerevan","type":"city","translations":{"es":"Gugark’","en":"Gugark’"}},{"name":"Gyulagarak","state_code":"LO","latitude":"40.96715000","longitude":"44.47144000","population":1870,"timezone":"Asia/Yerevan","type":"adm2","translations":{"es":"Gyulagarak","en":"Gyulagarak"}},{"name":"Jrashen","state_code":"LO","latitude":"40.79028000","longitude":"44.18664000","population":3096,"timezone":"Asia/Yerevan","type":"city","translations":{"es":"Jrashen","en":"Jrashen"}},{"name":"Lerrnants’k’","state_code":"LO","latitude":"40.79532000","longitude":"44.27435000","population":1439,"timezone":"Asia/Yerevan","type":"city","translations":{"es":"Lerrnants’k’","en":"Lerrnants’k’"}},{"name":"Lerrnapat","state_code":"LO","latitude":"40.81538000","longitude":"44.39344000","population":1997,"timezone":"Asia/Yerevan","type":"city","translations":{"es":"Lerrnapat","en":"Lerrnapat"}},{"name":"Lerrnavan","state_code":"LO","latitude":"40.78820000","longitude":"44.16024000","population":1633,"timezone":"Asia/Yerevan","type":"city","translations":{"es":"Lerrnavan","en":"Lerrnavan"}},{"name":"Lorut","state_code":"LO","latitude":"40.93717000","longitude":"44.77142000","population":843,"timezone":"Asia/Yerevan","type":"city","translations":{"es":"Lorut","en":"Lorut"}},{"name":"Margahovit","state_code":"LO","latitude":"40.73381000","longitude":"44.68474000","population":3466,"timezone":"Asia/Yerevan","type":"city","translations":{"es":"Margahovit","en":"Margahovit"}},{"name":"Mets Parni","state_code":"LO","latitude":"40.83472000","longitude":"44.11108000","population":1839,"timezone":"Asia/Yerevan","type":"city","translations":{"es":"Parni de los Mets","en":"Mets Parni"}},{"name":"Metsavan","state_code":"LO","latitude":"41.20156000","longitude":"44.22877000","population":6045,"timezone":"Asia/Yerevan","type":"city","translations":{"es":"Metsavan","en":"Metsavan"}},{"name":"Norashen","state_code":"LO","latitude":"41.18886000","longitude":"44.33336000","population":860,"timezone":"Asia/Yerevan","type":"city","translations":{"es":"Norashen","en":"Norashen"}},{"name":"Odzun","state_code":"LO","latitude":"41.05321000","longitude":"44.61341000","population":4048,"timezone":"Asia/Yerevan","type":"city","translations":{"es":"Odzun","en":"Odzun"}},{"name":"Sarahart’","state_code":"LO","latitude":"40.87043000","longitude":"44.21407000","population":1545,"timezone":"Asia/Yerevan","type":"city","translations":{"es":"Sarahart’","en":"Sarahart’"}},{"name":"Saramej","state_code":"LO","latitude":"40.77487000","longitude":"44.22220000","population":1344,"timezone":"Asia/Yerevan","type":"city","translations":{"es":"Saramej","en":"Saramej"}},{"name":"Shahumyan","state_code":"LO","latitude":"40.77482000","longitude":"44.54596000","population":2514,"timezone":"Asia/Yerevan","type":"city","translations":{"es":"Shahumyan","en":"Shahumyan"}},{"name":"Shirakamut","state_code":"LO","latitude":"40.86056000","longitude":"44.15278000","population":null,"timezone":"Asia/Yerevan","type":"city","translations":{"es":"Shirakamut","en":"Shirakamut"}},{"name":"Shnogh","state_code":"LO","latitude":"41.14693000","longitude":"44.84043000","population":2561,"timezone":"Asia/Yerevan","type":"city","translations":{"es":"Shnogh","en":"Shnogh"}},{"name":"Spitak","state_code":"LO","latitude":"40.83221000","longitude":"44.26731000","population":1439,"timezone":"Asia/Yerevan","type":"adm2","translations":{"es":"Spitak","en":"Spitak"}},{"name":"Step’anavan","state_code":"LO","latitude":"41.00995000","longitude":"44.38531000","population":12114,"timezone":"Asia/Yerevan","type":"city","translations":{"es":"Step'anavan","en":"Step’anavan"}},{"name":"Tashir","state_code":"LO","latitude":"41.12072000","longitude":"44.28462000","population":8700,"timezone":"Asia/Yerevan","type":"adm2","translations":{"es":"Tashir","en":"Tashir"}},{"name":"Tsaghkaber","state_code":"LO","latitude":"40.79849000","longitude":"44.10144000","population":1665,"timezone":"Asia/Yerevan","type":"city","translations":{"es":"Tsaghkaber","en":"Tsaghkaber"}},{"name":"Urrut","state_code":"LO","latitude":"41.06778000","longitude":"44.39628000","population":821,"timezone":"Asia/Yerevan","type":"city","translations":{"es":"Urrut","en":"Urrut"}},{"name":"Vahagni","state_code":"LO","latitude":"40.90698000","longitude":"44.60873000","population":1070,"timezone":"Asia/Yerevan","type":"city","translations":{"es":"Vahagni","en":"Vahagni"}},{"name":"Vanadzor","state_code":"LO","latitude":"40.80456000","longitude":"44.49390000","population":90525,"timezone":"Asia/Yerevan","type":"adm1","translations":{"es":"Vanadzor","en":"Vanadzor"}},{"name":"Vardablur","state_code":"LO","latitude":"40.97083000","longitude":"44.50889000","population":1245,"timezone":"Asia/Yerevan","type":"city","translations":{"es":"Vardablur","en":"Vardablur"}},{"name":"Yeghegnut","state_code":"LO","latitude":"40.90302000","longitude":"44.63155000","population":893,"timezone":"Asia/Yerevan","type":"city","translations":{"es":"Yeghegnut","en":"Yeghegnut"}},{"name":"Akhuryan","state_code":"SH","latitude":"40.78003000","longitude":"43.90027000","population":9668,"timezone":"Asia/Yerevan","type":"adm2","translations":{"es":"Akhuryan","en":"Akhuryan"}},{"name":"Amasia","state_code":"SH","latitude":"40.95442000","longitude":"43.78720000","population":1532,"timezone":"Asia/Yerevan","type":"adm2","translations":{"es":"Amasia","en":"Amasia"}},{"name":"Anushavan","state_code":"SH","latitude":"40.65008000","longitude":"43.98053000","population":2161,"timezone":"Asia/Yerevan","type":"city","translations":{"es":"Anushavan","en":"Anushavan"}},{"name":"Arevik","state_code":"SH","latitude":"40.74170000","longitude":"43.90430000","population":1566,"timezone":"Asia/Yerevan","type":"city","translations":{"es":"Arevik","en":"Arevik"}},{"name":"Arevshat","state_code":"SH","latitude":"40.65345000","longitude":"44.04419000","population":1809,"timezone":"Asia/Yerevan","type":"city","translations":{"es":"Arevshat","en":"Arevshat"}},{"name":"Arrap’i","state_code":"SH","latitude":"40.78276000","longitude":"43.80583000","population":1705,"timezone":"Asia/Yerevan","type":"city","translations":{"es":"Arrap'i","en":"Arrap’i"}},{"name":"Azatan","state_code":"SH","latitude":"40.71959000","longitude":"43.82727000","population":4838,"timezone":"Asia/Yerevan","type":"city","translations":{"es":"Azatán","en":"Azatan"}},{"name":"Basen","state_code":"SH","latitude":"40.75767000","longitude":"43.99274000","population":1393,"timezone":"Asia/Yerevan","type":"city","translations":{"es":"Basen","en":"Basen"}},{"name":"Dzit’hank’ov","state_code":"SH","latitude":"40.50848000","longitude":"43.82092000","population":1242,"timezone":"Asia/Yerevan","type":"city","translations":{"es":"Dzit'hank'ov","en":"Dzit’hank’ov"}},{"name":"Gyumri","state_code":"SH","latitude":"40.79420000","longitude":"43.84528000","population":121976,"timezone":"Asia/Yerevan","type":"adm1","translations":{"es":"Gyumri","en":"Gyumri"}},{"name":"Haykavan","state_code":"SH","latitude":"40.80312000","longitude":"43.75173000","population":1107,"timezone":"Asia/Yerevan","type":"city","translations":{"es":"Haykavan","en":"Haykavan"}},{"name":"Horrom","state_code":"SH","latitude":"40.65973000","longitude":"43.89032000","population":2135,"timezone":"Asia/Yerevan","type":"city","translations":{"es":"Horror","en":"Horrom"}},{"name":"Kamo","state_code":"SH","latitude":"40.82572000","longitude":"43.95071000","population":1340,"timezone":"Asia/Yerevan","type":"city","translations":{"es":"Kamo","en":"Kamo"}},{"name":"Lerrnakert","state_code":"SH","latitude":"40.56250000","longitude":"43.93890000","population":1386,"timezone":"Asia/Yerevan","type":"city","translations":{"es":"Lerrnakert","en":"Lerrnakert"}},{"name":"Maralik","state_code":"SH","latitude":"40.57507000","longitude":"43.87231000","population":5500,"timezone":"Asia/Yerevan","type":"adm2","translations":{"es":"Maralik","en":"Maralik"}},{"name":"Marmashen","state_code":"SH","latitude":"40.83486000","longitude":"43.77790000","population":1605,"timezone":"Asia/Yerevan","type":"city","translations":{"es":"Marmashen","en":"Marmashen"}},{"name":"Mayisyan","state_code":"SH","latitude":"40.84715000","longitude":"43.83938000","population":1525,"timezone":"Asia/Yerevan","type":"city","translations":{"es":"Mayisyan","en":"Mayisyan"}},{"name":"Meghrashen","state_code":"SH","latitude":"40.67230000","longitude":"43.95831000","population":1435,"timezone":"Asia/Yerevan","type":"city","translations":{"es":"Meghrashen","en":"Meghrashen"}},{"name":"Mets Mant’ash","state_code":"SH","latitude":"40.64376000","longitude":"44.05653000","population":2200,"timezone":"Asia/Yerevan","type":"city","translations":{"es":"Mant'ash de los Mets","en":"Mets Mant’ash"}},{"name":"P’ok’r Mant’ash","state_code":"SH","latitude":"40.64026000","longitude":"44.04666000","population":2047,"timezone":"Asia/Yerevan","type":"city","translations":{"es":"P'ok'r Mant'ash","en":"P’ok’r Mant’ash"}},{"name":"Pemzashen","state_code":"SH","latitude":"40.58612000","longitude":"43.94311000","population":3322,"timezone":"Asia/Yerevan","type":"city","translations":{"es":"Pemzashen","en":"Pemzashen"}},{"name":"Saratak","state_code":"SH","latitude":"40.67090000","longitude":"43.87231000","population":1321,"timezone":"Asia/Yerevan","type":"city","translations":{"es":"Saratak","en":"Saratak"}},{"name":"Shirak","state_code":"SH","latitude":"40.84042000","longitude":"43.91582000","population":1153,"timezone":"Asia/Yerevan","type":"city","translations":{"es":"Shirak","en":"Shirak"}},{"name":"Spandaryan","state_code":"SH","latitude":"40.66105000","longitude":"44.01551000","population":1662,"timezone":"Asia/Yerevan","type":"city","translations":{"es":"Spandaryan","en":"Spandaryan"}},{"name":"Voskehask","state_code":"SH","latitude":"40.76426000","longitude":"43.77474000","population":2702,"timezone":"Asia/Yerevan","type":"city","translations":{"es":"Voskehask","en":"Voskehask"}},{"name":"Yerazgavors","state_code":"SH","latitude":"40.69505000","longitude":"43.74722000","population":592,"timezone":"Asia/Yerevan","type":"city","translations":{"es":"Yerazgavors","en":"Yerazgavors"}},{"name":"Agarak","state_code":"SU","latitude":"39.20684000","longitude":"46.54460000","population":4300,"timezone":"Asia/Yerevan","type":"city","translations":{"es":"Agarak","en":"Agarak"}},{"name":"Akner","state_code":"SU","latitude":"39.53491000","longitude":"46.30732000","population":1374,"timezone":"Asia/Yerevan","type":"city","translations":{"es":"Akner","en":"Akner"}},{"name":"Angeghakot’","state_code":"SU","latitude":"39.56952000","longitude":"45.94452000","population":1069,"timezone":"Asia/Yerevan","type":"city","translations":{"es":"Angeghakot’","en":"Angeghakot’"}},{"name":"Brrnakot’","state_code":"SU","latitude":"39.49742000","longitude":"45.97241000","population":1597,"timezone":"Asia/Yerevan","type":"city","translations":{"es":"Brrnakot’","en":"Brrnakot’"}},{"name":"Dzorastan","state_code":"SU","latitude":"39.27059000","longitude":"46.35720000","population":65,"timezone":"Asia/Yerevan","type":"adm2","translations":{"es":"Dzorastan","en":"Dzorastan"}},{"name":"Goris","state_code":"SU","latitude":"39.51111000","longitude":"46.34168000","population":17113,"timezone":"Asia/Yerevan","type":"adm2","translations":{"es":"Goris","en":"Goris"}},{"name":"Hats’avan","state_code":"SU","latitude":"39.46405000","longitude":"45.97047000","population":null,"timezone":"Asia/Yerevan","type":"city","translations":{"es":"Hats'avan","en":"Hats’avan"}},{"name":"Kapan","state_code":"SU","latitude":"39.20755000","longitude":"46.40576000","population":32900,"timezone":"Asia/Yerevan","type":"adm1","translations":{"es":"Capán","en":"Kapan"}},{"name":"Khndzoresk","state_code":"SU","latitude":"39.50568000","longitude":"46.43610000","population":2070,"timezone":"Asia/Yerevan","type":"city","translations":{"es":"Khndzoresk","en":"Khndzoresk"}},{"name":"Meghri","state_code":"SU","latitude":"38.90292000","longitude":"46.24458000","population":4580,"timezone":"Asia/Yerevan","type":"adm2","translations":{"es":"Meghri","en":"Meghri"}},{"name":"Shaghat","state_code":"SU","latitude":"39.55698000","longitude":"45.90727000","population":680,"timezone":"Asia/Yerevan","type":"city","translations":{"es":"Shaghat","en":"Shaghat"}},{"name":"Shinuhayr","state_code":"SU","latitude":"39.43670000","longitude":"46.31787000","population":2661,"timezone":"Asia/Yerevan","type":"city","translations":{"es":"Shinuhayr","en":"Shinuhayr"}},{"name":"Tegh","state_code":"SU","latitude":"39.55826000","longitude":"46.48054000","population":2443,"timezone":"Asia/Yerevan","type":"adm2","translations":{"es":"Tegh","en":"Tegh"}},{"name":"Verishen","state_code":"SU","latitude":"39.53543000","longitude":"46.32063000","population":2264,"timezone":"Asia/Yerevan","type":"city","translations":{"es":"Verishen","en":"Verishen"}},{"name":"Archis","state_code":"TV","latitude":"41.16351000","longitude":"44.87631000","population":1125,"timezone":"Asia/Yerevan","type":"city","translations":{"es":"Archis","en":"Archis"}},{"name":"Artsvaberd","state_code":"TV","latitude":"40.83947000","longitude":"45.47033000","population":2847,"timezone":"Asia/Yerevan","type":"city","translations":{"es":"Artsvaberd","en":"Artsvaberd"}},{"name":"Aygehovit","state_code":"TV","latitude":"40.97951000","longitude":"45.25033000","population":3091,"timezone":"Asia/Yerevan","type":"city","translations":{"es":"Aygehovit","en":"Aygehovit"}},{"name":"Azatamut","state_code":"TV","latitude":"40.98204000","longitude":"45.18551000","population":2513,"timezone":"Asia/Yerevan","type":"city","translations":{"es":"Azatamut","en":"Azatamut"}},{"name":"Bagratashen","state_code":"TV","latitude":"41.24358000","longitude":"44.81737000","population":2732,"timezone":"Asia/Yerevan","type":"city","translations":{"es":"Bagratashen","en":"Bagratashen"}},{"name":"Berd","state_code":"TV","latitude":"40.88135000","longitude":"45.38901000","population":6900,"timezone":"Asia/Yerevan","type":"adm2","translations":{"es":"Berd","en":"Berd"}},{"name":"Berdavan","state_code":"TV","latitude":"41.20503000","longitude":"44.99967000","population":3267,"timezone":"Asia/Yerevan","type":"city","translations":{"es":"Berdavan","en":"Berdavan"}},{"name":"Dilijan","state_code":"TV","latitude":"40.74170000","longitude":"44.85010000","population":16600,"timezone":"Asia/Yerevan","type":"city","translations":{"es":"Dilijan","en":"Dilijan"}},{"name":"Haghartsin","state_code":"TV","latitude":"40.77614000","longitude":"44.96847000","population":3791,"timezone":"Asia/Yerevan","type":"city","translations":{"es":"Haghartsin","en":"Haghartsin"}},{"name":"Ijevan","state_code":"TV","latitude":"40.87877000","longitude":"45.14851000","population":19200,"timezone":"Asia/Yerevan","type":"adm1","translations":{"es":"Ijevan","en":"Ijevan"}},{"name":"Khasht’arrak","state_code":"TV","latitude":"40.93668000","longitude":"45.18210000","population":1838,"timezone":"Asia/Yerevan","type":"city","translations":{"es":"Khasht'arrak","en":"Khasht’arrak"}},{"name":"Mosesgegh","state_code":"TV","latitude":"40.90534000","longitude":"45.48838000","population":1748,"timezone":"Asia/Yerevan","type":"city","translations":{"es":"Mosesgegh","en":"Mosesgegh"}},{"name":"Navur","state_code":"TV","latitude":"40.86695000","longitude":"45.34179000","population":1065,"timezone":"Asia/Yerevan","type":"city","translations":{"es":"Navur","en":"Navur"}},{"name":"Noyemberyan","state_code":"TV","latitude":"41.17244000","longitude":"44.99917000","population":5310,"timezone":"Asia/Yerevan","type":"adm2","translations":{"es":"Noyemberyan","en":"Noyemberyan"}},{"name":"Parravak’ar","state_code":"TV","latitude":"40.98248000","longitude":"45.36696000","population":1524,"timezone":"Asia/Yerevan","type":"city","translations":{"es":"Parravak'ar","en":"Parravak’ar"}},{"name":"Sarigyugh","state_code":"TV","latitude":"41.03531000","longitude":"45.14486000","population":1226,"timezone":"Asia/Yerevan","type":"city","translations":{"es":"Sarigyugh","en":"Sarigyugh"}},{"name":"Voskevan","state_code":"TV","latitude":"41.12081000","longitude":"45.06381000","population":1256,"timezone":"Asia/Yerevan","type":"city","translations":{"es":"Voskevan","en":"Voskevan"}},{"name":"Agarakadzor","state_code":"VD","latitude":"39.73608000","longitude":"45.35553000","population":1301,"timezone":"Asia/Yerevan","type":"city","translations":{"es":"Agarakadzor","en":"Agarakadzor"}},{"name":"Aghavnadzor","state_code":"VD","latitude":"39.78607000","longitude":"45.22790000","population":1890,"timezone":"Asia/Yerevan","type":"city","translations":{"es":"Aghavnadzor","en":"Aghavnadzor"}},{"name":"Areni","state_code":"VD","latitude":"39.71668000","longitude":"45.18329000","population":1772,"timezone":"Asia/Yerevan","type":"adm2","translations":{"es":"Areni","en":"Areni"}},{"name":"Getap’","state_code":"VD","latitude":"39.76392000","longitude":"45.30829000","population":2368,"timezone":"Asia/Yerevan","type":"city","translations":{"es":"Getap’","en":"Getap’"}},{"name":"Gladzor","state_code":"VD","latitude":"39.78070000","longitude":"45.34729000","population":2126,"timezone":"Asia/Yerevan","type":"city","translations":{"es":"Gladzor","en":"Gladzor"}},{"name":"Jermuk","state_code":"VD","latitude":"39.84168000","longitude":"45.66949000","population":4070,"timezone":"Asia/Yerevan","type":"adm2","translations":{"es":"Jermuk","en":"Jermuk"}},{"name":"Malishka","state_code":"VD","latitude":"39.74731000","longitude":"45.40570000","population":4460,"timezone":"Asia/Yerevan","type":"city","translations":{"es":"Malishka","en":"Malishka"}},{"name":"Rrind","state_code":"VD","latitude":"39.76111000","longitude":"45.17792000","population":1513,"timezone":"Asia/Yerevan","type":"city","translations":{"es":"Corteza","en":"Rrind"}},{"name":"Shatin","state_code":"VD","latitude":"39.83612000","longitude":"45.30292000","population":1736,"timezone":"Asia/Yerevan","type":"city","translations":{"es":"Shatin","en":"Shatin"}},{"name":"Vayk’","state_code":"VD","latitude":"39.68890000","longitude":"45.46668000","population":null,"timezone":"Asia/Yerevan","type":"city","translations":{"es":"Vayk’","en":"Vayk’"}},{"name":"Vernashen","state_code":"VD","latitude":"39.79236000","longitude":"45.36389000","population":1113,"timezone":"Asia/Yerevan","type":"city","translations":{"es":"Vernashen","en":"Vernashen"}},{"name":"Yeghegis","state_code":"VD","latitude":"39.87231000","longitude":"45.35010000","population":369,"timezone":"Asia/Yerevan","type":"adm2","translations":{"es":"Yeghegis","en":"Yeghegis"}},{"name":"Yeghegnadzor","state_code":"VD","latitude":"39.76389000","longitude":"45.33239000","population":7633,"timezone":"Asia/Yerevan","type":"adm1","translations":{"es":"Yeghegnadzor","en":"Yeghegnadzor"}},{"name":"Zarrit’ap’","state_code":"VD","latitude":"39.63892000","longitude":"45.51111000","population":1417,"timezone":"Asia/Yerevan","type":"city","translations":{"es":"Zarrit’ap’","en":"Zarrit’ap’"}},{"name":"Arabkir","state_code":"ER","latitude":"40.20549000","longitude":"44.50699000","population":118870,"timezone":"Asia/Yerevan","type":"section","translations":{"es":"Arabkir","en":"Arabkir"}},{"name":"Argavand","state_code":"ER","latitude":"40.15289000","longitude":"44.43890000","population":2301,"timezone":"Asia/Yerevan","type":"city","translations":{"es":"Argavand","en":"Argavand"}},{"name":"Jrashen","state_code":"ER","latitude":"40.05275000","longitude":"44.51259000","population":1691,"timezone":"Asia/Yerevan","type":"city","translations":{"es":"Jrashen","en":"Jrashen"}},{"name":"K’anak’erravan","state_code":"ER","latitude":"40.24739000","longitude":"44.53511000","population":4153,"timezone":"Asia/Yerevan","type":"city","translations":{"es":"K’anak’erravan","en":"K’anak’erravan"}},{"name":"Vardadzor","state_code":"ER","latitude":"40.18701000","longitude":"45.19212000","population":2864,"timezone":"Asia/Yerevan","type":"city","translations":{"es":"Vardadzor","en":"Vardadzor"}},{"name":"Yerevan","state_code":"ER","latitude":"40.18111000","longitude":"44.51361000","population":132800,"timezone":"Asia/Yerevan","type":"section","translations":{"es":"Ereván","en":"Yerevan"}}]