[{"name":"Ambriz","state_code":"BGO","latitude":"-7.85740000","longitude":"13.12510000","population":17000,"timezone":"Africa/Luanda","type":"city","translations":{"es":"Ambriz","en":"Ambriz"}},{"name":"Bula Atumba","state_code":"BGO","latitude":"-7.31170000","longitude":"14.31470000","population":13454,"timezone":"Africa/Luanda","type":"city","translations":{"es":"Bula Atumba","en":"Bula Atumba"}},{"name":"Caxito","state_code":"BGO","latitude":"-8.57848000","longitude":"13.66425000","population":55000,"timezone":"Africa/Luanda","type":"adm1","translations":{"es":"Caxito","en":"Caxito"}},{"name":"Dande","state_code":"BGO","latitude":"-8.11330000","longitude":"13.76520000","population":222528,"timezone":"Africa/Luanda","type":"city","translations":{"es":"Dande","en":"Dande"}},{"name":"Muxima","state_code":"BGO","latitude":"-9.58790000","longitude":"13.52510000","population":0,"timezone":"Africa/Luanda","type":"city","translations":{"es":"Muxima","en":"Muxima"}},{"name":"Nambuangongo","state_code":"BGO","latitude":"-8.56560000","longitude":"13.65720000","population":60883,"timezone":"Africa/Luanda","type":"adm1","translations":{"es":"Nambuangongo","en":"Nambuangongo"}},{"name":"Pango Aluquém","state_code":"BGO","latitude":"-8.55440000","longitude":"13.58150000","population":0,"timezone":"Africa/Luanda","type":"adm1","translations":{"es":"Pango Aluquém","en":"Pango Aluquém"}},{"name":"Úcua","state_code":"BGO","latitude":"-8.67240000","longitude":"13.68290000","population":null,"timezone":"Africa/Luanda","type":"adm1","translations":{"es":"Úcua","en":"Úcua"}},{"name":"Baía Farta","state_code":"BGU","latitude":"-12.57660000","longitude":"13.47760000","population":107841,"timezone":"Africa/Luanda","type":"adm3","translations":{"es":"Bahía Farta","en":"Baía Farta"}},{"name":"Balombo","state_code":"BGU","latitude":"-12.90460000","longitude":"13.59590000","population":108965,"timezone":"Africa/Luanda","type":"city","translations":{"es":"Balombo","en":"Balombo"}},{"name":"Benguela","state_code":"BGU","latitude":"-12.57626000","longitude":"13.40547000","population":561775,"timezone":"Africa/Luanda","type":"adm1","translations":{"es":"Benguela","en":"Benguela"}},{"name":"Bocoio","state_code":"BGU","latitude":"-12.53030000","longitude":"13.40420000","population":0,"timezone":"Africa/Luanda","type":"adm3","translations":{"es":"Bocoio","en":"Bocoio"}},{"name":"Caimbambo","state_code":"BGU","latitude":"-12.61330000","longitude":"14.41940000","population":90838,"timezone":"Africa/Luanda","type":"city","translations":{"es":"Caimbambo","en":"Caimbambo"}},{"name":"Catumbela","state_code":"BGU","latitude":"-12.43002000","longitude":"13.54677000","population":95034,"timezone":"Africa/Luanda","type":"city","translations":{"es":"Catumbela","en":"Catumbela"}},{"name":"Chongoroi","state_code":"BGU","latitude":"-12.78880000","longitude":"13.79750000","population":87278,"timezone":"Africa/Luanda","type":"city","translations":{"es":"Chongoroi","en":"Chongoroi"}},{"name":"Cubal","state_code":"BGU","latitude":"-12.58850000","longitude":"14.42670000","population":357618,"timezone":"Africa/Luanda","type":"city","translations":{"es":"Cubal","en":"Cubal"}},{"name":"Ganda","state_code":"BGU","latitude":"-12.68250000","longitude":"14.42330000","population":235486,"timezone":"Africa/Luanda","type":"city","translations":{"es":"Ganda","en":"Ganda"}},{"name":"Lobito","state_code":"BGU","latitude":"-12.36440000","longitude":"13.53601000","population":436467,"timezone":"Africa/Luanda","type":"city","translations":{"es":"Lobito","en":"Lobito"}},{"name":"Sumbe","state_code":"BGU","latitude":"-11.20610000","longitude":"13.84480000","population":205832,"timezone":"Africa/Luanda","type":"adm1","translations":{"es":"Sumbe","en":"Sumbe"}},{"name":"Camacupa","state_code":"BIE","latitude":"-12.01667000","longitude":"17.48333000","population":59000,"timezone":"Africa/Luanda","type":"city","translations":{"es":"Camacupa","en":"Camacupa"}},{"name":"Catabola","state_code":"BIE","latitude":"-12.15000000","longitude":"17.28333000","population":28831,"timezone":"Africa/Luanda","type":"city","translations":{"es":"Catabola","en":"Catabola"}},{"name":"Chissamba","state_code":"BIE","latitude":"-12.16667000","longitude":"17.33333000","population":7677,"timezone":"Africa/Luanda","type":"city","translations":{"es":"Chissamba","en":"Chissamba"}},{"name":"Cuito","state_code":"BIE","latitude":"-12.38333000","longitude":"16.93333000","population":355423,"timezone":"Africa/Luanda","type":"adm1","translations":{"es":"Cuito","en":"Cuito"}},{"name":"Cabinda","state_code":"CAB","latitude":"-5.55000000","longitude":"12.20000000","population":550000,"timezone":"Africa/Luanda","type":"adm1","translations":{"es":"Cabinda","en":"Cabinda"}},{"name":"Menongue","state_code":"CCU","latitude":"-14.65850000","longitude":"17.69099000","population":251178,"timezone":"Africa/Luanda","type":"adm1","translations":{"es":"Menongue","en":"Menongue"}},{"name":"Quibala","state_code":"CUS","latitude":"-10.73366000","longitude":"14.97995000","population":27128,"timezone":"Africa/Luanda","type":"city","translations":{"es":"Quibala","en":"Quibala"}},{"name":"Sumbe","state_code":"CUS","latitude":"-11.20605000","longitude":"13.84371000","population":205832,"timezone":"Africa/Luanda","type":"adm1","translations":{"es":"Sumbe","en":"Sumbe"}},{"name":"Uacu Cungo","state_code":"CUS","latitude":"-11.35669000","longitude":"15.11719000","population":10970,"timezone":"Africa/Luanda","type":"city","translations":{"es":"Uacu Cungo","en":"Uacu Cungo"}},{"name":"Camabatela","state_code":"CNO","latitude":"-8.18812000","longitude":"15.37495000","population":21767,"timezone":"Africa/Luanda","type":"city","translations":{"es":"Camabatela","en":"Camabatela"}},{"name":"N’dalatando","state_code":"CNO","latitude":"-9.29782000","longitude":"14.91162000","population":161584,"timezone":"Africa/Luanda","type":"adm1","translations":{"es":"N'dalatando","en":"N’dalatando"}},{"name":"Ondjiva","state_code":"CNN","latitude":"-17.06667000","longitude":"15.73333000","population":121537,"timezone":"Africa/Luanda","type":"adm1","translations":{"es":"Ondjiva","en":"Ondjiva"}},{"name":"Caála","state_code":"HUA","latitude":"-12.85250000","longitude":"15.56056000","population":130000,"timezone":"Africa/Luanda","type":"city","translations":{"es":"Caála","en":"Caála"}},{"name":"Chela","state_code":"HUA","latitude":"-12.30261000","longitude":"15.43358000","population":5811,"timezone":"Africa/Luanda","type":"city","translations":{"es":"Garra del insecto","en":"Chela"}},{"name":"Huambo","state_code":"HUA","latitude":"-12.77611000","longitude":"15.73917000","population":595304,"timezone":"Africa/Luanda","type":"adm1","translations":{"es":"Huambo","en":"Huambo"}},{"name":"Longonjo","state_code":"HUA","latitude":"-12.90667000","longitude":"15.25333000","population":23000,"timezone":"Africa/Luanda","type":"city","translations":{"es":"Longonjo","en":"Longonjo"}},{"name":"Caconda","state_code":"HUI","latitude":"-13.73333000","longitude":"15.06667000","population":15000,"timezone":"Africa/Luanda","type":"city","translations":{"es":"Caconda","en":"Caconda"}},{"name":"Caluquembe","state_code":"HUI","latitude":"-13.92093000","longitude":"14.53476000","population":169420,"timezone":"Africa/Luanda","type":"city","translations":{"es":"Caluquembe","en":"Caluquembe"}},{"name":"Chibia","state_code":"HUI","latitude":"-15.23657000","longitude":"13.88468000","population":190670,"timezone":"Africa/Luanda","type":"city","translations":{"es":"Chibia","en":"Chibia"}},{"name":"Chicomba","state_code":"HUI","latitude":"-14.30788000","longitude":"14.98672000","population":131807,"timezone":"Africa/Luanda","type":"city","translations":{"es":"Chicomba","en":"Chicomba"}},{"name":"Chipindo","state_code":"HUI","latitude":"-13.86830000","longitude":"15.73277000","population":64714,"timezone":"Africa/Luanda","type":"city","translations":{"es":"Chipindo","en":"Chipindo"}},{"name":"Cuvango","state_code":"HUI","latitude":"-14.27693000","longitude":"16.31475000","population":null,"timezone":"Africa/Luanda","type":"city","translations":{"es":"Cuvango","en":"Cuvango"}},{"name":"Gambos","state_code":"HUI","latitude":"-15.80926000","longitude":"14.07661000","population":null,"timezone":"Africa/Luanda","type":"city","translations":{"es":"Gambos","en":"Gambos"}},{"name":"Humpata","state_code":"HUI","latitude":"-15.07250000","longitude":"13.36771000","population":89144,"timezone":"Africa/Luanda","type":"city","translations":{"es":"Humpata","en":"Humpata"}},{"name":"Jamba","state_code":"HUI","latitude":"-14.76294000","longitude":"15.83493000","population":105090,"timezone":"Africa/Luanda","type":"city","translations":{"es":"Jamba","en":"Jamba"}},{"name":"Lubango","state_code":"HUI","latitude":"-14.91717000","longitude":"13.49250000","population":600751,"timezone":"Africa/Luanda","type":"adm1","translations":{"es":"Lubango","en":"Lubango"}},{"name":"Matala","state_code":"HUI","latitude":"-15.23967000","longitude":"15.17246000","population":262763,"timezone":"Africa/Luanda","type":"city","translations":{"es":"Matala","en":"Matala"}},{"name":"Quilengues","state_code":"HUI","latitude":"-13.99213000","longitude":"13.76705000","population":123005,"timezone":"Africa/Luanda","type":"city","translations":{"es":"Quilengues","en":"Quilengues"}},{"name":"Quipungo","state_code":"HUI","latitude":"-15.12203000","longitude":"14.55953000","population":158918,"timezone":"Africa/Luanda","type":"city","translations":{"es":"Quipungo","en":"Quipungo"}},{"name":"Belas","state_code":"LUA","latitude":"-9.06875000","longitude":"13.16072000","population":0,"timezone":"Africa/Luanda","type":"city","translations":{"es":"Belas","en":"Belas"}},{"name":"Cacuaco","state_code":"LUA","latitude":"-8.82960000","longitude":"13.29730000","population":1279488,"timezone":"Africa/Luanda","type":"capital","translations":{"es":"Cacuaco","en":"Cacuaco"}},{"name":"Cazenga","state_code":"LUA","latitude":"-8.82860000","longitude":"13.26650000","population":0,"timezone":"Africa/Luanda","type":"capital","translations":{"es":"Cazenga","en":"Cazenga"}},{"name":"Icolo e Bengo","state_code":"LUA","latitude":"-9.24191000","longitude":"13.73549000","population":59000,"timezone":"Africa/Luanda","type":"city","translations":{"es":"Icolo y Bengo","en":"Icolo e Bengo"}},{"name":"Luanda","state_code":"LUA","latitude":"-8.83682000","longitude":"13.23432000","population":2487444,"timezone":"Africa/Luanda","type":"capital","translations":{"es":"Luanda","en":"Luanda"}},{"name":"Talatona","state_code":"LUA","latitude":"-8.89570000","longitude":"13.19430000","population":null,"timezone":"Africa/Luanda","type":"capital","translations":{"es":"Talatona","en":"Talatona"}},{"name":"Viana","state_code":"LUA","latitude":"-8.90210000","longitude":"13.28610000","population":0,"timezone":"Africa/Luanda","type":"capital","translations":{"es":"Viana","en":"Viana"}},{"name":"Lucapa","state_code":"LNO","latitude":"-8.68337000","longitude":"20.27045000","population":154305,"timezone":"Africa/Luanda","type":"city","translations":{"es":"Lucapa","en":"Lucapa"}},{"name":"Cazaji","state_code":"LSU","latitude":"-11.06715000","longitude":"20.70148000","population":4764,"timezone":"Africa/Luanda","type":"city","translations":{"es":"cazají","en":"Cazaji"}},{"name":"Saurimo","state_code":"LSU","latitude":"-9.66078000","longitude":"20.39155000","population":393000,"timezone":"Africa/Luanda","type":"adm1","translations":{"es":"Saurimo","en":"Saurimo"}},{"name":"Malanje","state_code":"MAL","latitude":"-9.54015000","longitude":"16.34096000","population":455000,"timezone":"Africa/Luanda","type":"adm1","translations":{"es":"Malanje","en":"Malanje"}},{"name":"Léua","state_code":"MOX","latitude":"-11.65000000","longitude":"20.45000000","population":5168,"timezone":"Africa/Luanda","type":"city","translations":{"es":"Léua","en":"Léua"}},{"name":"Luau","state_code":"MOX","latitude":"-10.70727000","longitude":"22.22466000","population":55432,"timezone":"Africa/Luanda","type":"city","translations":{"es":"Luau","en":"Luau"}},{"name":"Luena","state_code":"MOX","latitude":"-11.78333000","longitude":"19.91667000","population":273675,"timezone":"Africa/Luanda","type":"adm1","translations":{"es":"Luena","en":"Luena"}},{"name":"Lumeje","state_code":"MOX","latitude":"-11.55000000","longitude":"20.78333000","population":4972,"timezone":"Africa/Luanda","type":"city","translations":{"es":"Lumeje","en":"Lumeje"}},{"name":"Bibala","state_code":"NAM","latitude":"-14.93330000","longitude":"13.68330000","population":10500,"timezone":"Africa/Luanda","type":"city","translations":{"es":"Bibala","en":"Bibala"}},{"name":"Camucuio","state_code":"NAM","latitude":"-15.45000000","longitude":"12.88330000","population":null,"timezone":"Africa/Luanda","type":"city","translations":{"es":"Camucuio","en":"Camucuio"}},{"name":"Namibe","state_code":"NAM","latitude":"-15.19670000","longitude":"12.15220000","population":0,"timezone":"Africa/Luanda","type":"city","translations":{"es":"Namibe","en":"Namibe"}},{"name":"Tombua","state_code":"NAM","latitude":"-15.78330000","longitude":"11.86670000","population":0,"timezone":"Africa/Luanda","type":"city","translations":{"es":"Tombua","en":"Tombua"}},{"name":"Virei","state_code":"NAM","latitude":"-14.46670000","longitude":"13.26670000","population":42607,"timezone":"Africa/Luanda","type":"city","translations":{"es":"Virei","en":"Virei"}},{"name":"Uíge","state_code":"UIG","latitude":"-7.60874000","longitude":"15.06131000","population":322531,"timezone":"Africa/Luanda","type":"adm1","translations":{"es":"Uíge","en":"Uíge"}},{"name":"Mbanza Congo","state_code":"ZAI","latitude":"-6.26703000","longitude":"14.24010000","population":148000,"timezone":"Africa/Luanda","type":"adm1","translations":{"es":"Mbanza Congo","en":"Mbanza Congo"}},{"name":"N'zeto","state_code":"ZAI","latitude":"-7.23116000","longitude":"12.86660000","population":28840,"timezone":"Africa/Luanda","type":"city","translations":{"es":"N'zeto","en":"N'zeto"}},{"name":"Soio","state_code":"ZAI","latitude":"-6.13490000","longitude":"12.36894000","population":200920,"timezone":"Africa/Luanda","type":"city","translations":{"es":"Soio","en":"Soio"}}]