[{"name":"Acton","state_code":"ACT","latitude":"-35.27767000","longitude":"149.11829000","population":2848,"timezone":"Australia/Sydney","type":"section","translations":{"es":"Actón","en":"Acton"}},{"name":"Ainslie","state_code":"ACT","latitude":"-35.26255000","longitude":"149.14370000","population":5376,"timezone":"Australia/Sydney","type":"section","translations":{"es":"Ainslie","en":"Ainslie"}},{"name":"Amaroo","state_code":"ACT","latitude":"-35.16959000","longitude":"149.12802000","population":6129,"timezone":"Australia/Sydney","type":"section","translations":{"es":"Amaroo","en":"Amaroo"}},{"name":"Aranda","state_code":"ACT","latitude":"-35.25817000","longitude":"149.08040000","population":2605,"timezone":"Australia/Sydney","type":"section","translations":{"es":"Aranda","en":"Aranda"}},{"name":"Banks","state_code":"ACT","latitude":"-35.47194000","longitude":"149.09965000","population":5100,"timezone":"Australia/Sydney","type":"section","translations":{"es":"bancos","en":"Banks"}},{"name":"Barton","state_code":"ACT","latitude":"-35.30489000","longitude":"149.14121000","population":1946,"timezone":"Australia/Sydney","type":"section","translations":{"es":"Barton","en":"Barton"}},{"name":"Belconnen","state_code":"ACT","latitude":"-35.23798000","longitude":"149.06627000","population":6621,"timezone":"Australia/Sydney","type":"section","translations":{"es":"Belconnen","en":"Belconnen"}},{"name":"Bonner","state_code":"ACT","latitude":"-35.16225000","longitude":"149.13855000","population":7339,"timezone":"Australia/Sydney","type":"section","translations":{"es":"Bonner","en":"Bonner"}},{"name":"Bonython","state_code":"ACT","latitude":"-35.43326000","longitude":"149.07822000","population":3839,"timezone":"Australia/Sydney","type":"section","translations":{"es":"Bonython","en":"Bonython"}},{"name":"Braddon","state_code":"ACT","latitude":"-35.27078000","longitude":"149.13569000","population":6383,"timezone":"Australia/Sydney","type":"section","translations":{"es":"Braddon","en":"Braddon"}},{"name":"Bruce","state_code":"ACT","latitude":"-35.24405000","longitude":"149.09083000","population":7520,"timezone":"Australia/Sydney","type":"section","translations":{"es":"Bruce","en":"Bruce"}},{"name":"Calwell","state_code":"ACT","latitude":"-35.44042000","longitude":"149.10707000","population":5730,"timezone":"Australia/Sydney","type":"section","translations":{"es":"Calwell","en":"Calwell"}},{"name":"Campbell","state_code":"ACT","latitude":"-35.28907000","longitude":"149.15382000","population":5050,"timezone":"Australia/Sydney","type":"section","translations":{"es":"Campbell","en":"Campbell"}},{"name":"Canberra","state_code":"ACT","latitude":"-35.28346000","longitude":"149.12807000","population":452670,"timezone":"Australia/Sydney","type":"capital","translations":{"es":"Canberra","en":"Canberra"}},{"name":"Casey","state_code":"ACT","latitude":"-35.16701000","longitude":"149.09470000","population":6471,"timezone":"Australia/Sydney","type":"section","translations":{"es":"Casey","en":"Casey"}},{"name":"Chapman","state_code":"ACT","latitude":"-35.35621000","longitude":"149.03742000","population":2867,"timezone":"Australia/Sydney","type":"section","translations":{"es":"Chapman","en":"Chapman"}},{"name":"Charnwood","state_code":"ACT","latitude":"-35.20019000","longitude":"149.03412000","population":3055,"timezone":"Australia/Sydney","type":"section","translations":{"es":"Charnwood","en":"Charnwood"}},{"name":"Chifley","state_code":"ACT","latitude":"-35.35340000","longitude":"149.07684000","population":2358,"timezone":"Australia/Sydney","type":"section","translations":{"es":"Chifley","en":"Chifley"}},{"name":"Chisholm","state_code":"ACT","latitude":"-35.41249000","longitude":"149.12825000","population":5268,"timezone":"Australia/Sydney","type":"section","translations":{"es":"Chisholm","en":"Chisholm"}},{"name":"Conder","state_code":"ACT","latitude":"-35.45926000","longitude":"149.10422000","population":5108,"timezone":"Australia/Sydney","type":"section","translations":{"es":"Conder","en":"Conder"}},{"name":"Cook","state_code":"ACT","latitude":"-35.26014000","longitude":"149.06566000","population":2965,"timezone":"Australia/Sydney","type":"section","translations":{"es":"Cocinar","en":"Cook"}},{"name":"Coombs","state_code":"ACT","latitude":"-35.31634000","longitude":"149.03941000","population":1797,"timezone":"Australia/Sydney","type":"section","translations":{"es":"Coombs","en":"Coombs"}},{"name":"Crace","state_code":"ACT","latitude":"-35.20282000","longitude":"149.10736000","population":4800,"timezone":"Australia/Sydney","type":"section","translations":{"es":"Crace","en":"Crace"}},{"name":"Curtin","state_code":"ACT","latitude":"-35.32464000","longitude":"149.07763000","population":5569,"timezone":"Australia/Sydney","type":"section","translations":{"es":"Cortina","en":"Curtin"}},{"name":"Deakin","state_code":"ACT","latitude":"-35.31927000","longitude":"149.10308000","population":3124,"timezone":"Australia/Sydney","type":"section","translations":{"es":"Deakin","en":"Deakin"}},{"name":"Dickson","state_code":"ACT","latitude":"-35.25082000","longitude":"149.13932000","population":2551,"timezone":"Australia/Sydney","type":"section","translations":{"es":"Dickson","en":"Dickson"}},{"name":"Downer","state_code":"ACT","latitude":"-35.24457000","longitude":"149.14468000","population":4296,"timezone":"Australia/Sydney","type":"section","translations":{"es":"Deprimente","en":"Downer"}},{"name":"Duffy","state_code":"ACT","latitude":"-35.33459000","longitude":"149.03188000","population":3395,"timezone":"Australia/Sydney","type":"section","translations":{"es":"Duffy","en":"Duffy"}},{"name":"Dunlop","state_code":"ACT","latitude":"-35.19402000","longitude":"149.01984000","population":7265,"timezone":"Australia/Sydney","type":"section","translations":{"es":"Dunlop","en":"Dunlop"}},{"name":"Evatt","state_code":"ACT","latitude":"-35.21191000","longitude":"149.06891000","population":5531,"timezone":"Australia/Sydney","type":"section","translations":{"es":"Evatt","en":"Evatt"}},{"name":"Fadden","state_code":"ACT","latitude":"-35.40500000","longitude":"149.11662000","population":3006,"timezone":"Australia/Sydney","type":"section","translations":{"es":"Fadden","en":"Fadden"}},{"name":"Farrer","state_code":"ACT","latitude":"-35.37673000","longitude":"149.10500000","population":3787,"timezone":"Australia/Sydney","type":"section","translations":{"es":"Farrer","en":"Farrer"}},{"name":"Fisher","state_code":"ACT","latitude":"-35.36126000","longitude":"149.05704000","population":3219,"timezone":"Australia/Sydney","type":"section","translations":{"es":"Pescador","en":"Fisher"}},{"name":"Florey","state_code":"ACT","latitude":"-35.22588000","longitude":"149.05000000","population":4781,"timezone":"Australia/Sydney","type":"section","translations":{"es":"Florey","en":"Florey"}},{"name":"Flynn","state_code":"ACT","latitude":"-35.20593000","longitude":"149.04389000","population":3256,"timezone":"Australia/Sydney","type":"section","translations":{"es":"Flynn","en":"Flynn"}},{"name":"Forde","state_code":"ACT","latitude":"-35.16823000","longitude":"149.14607000","population":4435,"timezone":"Australia/Sydney","type":"section","translations":{"es":"Forde","en":"Forde"}},{"name":"Forrest","state_code":"ACT","latitude":"-35.31499000","longitude":"149.12859000","population":1827,"timezone":"Australia/Sydney","type":"section","translations":{"es":"Bosque","en":"Forrest"}},{"name":"Franklin","state_code":"ACT","latitude":"-35.19946000","longitude":"149.14329000","population":7484,"timezone":"Australia/Sydney","type":"section","translations":{"es":"Franklin","en":"Franklin"}},{"name":"Fraser","state_code":"ACT","latitude":"-35.19170000","longitude":"149.04534000","population":2126,"timezone":"Australia/Sydney","type":"section","translations":{"es":"Fraser","en":"Fraser"}},{"name":"Garran","state_code":"ACT","latitude":"-35.34206000","longitude":"149.10846000","population":3706,"timezone":"Australia/Sydney","type":"section","translations":{"es":"Garran","en":"Garran"}},{"name":"Gilmore","state_code":"ACT","latitude":"-35.41994000","longitude":"149.13481000","population":2706,"timezone":"Australia/Sydney","type":"section","translations":{"es":"Gilmore","en":"Gilmore"}},{"name":"Giralang","state_code":"ACT","latitude":"-35.21093000","longitude":"149.09600000","population":3372,"timezone":"Australia/Sydney","type":"section","translations":{"es":"Giralang","en":"Giralang"}},{"name":"Gordon","state_code":"ACT","latitude":"-35.45676000","longitude":"149.08498000","population":7892,"timezone":"Australia/Sydney","type":"section","translations":{"es":"Gordon","en":"Gordon"}},{"name":"Gowrie","state_code":"ACT","latitude":"-35.41187000","longitude":"149.10903000","population":3140,"timezone":"Australia/Sydney","type":"section","translations":{"es":"Gowrie","en":"Gowrie"}},{"name":"Greenway","state_code":"ACT","latitude":"-35.41829000","longitude":"149.06658000","population":1996,"timezone":"Australia/Sydney","type":"section","translations":{"es":"Vía verde","en":"Greenway"}},{"name":"Griffith","state_code":"ACT","latitude":"-35.32533000","longitude":"149.13714000","population":5328,"timezone":"Australia/Sydney","type":"section","translations":{"es":"Griffith","en":"Griffith"}},{"name":"Gungahlin","state_code":"ACT","latitude":"-35.18674000","longitude":"149.13619000","population":6094,"timezone":"Australia/Sydney","type":"section","translations":{"es":"Gungahlin","en":"Gungahlin"}},{"name":"Hackett","state_code":"ACT","latitude":"-35.24948000","longitude":"149.16352000","population":3227,"timezone":"Australia/Sydney","type":"section","translations":{"es":"Hackett","en":"Hackett"}},{"name":"Harrison","state_code":"ACT","latitude":"-35.19906000","longitude":"149.15631000","population":8244,"timezone":"Australia/Sydney","type":"section","translations":{"es":"Harrison","en":"Harrison"}},{"name":"Hawker","state_code":"ACT","latitude":"-35.24707000","longitude":"149.03666000","population":3008,"timezone":"Australia/Sydney","type":"section","translations":{"es":"Vendedor ambulante","en":"Hawker"}},{"name":"Higgins","state_code":"ACT","latitude":"-35.23242000","longitude":"149.02720000","population":3321,"timezone":"Australia/Sydney","type":"section","translations":{"es":"Higgins","en":"Higgins"}},{"name":"Holder","state_code":"ACT","latitude":"-35.33439000","longitude":"149.04614000","population":2816,"timezone":"Australia/Sydney","type":"section","translations":{"es":"Titular","en":"Holder"}},{"name":"Holt","state_code":"ACT","latitude":"-35.22441000","longitude":"149.01188000","population":5628,"timezone":"Australia/Sydney","type":"section","translations":{"es":"Bosquecillo","en":"Holt"}},{"name":"Hughes","state_code":"ACT","latitude":"-35.33269000","longitude":"149.09491000","population":3210,"timezone":"Australia/Sydney","type":"section","translations":{"es":"Hughes","en":"Hughes"}},{"name":"Isaacs","state_code":"ACT","latitude":"-35.36862000","longitude":"149.11555000","population":2379,"timezone":"Australia/Sydney","type":"section","translations":{"es":"Isaacs","en":"Isaacs"}},{"name":"Isabella Plains","state_code":"ACT","latitude":"-35.42829000","longitude":"149.08795000","population":4329,"timezone":"Australia/Sydney","type":"section","translations":{"es":"Isabella Plains","en":"Isabella Plains"}},{"name":"Kaleen","state_code":"ACT","latitude":"-35.21814000","longitude":"149.10516000","population":7672,"timezone":"Australia/Sydney","type":"section","translations":{"es":"Kaleen","en":"Kaleen"}},{"name":"Kambah","state_code":"ACT","latitude":"-35.38624000","longitude":"149.05804000","population":15670,"timezone":"Australia/Sydney","type":"section","translations":{"es":"Kambah","en":"Kambah"}},{"name":"Kingston","state_code":"ACT","latitude":"-35.31525000","longitude":"149.14658000","population":4288,"timezone":"Australia/Sydney","type":"section","translations":{"es":"Kingston","en":"Kingston"}},{"name":"Latham","state_code":"ACT","latitude":"-35.21652000","longitude":"149.03144000","population":3767,"timezone":"Australia/Sydney","type":"section","translations":{"es":"Latham","en":"Latham"}},{"name":"Lyneham","state_code":"ACT","latitude":"-35.23980000","longitude":"149.13074000","population":5703,"timezone":"Australia/Sydney","type":"section","translations":{"es":"Lyneham","en":"Lyneham"}},{"name":"Lyons","state_code":"ACT","latitude":"-35.34060000","longitude":"149.07396000","population":3013,"timezone":"Australia/Sydney","type":"section","translations":{"es":"Lyons","en":"Lyons"}},{"name":"Macarthur","state_code":"ACT","latitude":"-35.40885000","longitude":"149.12696000","population":1405,"timezone":"Australia/Sydney","type":"section","translations":{"es":"Macarthur","en":"Macarthur"}},{"name":"Macgregor","state_code":"ACT","latitude":"-35.20980000","longitude":"149.01101000","population":7049,"timezone":"Australia/Sydney","type":"section","translations":{"es":"Macgregor","en":"Macgregor"}},{"name":"Macquarie","state_code":"ACT","latitude":"-35.25126000","longitude":"149.06363000","population":3104,"timezone":"Australia/Sydney","type":"section","translations":{"es":"Macquarie","en":"Macquarie"}},{"name":"Mawson","state_code":"ACT","latitude":"-35.36340000","longitude":"149.09863000","population":3440,"timezone":"Australia/Sydney","type":"section","translations":{"es":"Mawson","en":"Mawson"}},{"name":"McKellar","state_code":"ACT","latitude":"-35.21752000","longitude":"149.07704000","population":2740,"timezone":"Australia/Sydney","type":"section","translations":{"es":"McKellar","en":"McKellar"}},{"name":"Melba","state_code":"ACT","latitude":"-35.21016000","longitude":"149.05405000","population":3383,"timezone":"Australia/Sydney","type":"section","translations":{"es":"Melba","en":"Melba"}},{"name":"Monash","state_code":"ACT","latitude":"-35.41577000","longitude":"149.09063000","population":5644,"timezone":"Australia/Sydney","type":"section","translations":{"es":"Monash","en":"Monash"}},{"name":"Narrabundah","state_code":"ACT","latitude":"-35.33570000","longitude":"149.14924000","population":6455,"timezone":"Australia/Sydney","type":"section","translations":{"es":"Narrabundah","en":"Narrabundah"}},{"name":"Ngunnawal","state_code":"ACT","latitude":"-35.17280000","longitude":"149.11147000","population":10957,"timezone":"Australia/Sydney","type":"section","translations":{"es":"Ngunnawal","en":"Ngunnawal"}},{"name":"Nicholls","state_code":"ACT","latitude":"-35.18733000","longitude":"149.09648000","population":6680,"timezone":"Australia/Sydney","type":"section","translations":{"es":"Nicholls","en":"Nicholls"}},{"name":"O'Connor","state_code":"ACT","latitude":"-35.25645000","longitude":"149.11248000","population":5917,"timezone":"Australia/Sydney","type":"section","translations":{"es":"O'Connor","en":"O'Connor"}},{"name":"Oxley","state_code":"ACT","latitude":"-35.40952000","longitude":"149.07860000","population":1703,"timezone":"Australia/Sydney","type":"section","translations":{"es":"Oxley","en":"Oxley"}},{"name":"Page","state_code":"ACT","latitude":"-35.23864000","longitude":"149.04988000","population":3054,"timezone":"Australia/Sydney","type":"section","translations":{"es":"Página","en":"Page"}},{"name":"Palmerston","state_code":"ACT","latitude":"-35.19447000","longitude":"149.11940000","population":5430,"timezone":"Australia/Sydney","type":"section","translations":{"es":"Palmerston","en":"Palmerston"}},{"name":"Pearce","state_code":"ACT","latitude":"-35.36222000","longitude":"149.08338000","population":2687,"timezone":"Australia/Sydney","type":"section","translations":{"es":"Pearce","en":"Pearce"}},{"name":"Phillip","state_code":"ACT","latitude":"-35.35035000","longitude":"149.09151000","population":3079,"timezone":"Australia/Sydney","type":"section","translations":{"es":"Felipe","en":"Phillip"}},{"name":"Red Hill","state_code":"ACT","latitude":"-35.32624000","longitude":"149.11906000","population":3085,"timezone":"Australia/Sydney","type":"section","translations":{"es":"Colina roja","en":"Red Hill"}},{"name":"Reid","state_code":"ACT","latitude":"-35.28578000","longitude":"149.13905000","population":1544,"timezone":"Australia/Sydney","type":"section","translations":{"es":"Reid","en":"Reid"}},{"name":"Richardson","state_code":"ACT","latitude":"-35.42787000","longitude":"149.11377000","population":3058,"timezone":"Australia/Sydney","type":"section","translations":{"es":"Richardson","en":"Richardson"}},{"name":"Rivett","state_code":"ACT","latitude":"-35.34709000","longitude":"149.03790000","population":3354,"timezone":"Australia/Sydney","type":"section","translations":{"es":"Rivett","en":"Rivett"}},{"name":"Scullin","state_code":"ACT","latitude":"-35.23462000","longitude":"149.03900000","population":3069,"timezone":"Australia/Sydney","type":"section","translations":{"es":"Escullin","en":"Scullin"}},{"name":"Spence","state_code":"ACT","latitude":"-35.19873000","longitude":"149.06438000","population":2587,"timezone":"Australia/Sydney","type":"section","translations":{"es":"Spence","en":"Spence"}},{"name":"Stirling","state_code":"ACT","latitude":"-35.34969000","longitude":"149.04930000","population":2191,"timezone":"Australia/Sydney","type":"section","translations":{"es":"Stirling","en":"Stirling"}},{"name":"Theodore","state_code":"ACT","latitude":"-35.44962000","longitude":"149.11971000","population":3749,"timezone":"Australia/Sydney","type":"section","translations":{"es":"Teodoro","en":"Theodore"}},{"name":"Torrens","state_code":"ACT","latitude":"-35.37203000","longitude":"149.08773000","population":2424,"timezone":"Australia/Sydney","type":"section","translations":{"es":"Torrens","en":"Torrens"}},{"name":"Turner","state_code":"ACT","latitude":"-35.26881000","longitude":"149.12465000","population":4470,"timezone":"Australia/Sydney","type":"section","translations":{"es":"Tornero","en":"Turner"}},{"name":"Wanniassa","state_code":"ACT","latitude":"-35.39783000","longitude":"149.09086000","population":7885,"timezone":"Australia/Sydney","type":"section","translations":{"es":"Wanniassa","en":"Wanniassa"}},{"name":"Waramanga","state_code":"ACT","latitude":"-35.35297000","longitude":"149.06214000","population":2785,"timezone":"Australia/Sydney","type":"section","translations":{"es":"Waramanga","en":"Waramanga"}},{"name":"Watson","state_code":"ACT","latitude":"-35.23815000","longitude":"149.15271000","population":6727,"timezone":"Australia/Sydney","type":"section","translations":{"es":"Watson","en":"Watson"}},{"name":"Weetangera","state_code":"ACT","latitude":"-35.25000000","longitude":"149.05000000","population":2795,"timezone":"Australia/Sydney","type":"section","translations":{"es":"Weetangera","en":"Weetangera"}},{"name":"Weston","state_code":"ACT","latitude":"-35.33582000","longitude":"149.05929000","population":4088,"timezone":"Australia/Sydney","type":"section","translations":{"es":"Weston","en":"Weston"}},{"name":"Wright","state_code":"ACT","latitude":"-35.32239000","longitude":"149.03456000","population":2763,"timezone":"Australia/Sydney","type":"section","translations":{"es":"Wright","en":"Wright"}},{"name":"Yarralumla","state_code":"ACT","latitude":"-35.29980000","longitude":"149.10585000","population":3120,"timezone":"Australia/Sydney","type":"section","translations":{"es":"Yarralumla","en":"Yarralumla"}},{"name":"Abbotsbury","state_code":"NSW","latitude":"-33.87010000","longitude":"150.86119000","population":4200,"timezone":"Australia/Sydney","type":"section","translations":{"es":"Abbotsbury","en":"Abbotsbury"}},{"name":"Abbotsford","state_code":"NSW","latitude":"-33.84889000","longitude":"151.12801000","population":5431,"timezone":"Australia/Sydney","type":"section","translations":{"es":"Abbotsford","en":"Abbotsford"}},{"name":"Abercrombie","state_code":"NSW","latitude":"-33.38867000","longitude":"149.54580000","population":1127,"timezone":"Australia/Sydney","type":"section","translations":{"es":"Abercrombie","en":"Abercrombie"}},{"name":"Aberdare","state_code":"NSW","latitude":"-32.84112000","longitude":"151.38168000","population":2542,"timezone":"Australia/Sydney","type":"section","translations":{"es":"Aberdare","en":"Aberdare"}},{"name":"Aberdeen","state_code":"NSW","latitude":"-32.16588000","longitude":"150.89003000","population":2051,"timezone":"Australia/Sydney","type":"city","translations":{"es":"Aberdeen","en":"Aberdeen"}},{"name":"Aberglasslyn","state_code":"NSW","latitude":"-32.70000000","longitude":"151.53333000","population":6552,"timezone":"Australia/Sydney","type":"section","translations":{"es":"Aberglasslyn","en":"Aberglasslyn"}},{"name":"Abermain","state_code":"NSW","latitude":"-32.80740000","longitude":"151.42750000","population":2544,"timezone":"Australia/Sydney","type":"section","translations":{"es":"Abermain","en":"Abermain"}},{"name":"Acacia Gardens","state_code":"NSW","latitude":"-33.73159000","longitude":"150.91636000","population":3668,"timezone":"Australia/Sydney","type":"section","translations":{"es":"Jardines de acacias","en":"Acacia Gardens"}},{"name":"Adamstown","state_code":"NSW","latitude":"-32.93824000","longitude":"151.72541000","population":6335,"timezone":"Australia/Sydney","type":"section","translations":{"es":"Adamstown","en":"Adamstown"}},{"name":"Adamstown Heights","state_code":"NSW","latitude":"-32.94906000","longitude":"151.71009000","population":5621,"timezone":"Australia/Sydney","type":"section","translations":{"es":"Alturas de Adamstown","en":"Adamstown Heights"}},{"name":"Airds","state_code":"NSW","latitude":"-34.08599000","longitude":"150.83322000","population":3265,"timezone":"Australia/Sydney","type":"section","translations":{"es":"Airds","en":"Airds"}},{"name":"Albion Park","state_code":"NSW","latitude":"-34.57132000","longitude":"150.77568000","population":13826,"timezone":"Australia/Sydney","type":"section","translations":{"es":"Parque Albion","en":"Albion Park"}},{"name":"Albion Park Rail","state_code":"NSW","latitude":"-34.56634000","longitude":"150.79177000","population":6920,"timezone":"Australia/Sydney","type":"city","translations":{"es":"Ferrocarril del parque Albion","en":"Albion Park Rail"}},{"name":"Albury","state_code":"NSW","latitude":"-36.07482000","longitude":"146.92401000","population":4955,"timezone":"Australia/Sydney","type":"city","translations":{"es":"Albury","en":"Albury"}},{"name":"Albury Municipality","state_code":"NSW","latitude":"-36.01494000","longitude":"146.95684000","population":null,"timezone":"Australia/Sydney","type":"municipality","translations":{"es":"Municipio de Albury","en":"Albury Municipality"}},{"name":"Aldavilla","state_code":"NSW","latitude":"-31.08180000","longitude":"152.76790000","population":1443,"timezone":"Australia/Sydney","type":"city","translations":{"es":"Aldavilla","en":"Aldavilla"}},{"name":"Alexandria","state_code":"NSW","latitude":"-33.89989000","longitude":"151.19951000","population":8075,"timezone":"Australia/Sydney","type":"section","translations":{"es":"Alejandría","en":"Alexandria"}},{"name":"Alfords Point","state_code":"NSW","latitude":"-33.98744000","longitude":"151.02526000","population":3131,"timezone":"Australia/Sydney","type":"section","translations":{"es":"Alfords Point","en":"Alfords Point"}},{"name":"Allambie Heights","state_code":"NSW","latitude":"-33.76655000","longitude":"151.24981000","population":7317,"timezone":"Australia/Sydney","type":"section","translations":{"es":"Alturas de Allambie","en":"Allambie Heights"}},{"name":"Allawah","state_code":"NSW","latitude":"-33.97257000","longitude":"151.11440000","population":5351,"timezone":"Australia/Sydney","type":"section","translations":{"es":"Allah","en":"Allawah"}},{"name":"Alstonville","state_code":"NSW","latitude":"-28.84186000","longitude":"153.44022000","population":5912,"timezone":"Australia/Sydney","type":"city","translations":{"es":"Alstonville","en":"Alstonville"}},{"name":"Ambarvale","state_code":"NSW","latitude":"-34.08942000","longitude":"150.79656000","population":7254,"timezone":"Australia/Sydney","type":"section","translations":{"es":"Ambarvale","en":"Ambarvale"}},{"name":"Anna Bay","state_code":"NSW","latitude":"-32.78135000","longitude":"152.08586000","population":4221,"timezone":"Australia/Sydney","type":"section","translations":{"es":"Bahía Anna","en":"Anna Bay"}},{"name":"Annandale","state_code":"NSW","latitude":"-33.88333000","longitude":"151.16667000","population":8376,"timezone":"Australia/Sydney","type":"section","translations":{"es":"Annandale","en":"Annandale"}},{"name":"Annangrove","state_code":"NSW","latitude":"-33.65758000","longitude":"150.94755000","population":1472,"timezone":"Australia/Sydney","type":"section","translations":{"es":"Annangrove","en":"Annangrove"}},{"name":"Appin","state_code":"NSW","latitude":"-34.20347000","longitude":"150.78644000","population":3213,"timezone":"Australia/Sydney","type":"city","translations":{"es":"Aplicación","en":"Appin"}},{"name":"Arcadia","state_code":"NSW","latitude":"-33.61667000","longitude":"151.03333000","population":1475,"timezone":"Australia/Sydney","type":"section","translations":{"es":"Arcadia","en":"Arcadia"}},{"name":"Arcadia vale","state_code":"NSW","latitude":"-33.06052000","longitude":"151.58408000","population":1335,"timezone":"Australia/Sydney","type":"section","translations":{"es":"Valle de Arcadia","en":"Arcadia vale"}},{"name":"Argenton","state_code":"NSW","latitude":"-32.93505000","longitude":"151.63064000","population":1352,"timezone":"Australia/Sydney","type":"section","translations":{"es":"Argentón","en":"Argenton"}},{"name":"Armidale","state_code":"NSW","latitude":"-30.50123000","longitude":"151.66553000","population":23967,"timezone":"Australia/Sydney","type":"city","translations":{"es":"Armidale","en":"Armidale"}},{"name":"Arncliffe","state_code":"NSW","latitude":"-33.93627000","longitude":"151.14819000","population":12023,"timezone":"Australia/Sydney","type":"section","translations":{"es":"Arncliffe","en":"Arncliffe"}},{"name":"Artarmon","state_code":"NSW","latitude":"-33.81667000","longitude":"151.18333000","population":9417,"timezone":"Australia/Sydney","type":"section","translations":{"es":"Artarmón","en":"Artarmon"}},{"name":"Ashbury","state_code":"NSW","latitude":"-33.89785000","longitude":"151.11960000","population":3353,"timezone":"Australia/Sydney","type":"section","translations":{"es":"Ashbury","en":"Ashbury"}},{"name":"Ashcroft","state_code":"NSW","latitude":"-33.91598000","longitude":"150.89985000","population":3634,"timezone":"Australia/Sydney","type":"section","translations":{"es":"Ashcroft","en":"Ashcroft"}},{"name":"Ashfield","state_code":"NSW","latitude":"-33.88834000","longitude":"151.12274000","population":23749,"timezone":"Australia/Sydney","type":"section","translations":{"es":"Ashfield","en":"Ashfield"}},{"name":"Ashmont","state_code":"NSW","latitude":"-35.12491000","longitude":"147.33172000","population":3747,"timezone":"Australia/Sydney","type":"section","translations":{"es":"Ashmont","en":"Ashmont"}},{"name":"Ashtonfield","state_code":"NSW","latitude":"-32.77331000","longitude":"151.60583000","population":4589,"timezone":"Australia/Sydney","type":"section","translations":{"es":"Ashtonfield","en":"Ashtonfield"}},{"name":"Asquith","state_code":"NSW","latitude":"-33.68705000","longitude":"151.11630000","population":3347,"timezone":"Australia/Sydney","type":"section","translations":{"es":"Asquith","en":"Asquith"}},{"name":"Auburn","state_code":"NSW","latitude":"-33.85000000","longitude":"151.03333000","population":39333,"timezone":"Australia/Sydney","type":"section","translations":{"es":"Castaño","en":"Auburn"}},{"name":"Austinmer","state_code":"NSW","latitude":"-34.30516000","longitude":"150.93335000","population":2725,"timezone":"Australia/Sydney","type":"section","translations":{"es":"Austinmer","en":"Austinmer"}},{"name":"Austral","state_code":"NSW","latitude":"-33.92745000","longitude":"150.80811000","population":2984,"timezone":"Australia/Sydney","type":"section","translations":{"es":"Austral","en":"Austral"}},{"name":"Avoca Beach","state_code":"NSW","latitude":"-33.46818000","longitude":"151.43390000","population":4708,"timezone":"Australia/Sydney","type":"section","translations":{"es":"Playa Avoca","en":"Avoca Beach"}},{"name":"Avondale","state_code":"NSW","latitude":"-34.51750000","longitude":"150.75010000","population":1695,"timezone":"Australia/Sydney","type":"section","translations":{"es":"Avondale","en":"Avondale"}},{"name":"Balgowlah","state_code":"NSW","latitude":"-33.79494000","longitude":"151.25720000","population":8068,"timezone":"Australia/Sydney","type":"section","translations":{"es":"Balgowlah","en":"Balgowlah"}},{"name":"Balgowlah Heights","state_code":"NSW","latitude":"-33.80661000","longitude":"151.26243000","population":3546,"timezone":"Australia/Sydney","type":"section","translations":{"es":"Alturas de Balgowlah","en":"Balgowlah Heights"}},{"name":"Balgownie","state_code":"NSW","latitude":"-34.39505000","longitude":"150.88051000","population":5722,"timezone":"Australia/Sydney","type":"section","translations":{"es":"Balgownie","en":"Balgownie"}},{"name":"Ballina","state_code":"NSW","latitude":"-28.85273000","longitude":"153.48568000","population":9735,"timezone":"Australia/Sydney","type":"section","translations":{"es":"Ballina","en":"Ballina"}},{"name":"Balmain","state_code":"NSW","latitude":"-33.85481000","longitude":"151.18330000","population":10454,"timezone":"Australia/Sydney","type":"section","translations":{"es":"Balmain","en":"Balmain"}},{"name":"Balmain East","state_code":"NSW","latitude":"-33.85710000","longitude":"151.19282000","population":1900,"timezone":"Australia/Sydney","type":"section","translations":{"es":"Balmain Este","en":"Balmain East"}},{"name":"Balranald","state_code":"NSW","latitude":"-34.67839000","longitude":"143.56384000","population":1240,"timezone":"Australia/Sydney","type":"city","translations":{"es":"Balranald","en":"Balranald"}},{"name":"Bangalow","state_code":"NSW","latitude":"-28.68634000","longitude":"153.52153000","population":1980,"timezone":"Australia/Sydney","type":"city","translations":{"es":"Bangalow","en":"Bangalow"}},{"name":"Bangor","state_code":"NSW","latitude":"-34.01667000","longitude":"151.03333000","population":5536,"timezone":"Australia/Sydney","type":"section","translations":{"es":"Bangor","en":"Bangor"}},{"name":"Banksia","state_code":"NSW","latitude":"-33.94601000","longitude":"151.14304000","population":3342,"timezone":"Australia/Sydney","type":"section","translations":{"es":"Banksia","en":"Banksia"}},{"name":"Banksmeadow","state_code":"NSW","latitude":"-33.95603010","longitude":"151.19736200","population":508,"timezone":"Australia/Sydney","type":"city","translations":{"es":"Banksmeadow","en":"Banksmeadow"}},{"name":"Bankstown","state_code":"NSW","latitude":"-33.91667000","longitude":"151.03333000","population":34933,"timezone":"Australia/Sydney","type":"section","translations":{"es":"Bankstown","en":"Bankstown"}},{"name":"Banora Point","state_code":"NSW","latitude":"-28.21298000","longitude":"153.53634000","population":16460,"timezone":"Australia/Sydney","type":"section","translations":{"es":"Punta Banora","en":"Banora Point"}},{"name":"Bar Beach","state_code":"NSW","latitude":"-32.94128000","longitude":"151.76544000","population":1292,"timezone":"Australia/Sydney","type":"section","translations":{"es":"Playa Bar","en":"Bar Beach"}},{"name":"Barden Ridge","state_code":"NSW","latitude":"-34.03413000","longitude":"151.01194000","population":4129,"timezone":"Australia/Sydney","type":"section","translations":{"es":"Cresta de Barden","en":"Barden Ridge"}},{"name":"Bardia","state_code":"NSW","latitude":"-33.97789000","longitude":"150.86306000","population":1604,"timezone":"Australia/Sydney","type":"city","translations":{"es":"Bardia","en":"Bardia"}},{"name":"Bardwell Park","state_code":"NSW","latitude":"-33.93534000","longitude":"151.12571000","population":2320,"timezone":"Australia/Sydney","type":"section","translations":{"es":"Parque Bardwell","en":"Bardwell Park"}},{"name":"Bardwell Valley","state_code":"NSW","latitude":"-33.93344000","longitude":"151.13668000","population":2344,"timezone":"Australia/Sydney","type":"section","translations":{"es":"Valle de Bardwell","en":"Bardwell Valley"}},{"name":"Bargo","state_code":"NSW","latitude":"-34.29301000","longitude":"150.57806000","population":4516,"timezone":"Australia/Sydney","type":"city","translations":{"es":"Bargo","en":"Bargo"}},{"name":"Barham","state_code":"NSW","latitude":"-35.62647000","longitude":"144.12895000","population":1569,"timezone":"Australia/Sydney","type":"city","translations":{"es":"Barham","en":"Barham"}},{"name":"Barnsley","state_code":"NSW","latitude":"-32.93333000","longitude":"151.58333000","population":1735,"timezone":"Australia/Sydney","type":"section","translations":{"es":"Barnsley","en":"Barnsley"}},{"name":"Barooga","state_code":"NSW","latitude":"-35.90602000","longitude":"145.69585000","population":1888,"timezone":"Australia/Sydney","type":"city","translations":{"es":"Barooga","en":"Barooga"}},{"name":"Barraba","state_code":"NSW","latitude":"-30.38547000","longitude":"150.60901000","population":1329,"timezone":"Australia/Sydney","type":"city","translations":{"es":"Barrabá","en":"Barraba"}},{"name":"Barrack Heights","state_code":"NSW","latitude":"-34.56464000","longitude":"150.85692000","population":6003,"timezone":"Australia/Sydney","type":"city","translations":{"es":"Alturas del cuartel","en":"Barrack Heights"}},{"name":"Basin View","state_code":"NSW","latitude":"-35.08833000","longitude":"150.55534000","population":1583,"timezone":"Australia/Sydney","type":"city","translations":{"es":"Vista de la cuenca","en":"Basin View"}},{"name":"Bass Hill","state_code":"NSW","latitude":"-33.89863000","longitude":"150.99541000","population":10230,"timezone":"Australia/Sydney","type":"section","translations":{"es":"Colina Bass","en":"Bass Hill"}},{"name":"Bateau Bay","state_code":"NSW","latitude":"-33.38334000","longitude":"151.46671000","population":12516,"timezone":"Australia/Sydney","type":"section","translations":{"es":"Bahía Bateau","en":"Bateau Bay"}},{"name":"Batehaven","state_code":"NSW","latitude":"-35.73757000","longitude":"150.19836000","population":1911,"timezone":"Australia/Sydney","type":"section","translations":{"es":"Batehaven","en":"Batehaven"}},{"name":"Batemans Bay","state_code":"NSW","latitude":"-35.70658000","longitude":"150.17541000","population":17519,"timezone":"Australia/Sydney","type":"city","translations":{"es":"Bahía de Batemans","en":"Batemans Bay"}},{"name":"Bathurst","state_code":"NSW","latitude":"-33.41665000","longitude":"149.58060000","population":36230,"timezone":"Australia/Sydney","type":"adm2","translations":{"es":"Bathurst","en":"Bathurst"}},{"name":"Bathurst city centre","state_code":"NSW","latitude":"-33.41816000","longitude":"149.57621000","population":6949,"timezone":"Australia/Sydney","type":"section","translations":{"es":"Centro de la ciudad de Bathurst","en":"Bathurst city centre"}},{"name":"Bathurst Regional","state_code":"NSW","latitude":"-33.47310000","longitude":"149.51956000","population":null,"timezone":"Australia/Sydney","type":"city","translations":{"es":"Región de Bathurst","en":"Bathurst Regional"}},{"name":"Batlow","state_code":"NSW","latitude":"-35.51987000","longitude":"148.14727000","population":1270,"timezone":"Australia/Sydney","type":"city","translations":{"es":"Batlow","en":"Batlow"}},{"name":"Baulkham Hills","state_code":"NSW","latitude":"-33.75881000","longitude":"150.99292000","population":37415,"timezone":"Australia/Sydney","type":"section","translations":{"es":"Colinas de Baulkham","en":"Baulkham Hills"}},{"name":"Bay View","state_code":"NSW","latitude":"-33.65982000","longitude":"151.29878000","population":3093,"timezone":"Australia/Sydney","type":"section","translations":{"es":"Vista de la bahía","en":"Bay View"}},{"name":"Beacon Hill","state_code":"NSW","latitude":"-33.75280000","longitude":"151.25857000","population":7814,"timezone":"Australia/Sydney","type":"section","translations":{"es":"Beacon Hill","en":"Beacon Hill"}},{"name":"Beaumont Hills","state_code":"NSW","latitude":"-33.69993000","longitude":"150.94110000","population":9041,"timezone":"Australia/Sydney","type":"section","translations":{"es":"Colinas de Beaumont","en":"Beaumont Hills"}},{"name":"Beecroft","state_code":"NSW","latitude":"-33.74954000","longitude":"151.06480000","population":10291,"timezone":"Australia/Sydney","type":"section","translations":{"es":"Beecroft","en":"Beecroft"}},{"name":"Bega","state_code":"NSW","latitude":"-36.67392000","longitude":"149.84178000","population":5013,"timezone":"Australia/Sydney","type":"city","translations":{"es":"Bega","en":"Bega"}},{"name":"Bega Valley","state_code":"NSW","latitude":"-36.81646000","longitude":"149.72060000","population":null,"timezone":"Australia/Sydney","type":"city","translations":{"es":"Valle de Bega","en":"Bega Valley"}},{"name":"Belfield","state_code":"NSW","latitude":"-33.90354000","longitude":"151.08467000","population":6555,"timezone":"Australia/Sydney","type":"section","translations":{"es":"Belfield","en":"Belfield"}},{"name":"Bella Vista","state_code":"NSW","latitude":"-33.74127000","longitude":"150.95456000","population":8384,"timezone":"Australia/Sydney","type":"section","translations":{"es":"Bella Vista","en":"Bella Vista"}},{"name":"Bellambi","state_code":"NSW","latitude":"-34.36667000","longitude":"150.91667000","population":4039,"timezone":"Australia/Sydney","type":"section","translations":{"es":"Bellambi","en":"Bellambi"}},{"name":"Bellbird","state_code":"NSW","latitude":"-32.85992000","longitude":"151.31873000","population":2338,"timezone":"Australia/Sydney","type":"section","translations":{"es":"Pájaro campana","en":"Bellbird"}},{"name":"Bellevue Hill","state_code":"NSW","latitude":"-33.87899000","longitude":"151.25101000","population":10590,"timezone":"Australia/Sydney","type":"section","translations":{"es":"Colina Bellevue","en":"Bellevue Hill"}},{"name":"Bellingen","state_code":"NSW","latitude":"-30.37394000","longitude":"152.72492000","population":3923,"timezone":"Australia/Sydney","type":"city","translations":{"es":"Bellingen","en":"Bellingen"}},{"name":"Belmont","state_code":"NSW","latitude":"-33.02740000","longitude":"151.66010000","population":7079,"timezone":"Australia/Sydney","type":"section","translations":{"es":"Belmont","en":"Belmont"}},{"name":"Belmont North","state_code":"NSW","latitude":"-33.02081000","longitude":"151.66849000","population":6291,"timezone":"Australia/Sydney","type":"section","translations":{"es":"Belmont Norte","en":"Belmont North"}},{"name":"Belmont South","state_code":"NSW","latitude":"-33.04934000","longitude":"151.65695000","population":1053,"timezone":"Australia/Sydney","type":"section","translations":{"es":"Belmont Sur","en":"Belmont South"}},{"name":"Belmore","state_code":"NSW","latitude":"-33.91901000","longitude":"151.08935000","population":13781,"timezone":"Australia/Sydney","type":"section","translations":{"es":"Belmore","en":"Belmore"}},{"name":"Belrose","state_code":"NSW","latitude":"-33.73954000","longitude":"151.21033000","population":8726,"timezone":"Australia/Sydney","type":"section","translations":{"es":"Belrose","en":"Belrose"}},{"name":"Bensville","state_code":"NSW","latitude":"-33.49757000","longitude":"151.38084000","population":2500,"timezone":"Australia/Sydney","type":"section","translations":{"es":"Bensville","en":"Bensville"}},{"name":"Berala","state_code":"NSW","latitude":"-33.87197000","longitude":"151.03386000","population":8757,"timezone":"Australia/Sydney","type":"section","translations":{"es":"Berala","en":"Berala"}},{"name":"Beresfield","state_code":"NSW","latitude":"-32.80000000","longitude":"151.65000000","population":3267,"timezone":"Australia/Sydney","type":"city","translations":{"es":"Beresfield","en":"Beresfield"}},{"name":"Berkeley","state_code":"NSW","latitude":"-34.48333000","longitude":"150.85000000","population":7798,"timezone":"Australia/Sydney","type":"section","translations":{"es":"Berkeley","en":"Berkeley"}},{"name":"Berkeley Vale","state_code":"NSW","latitude":"-33.35000000","longitude":"151.43333000","population":8951,"timezone":"Australia/Sydney","type":"section","translations":{"es":"Berkeley Vale","en":"Berkeley Vale"}},{"name":"Berkshire Park","state_code":"NSW","latitude":"-33.67283000","longitude":"150.77523000","population":2149,"timezone":"Australia/Sydney","type":"section","translations":{"es":"Parque Berkshire","en":"Berkshire Park"}},{"name":"Bermagui","state_code":"NSW","latitude":"-36.41900000","longitude":"150.06355000","population":1865,"timezone":"Australia/Sydney","type":"city","translations":{"es":"Bermagui","en":"Bermagui"}},{"name":"Berowra","state_code":"NSW","latitude":"-33.62078000","longitude":"151.15091000","population":4762,"timezone":"Australia/Sydney","type":"section","translations":{"es":"Berowra","en":"Berowra"}},{"name":"Berowra Heights","state_code":"NSW","latitude":"-33.61211000","longitude":"151.13754000","population":5286,"timezone":"Australia/Sydney","type":"section","translations":{"es":"Alturas de Berowra","en":"Berowra Heights"}},{"name":"Berridale","state_code":"NSW","latitude":"-36.36673000","longitude":"148.82772000","population":1300,"timezone":"Australia/Sydney","type":"city","translations":{"es":"Berridale","en":"Berridale"}},{"name":"Berrigan","state_code":"NSW","latitude":"-35.75192000","longitude":"145.66984000","population":1264,"timezone":"Australia/Sydney","type":"city","translations":{"es":"Berrigan","en":"Berrigan"}},{"name":"Berry","state_code":"NSW","latitude":"-34.77507000","longitude":"150.69436000","population":3098,"timezone":"Australia/Sydney","type":"city","translations":{"es":"Baya","en":"Berry"}},{"name":"Beverley Park","state_code":"NSW","latitude":"-33.97707000","longitude":"151.13437000","population":2646,"timezone":"Australia/Sydney","type":"section","translations":{"es":"Parque Beverley","en":"Beverley Park"}},{"name":"Beverly Hills","state_code":"NSW","latitude":"-33.94799000","longitude":"151.07979000","population":10483,"timezone":"Australia/Sydney","type":"section","translations":{"es":"Beverly Hills","en":"Beverly Hills"}},{"name":"Bexley","state_code":"NSW","latitude":"-33.95000000","longitude":"151.11667000","population":19646,"timezone":"Australia/Sydney","type":"section","translations":{"es":"Bexley","en":"Bexley"}},{"name":"Bexley North","state_code":"NSW","latitude":"-33.93848000","longitude":"151.11385000","population":4281,"timezone":"Australia/Sydney","type":"section","translations":{"es":"Bexley Norte","en":"Bexley North"}},{"name":"Bidwill","state_code":"NSW","latitude":"-33.73013000","longitude":"150.82219000","population":4202,"timezone":"Australia/Sydney","type":"section","translations":{"es":"Bidwill","en":"Bidwill"}},{"name":"Bilambil Heights","state_code":"NSW","latitude":"-28.21610000","longitude":"153.48415000","population":3491,"timezone":"Australia/Sydney","type":"section","translations":{"es":"Alturas de Bilambil","en":"Bilambil Heights"}},{"name":"Bilgola Plateau","state_code":"NSW","latitude":"-33.64781000","longitude":"151.31212000","population":3650,"timezone":"Australia/Sydney","type":"section","translations":{"es":"Meseta de Bilgola","en":"Bilgola Plateau"}},{"name":"Bingara","state_code":"NSW","latitude":"-29.86931000","longitude":"150.57204000","population":1318,"timezone":"Australia/Sydney","type":"city","translations":{"es":"Bingara","en":"Bingara"}},{"name":"Birchgrove","state_code":"NSW","latitude":"-33.85164000","longitude":"151.18243000","population":3228,"timezone":"Australia/Sydney","type":"section","translations":{"es":"Bosque de abedules","en":"Birchgrove"}},{"name":"Birmingham Gardens","state_code":"NSW","latitude":"-32.89368000","longitude":"151.69009000","population":2598,"timezone":"Australia/Sydney","type":"section","translations":{"es":"Jardines de Birmingham","en":"Birmingham Gardens"}},{"name":"Birrong","state_code":"NSW","latitude":"-33.89255000","longitude":"151.02075000","population":3331,"timezone":"Australia/Sydney","type":"section","translations":{"es":"Birrong","en":"Birrong"}},{"name":"Blackalls Park","state_code":"NSW","latitude":"-32.99893000","longitude":"151.58018000","population":2812,"timezone":"Australia/Sydney","type":"section","translations":{"es":"Parque Blackalls","en":"Blackalls Park"}},{"name":"Blackbutt","state_code":"NSW","latitude":"-34.57164000","longitude":"150.83804000","population":3291,"timezone":"Australia/Sydney","type":"section","translations":{"es":"Trasero negro","en":"Blackbutt"}},{"name":"Blackett","state_code":"NSW","latitude":"-33.73792000","longitude":"150.81812000","population":3586,"timezone":"Australia/Sydney","type":"section","translations":{"es":"Blackett","en":"Blackett"}},{"name":"Blackheath","state_code":"NSW","latitude":"-33.63567000","longitude":"150.28318000","population":4479,"timezone":"Australia/Sydney","type":"section","translations":{"es":"Blackheath","en":"Blackheath"}},{"name":"Blacksmiths","state_code":"NSW","latitude":"-33.07167000","longitude":"151.65533000","population":1881,"timezone":"Australia/Sydney","type":"section","translations":{"es":"Herrería","en":"Blacksmiths"}},{"name":"Blacktown","state_code":"NSW","latitude":"-33.74016000","longitude":"150.86253000","population":50961,"timezone":"Australia/Sydney","type":"city","translations":{"es":"Blacktown","en":"Blacktown"}},{"name":"Blackwall","state_code":"NSW","latitude":"-33.50252000","longitude":"151.32786000","population":1941,"timezone":"Australia/Sydney","type":"section","translations":{"es":"Pared negra","en":"Blackwall"}},{"name":"Blair Athol","state_code":"NSW","latitude":"-30.65000000","longitude":"150.20000000","population":2725,"timezone":"Australia/Sydney","type":"city","translations":{"es":"Blair Athol","en":"Blair Athol"}},{"name":"Blakehurst","state_code":"NSW","latitude":"-33.99152000","longitude":"151.10876000","population":6652,"timezone":"Australia/Sydney","type":"section","translations":{"es":"Blakehurst","en":"Blakehurst"}},{"name":"Bland","state_code":"NSW","latitude":"-33.91904000","longitude":"146.92718000","population":61,"timezone":"Australia/Sydney","type":"city","translations":{"es":"Amable","en":"Bland"}},{"name":"Blaxland","state_code":"NSW","latitude":"-33.75000000","longitude":"150.60000000","population":7434,"timezone":"Australia/Sydney","type":"city","translations":{"es":"Blaxland","en":"Blaxland"}},{"name":"Blayney","state_code":"NSW","latitude":"-33.61653000","longitude":"149.13046000","population":3448,"timezone":"Australia/Sydney","type":"city","translations":{"es":"Blayney","en":"Blayney"}},{"name":"Bligh Park","state_code":"NSW","latitude":"-33.63985000","longitude":"150.80248000","population":6220,"timezone":"Australia/Sydney","type":"section","translations":{"es":"Parque Bligh","en":"Bligh Park"}},{"name":"Blue Bay","state_code":"NSW","latitude":"-33.35413000","longitude":"151.50024000","population":1060,"timezone":"Australia/Sydney","type":"section","translations":{"es":"Bahía Azul","en":"Blue Bay"}},{"name":"Blue Haven","state_code":"NSW","latitude":"-33.21106000","longitude":"151.50351000","population":6563,"timezone":"Australia/Sydney","type":"section","translations":{"es":"Refugio azul","en":"Blue Haven"}},{"name":"Blue Mountains","state_code":"NSW","latitude":"-33.63203000","longitude":"150.41293000","population":null,"timezone":"Australia/Sydney","type":"municipality","translations":{"es":"Municipio de las Montañas Azules","en":"Blue Mountains"}},{"name":"Boambee","state_code":"NSW","latitude":"-30.33981000","longitude":"153.06783000","population":1770,"timezone":"Australia/Sydney","type":"city","translations":{"es":"Boambee","en":"Boambee"}},{"name":"Boambee East","state_code":"NSW","latitude":"-30.34662000","longitude":"153.07320000","population":5304,"timezone":"Australia/Sydney","type":"section","translations":{"es":"Boambee East","en":"Boambee East"}},{"name":"Bogan","state_code":"NSW","latitude":"-31.57012000","longitude":"146.90617000","population":null,"timezone":"Australia/Sydney","type":"city","translations":{"es":"Bogan","en":"Bogan"}},{"name":"Bogangar","state_code":"NSW","latitude":"-28.32944000","longitude":"153.56860000","population":3313,"timezone":"Australia/Sydney","type":"section","translations":{"es":"Bogangar","en":"Bogangar"}},{"name":"Boggabri","state_code":"NSW","latitude":"-30.70953000","longitude":"150.04121000","population":1203,"timezone":"Australia/Sydney","type":"city","translations":{"es":"Boggabri","en":"Boggabri"}},{"name":"Bolton Point","state_code":"NSW","latitude":"-33.00177000","longitude":"151.61013000","population":2124,"timezone":"Australia/Sydney","type":"section","translations":{"es":"Bolton Point","en":"Bolton Point"}},{"name":"Bolwarra Heights","state_code":"NSW","latitude":"-32.70100000","longitude":"151.58541000","population":3436,"timezone":"Australia/Sydney","type":"section","translations":{"es":"Alturas de Bolwarra","en":"Bolwarra Heights"}},{"name":"Bomaderry","state_code":"NSW","latitude":"-34.84967000","longitude":"150.61093000","population":6738,"timezone":"Australia/Sydney","type":"city","translations":{"es":"Bomaderry","en":"Bomaderry"}},{"name":"Bombala","state_code":"NSW","latitude":"-36.91212000","longitude":"149.23669000","population":1372,"timezone":"Australia/Sydney","type":"city","translations":{"es":"Bombala","en":"Bombala"}},{"name":"Bondi","state_code":"NSW","latitude":"-33.89429000","longitude":"151.26444000","population":10411,"timezone":"Australia/Sydney","type":"section","translations":{"es":"Bondi","en":"Bondi"}},{"name":"Bondi Beach","state_code":"NSW","latitude":"-33.89079000","longitude":"151.27852000","population":11513,"timezone":"Australia/Sydney","type":"section","translations":{"es":"Playa Bondi","en":"Bondi Beach"}},{"name":"Bondi Junction","state_code":"NSW","latitude":"-33.89275000","longitude":"151.24723000","population":10361,"timezone":"Australia/Sydney","type":"section","translations":{"es":"Bondi Junction","en":"Bondi Junction"}},{"name":"Bonnells Bay","state_code":"NSW","latitude":"-33.10973000","longitude":"151.53226000","population":4066,"timezone":"Australia/Sydney","type":"section","translations":{"es":"Bahía Bonnells","en":"Bonnells Bay"}},{"name":"Bonnet Bay","state_code":"NSW","latitude":"-34.01023000","longitude":"151.05253000","population":2238,"timezone":"Australia/Sydney","type":"section","translations":{"es":"Bahía Bonnet","en":"Bonnet Bay"}},{"name":"Bonny Hills","state_code":"NSW","latitude":"-31.59061000","longitude":"152.83908000","population":3045,"timezone":"Australia/Sydney","type":"city","translations":{"es":"Colinas hermosas","en":"Bonny Hills"}},{"name":"Bonnyrigg","state_code":"NSW","latitude":"-33.89357000","longitude":"150.88908000","population":9785,"timezone":"Australia/Sydney","type":"section","translations":{"es":"Bonnyrigg","en":"Bonnyrigg"}},{"name":"Bonnyrigg Heights","state_code":"NSW","latitude":"-33.89117000","longitude":"150.86994000","population":7369,"timezone":"Australia/Sydney","type":"section","translations":{"es":"Alturas de Bonnyrigg","en":"Bonnyrigg Heights"}},{"name":"Bonville","state_code":"NSW","latitude":"-30.38284000","longitude":"153.05959000","population":2939,"timezone":"Australia/Sydney","type":"city","translations":{"es":"Bonville","en":"Bonville"}},{"name":"Booker Bay","state_code":"NSW","latitude":"-33.51250000","longitude":"151.34590000","population":1442,"timezone":"Australia/Sydney","type":"section","translations":{"es":"Bahía Booker","en":"Booker Bay"}},{"name":"Booragul","state_code":"NSW","latitude":"-32.97486000","longitude":"151.60978000","population":1259,"timezone":"Australia/Sydney","type":"section","translations":{"es":"Booragul","en":"Booragul"}},{"name":"Boorowa","state_code":"NSW","latitude":"-34.43661000","longitude":"148.71634000","population":1888,"timezone":"Australia/Sydney","type":"city","translations":{"es":"Boorowa","en":"Boorowa"}},{"name":"Bossley Park","state_code":"NSW","latitude":"-33.86184000","longitude":"150.88410000","population":15492,"timezone":"Australia/Sydney","type":"section","translations":{"es":"Parque Bossley","en":"Bossley Park"}},{"name":"Botany","state_code":"NSW","latitude":"-33.94599000","longitude":"151.19591000","population":12960,"timezone":"Australia/Sydney","type":"section","translations":{"es":"Botánica","en":"Botany"}},{"name":"Botany Bay","state_code":"NSW","latitude":"-33.94660000","longitude":"151.19874000","population":8075,"timezone":"Australia/Sydney","type":"section","translations":{"es":"Bahía Botánica","en":"Botany Bay"}},{"name":"Bourke","state_code":"NSW","latitude":"-29.99584000","longitude":"145.36160000","population":1699,"timezone":"Australia/Sydney","type":"city","translations":{"es":"Bourke","en":"Bourke"}},{"name":"Bourkelands","state_code":"NSW","latitude":"-35.15593000","longitude":"147.34704000","population":3113,"timezone":"Australia/Sydney","type":"section","translations":{"es":"Bourkelands","en":"Bourkelands"}},{"name":"Bow Bowing","state_code":"NSW","latitude":"-34.01655000","longitude":"150.84030000","population":1606,"timezone":"Australia/Sydney","type":"section","translations":{"es":"Inclinación con arco","en":"Bow Bowing"}},{"name":"Bowen Mountain","state_code":"NSW","latitude":"-33.57192000","longitude":"150.62563000","population":1609,"timezone":"Australia/Sydney","type":"city","translations":{"es":"Montaña Bowen","en":"Bowen Mountain"}},{"name":"Bowenfels","state_code":"NSW","latitude":"-33.48336000","longitude":"150.13444000","population":2049,"timezone":"Australia/Sydney","type":"section","translations":{"es":"Bowenfels","en":"Bowenfels"}},{"name":"Bowral","state_code":"NSW","latitude":"-34.47750000","longitude":"150.42040000","population":10764,"timezone":"Australia/Sydney","type":"city","translations":{"es":"Bowral","en":"Bowral"}},{"name":"Bowraville","state_code":"NSW","latitude":"-30.64997000","longitude":"152.85146000","population":1157,"timezone":"Australia/Sydney","type":"city","translations":{"es":"Bowraville","en":"Bowraville"}},{"name":"Bradbury","state_code":"NSW","latitude":"-34.08540000","longitude":"150.81541000","population":9433,"timezone":"Australia/Sydney","type":"section","translations":{"es":"Bradbury","en":"Bradbury"}},{"name":"Braidwood","state_code":"NSW","latitude":"-35.44148000","longitude":"149.79980000","population":1720,"timezone":"Australia/Sydney","type":"city","translations":{"es":"Braidwood","en":"Braidwood"}},{"name":"Branxton","state_code":"NSW","latitude":"-32.65547000","longitude":"151.35113000","population":2255,"timezone":"Australia/Sydney","type":"section","translations":{"es":"Branxton","en":"Branxton"}},{"name":"Breakfast Point","state_code":"NSW","latitude":"-33.84286000","longitude":"151.11072000","population":4678,"timezone":"Australia/Sydney","type":"section","translations":{"es":"Punto de desayuno","en":"Breakfast Point"}},{"name":"Brewarrina","state_code":"NSW","latitude":"-29.95055000","longitude":"147.14760000","population":931,"timezone":"Australia/Sydney","type":"city","translations":{"es":"Cervecería","en":"Brewarrina"}},{"name":"Brighton-Le-Sands","state_code":"NSW","latitude":"-33.96009000","longitude":"151.15110000","population":8336,"timezone":"Australia/Sydney","type":"section","translations":{"es":"Brighton-Le-Sands","en":"Brighton-Le-Sands"}},{"name":"Bringelly","state_code":"NSW","latitude":"-33.93333000","longitude":"150.73333000","population":2433,"timezone":"Australia/Sydney","type":"section","translations":{"es":"Bringelly","en":"Bringelly"}},{"name":"Broadmeadow","state_code":"NSW","latitude":"-32.92371000","longitude":"151.72849000","population":1688,"timezone":"Australia/Sydney","type":"section","translations":{"es":"Pradera ancha","en":"Broadmeadow"}},{"name":"Broken Hill","state_code":"NSW","latitude":"-31.96520000","longitude":"141.45120000","population":17706,"timezone":"Australia/Broken_Hill","type":"city","translations":{"es":"Colina rota","en":"Broken Hill"}},{"name":"Broken Hill Municipality","state_code":"NSW","latitude":"-31.95000000","longitude":"141.43333000","population":null,"timezone":"Australia/Adelaide","type":"municipality","translations":{"es":"Municipio de Broken Hill","en":"Broken Hill Municipality"}},{"name":"Bronte","state_code":"NSW","latitude":"-33.90198000","longitude":"151.26556000","population":7166,"timezone":"Australia/Sydney","type":"section","translations":{"es":"Brontë","en":"Bronte"}},{"name":"Brookvale","state_code":"NSW","latitude":"-33.76108000","longitude":"151.27446000","population":3389,"timezone":"Australia/Sydney","type":"section","translations":{"es":"Brookvale","en":"Brookvale"}},{"name":"Broulee","state_code":"NSW","latitude":"-35.85469000","longitude":"150.17392000","population":1947,"timezone":"Australia/Sydney","type":"city","translations":{"es":"Broulee","en":"Broulee"}},{"name":"Brunswick Heads","state_code":"NSW","latitude":"-28.54003000","longitude":"153.54573000","population":1905,"timezone":"Australia/Sydney","type":"city","translations":{"es":"Brunswick Heads","en":"Brunswick Heads"}},{"name":"Budgewoi","state_code":"NSW","latitude":"-33.23390000","longitude":"151.55412000","population":3497,"timezone":"Australia/Sydney","type":"section","translations":{"es":"Budgewoi","en":"Budgewoi"}},{"name":"Buff Point","state_code":"NSW","latitude":"-33.22285000","longitude":"151.53125000","population":3559,"timezone":"Australia/Sydney","type":"section","translations":{"es":"Punto de mejora","en":"Buff Point"}},{"name":"Bulahdelah","state_code":"NSW","latitude":"-32.40698000","longitude":"152.21185000","population":1538,"timezone":"Australia/Sydney","type":"city","translations":{"es":"Bulahdelah","en":"Bulahdelah"}},{"name":"Bullaburra","state_code":"NSW","latitude":"-33.72922000","longitude":"150.41766000","population":1300,"timezone":"Australia/Sydney","type":"section","translations":{"es":"Bullaburra","en":"Bullaburra"}},{"name":"Bulli","state_code":"NSW","latitude":"-34.33834000","longitude":"150.91347000","population":6798,"timezone":"Australia/Sydney","type":"section","translations":{"es":"Bulli","en":"Bulli"}},{"name":"Bundanoon","state_code":"NSW","latitude":"-34.65658000","longitude":"150.29623000","population":2869,"timezone":"Australia/Sydney","type":"city","translations":{"es":"Bundanoon","en":"Bundanoon"}},{"name":"Bundeena","state_code":"NSW","latitude":"-34.08384000","longitude":"151.15016000","population":2103,"timezone":"Australia/Sydney","type":"section","translations":{"es":"Bundeena","en":"Bundeena"}},{"name":"Bungarribee","state_code":"NSW","latitude":"-33.77704000","longitude":"150.86799000","population":3177,"timezone":"Australia/Sydney","type":"section","translations":{"es":"Bungarribee","en":"Bungarribee"}},{"name":"Bungendore","state_code":"NSW","latitude":"-35.25382000","longitude":"149.44007000","population":4745,"timezone":"Australia/Sydney","type":"city","translations":{"es":"Bungendore","en":"Bungendore"}},{"name":"Buronga","state_code":"NSW","latitude":"-34.17070000","longitude":"142.17350000","population":1252,"timezone":"Australia/Melbourne","type":"city","translations":{"es":"Buronga","en":"Buronga"}},{"name":"Burradoo","state_code":"NSW","latitude":"-34.50320000","longitude":"150.40900000","population":2879,"timezone":"Australia/Sydney","type":"city","translations":{"es":"Burradoo","en":"Burradoo"}},{"name":"Burraneer","state_code":"NSW","latitude":"-34.05625000","longitude":"151.13810000","population":3719,"timezone":"Australia/Sydney","type":"section","translations":{"es":"Burraneer","en":"Burraneer"}},{"name":"Burrill Lake","state_code":"NSW","latitude":"-35.38716000","longitude":"150.44952000","population":1782,"timezone":"Australia/Sydney","type":"city","translations":{"es":"Lago Burrill","en":"Burrill Lake"}},{"name":"Burwood","state_code":"NSW","latitude":"-33.88536000","longitude":"151.10481000","population":18224,"timezone":"Australia/Sydney","type":"section","translations":{"es":"Burwood","en":"Burwood"}},{"name":"Busby","state_code":"NSW","latitude":"-33.91124000","longitude":"150.88068000","population":4446,"timezone":"Australia/Sydney","type":"section","translations":{"es":"Gorro alto de piel negra","en":"Busby"}},{"name":"Buttaba","state_code":"NSW","latitude":"-33.05327000","longitude":"151.57866000","population":1204,"timezone":"Australia/Sydney","type":"section","translations":{"es":"Buttaba","en":"Buttaba"}},{"name":"Buxton","state_code":"NSW","latitude":"-34.26017000","longitude":"150.53288000","population":2071,"timezone":"Australia/Sydney","type":"city","translations":{"es":"Buxton","en":"Buxton"}},{"name":"Byron Bay","state_code":"NSW","latitude":"-28.64989000","longitude":"153.61246000","population":6330,"timezone":"Australia/Sydney","type":"city","translations":{"es":"Bahía Byron","en":"Byron Bay"}},{"name":"Byron Shire","state_code":"NSW","latitude":"-28.61667000","longitude":"153.51667000","population":36116,"timezone":"Australia/Sydney","type":"city","translations":{"es":"Condado de Byron","en":"Byron Shire"}},{"name":"Bywong","state_code":"NSW","latitude":"-35.16476000","longitude":"149.32892000","population":1342,"timezone":"Australia/Sydney","type":"city","translations":{"es":"Bywong","en":"Bywong"}},{"name":"Cabarita","state_code":"NSW","latitude":"-33.84721000","longitude":"151.11638000","population":1911,"timezone":"Australia/Sydney","type":"section","translations":{"es":"Cabarita","en":"Cabarita"}},{"name":"Cabonne","state_code":"NSW","latitude":"-33.11076000","longitude":"148.82694000","population":null,"timezone":"Australia/Sydney","type":"city","translations":{"es":"Cabonne","en":"Cabonne"}},{"name":"Cabramatta","state_code":"NSW","latitude":"-33.89743000","longitude":"150.93446000","population":21142,"timezone":"Australia/Sydney","type":"section","translations":{"es":"Cabramatta","en":"Cabramatta"}},{"name":"Cabramatta West","state_code":"NSW","latitude":"-33.89303000","longitude":"150.91190000","population":7822,"timezone":"Australia/Sydney","type":"section","translations":{"es":"Cabramatta Oeste","en":"Cabramatta West"}},{"name":"Caddens","state_code":"NSW","latitude":"-33.77415000","longitude":"150.74126000","population":1496,"timezone":"Australia/Sydney","type":"city","translations":{"es":"Caddens","en":"Caddens"}},{"name":"Calala","state_code":"NSW","latitude":"-31.17356000","longitude":"150.98059000","population":4577,"timezone":"Australia/Sydney","type":"section","translations":{"es":"Calala","en":"Calala"}},{"name":"Callaghan","state_code":"NSW","latitude":"-32.89205000","longitude":"151.70531000","population":1358,"timezone":"Australia/Sydney","type":"section","translations":{"es":"Callaghan","en":"Callaghan"}},{"name":"Callala Bay","state_code":"NSW","latitude":"-34.99668000","longitude":"150.72281000","population":2234,"timezone":"Australia/Sydney","type":"city","translations":{"es":"Bahía de Callala","en":"Callala Bay"}},{"name":"Cambewarra Village","state_code":"NSW","latitude":"-34.82335000","longitude":"150.55940000","population":1211,"timezone":"Australia/Sydney","type":"city","translations":{"es":"Pueblo de Cambewarra","en":"Cambewarra Village"}},{"name":"Cambridge Gardens","state_code":"NSW","latitude":"-33.73801000","longitude":"150.72075000","population":2030,"timezone":"Australia/Sydney","type":"section","translations":{"es":"Jardines de Cambridge","en":"Cambridge Gardens"}},{"name":"Cambridge Park","state_code":"NSW","latitude":"-33.74784000","longitude":"150.72208000","population":7054,"timezone":"Australia/Sydney","type":"section","translations":{"es":"Parque Cambridge","en":"Cambridge Park"}},{"name":"Camden","state_code":"NSW","latitude":"-34.01610000","longitude":"150.72521000","population":3378,"timezone":"Australia/Sydney","type":"section","translations":{"es":"Camden","en":"Camden"}},{"name":"Camden Haven","state_code":"NSW","latitude":"-31.64484000","longitude":"152.79462000","population":2089,"timezone":"Australia/Sydney","type":"city","translations":{"es":"Camden Haven","en":"Camden Haven"}},{"name":"Camden South","state_code":"NSW","latitude":"-34.08312000","longitude":"150.69491000","population":4595,"timezone":"Australia/Sydney","type":"section","translations":{"es":"Camden Sur","en":"Camden South"}},{"name":"Cameron Park","state_code":"NSW","latitude":"-32.90701000","longitude":"151.60528000","population":7819,"timezone":"Australia/Sydney","type":"section","translations":{"es":"Parque Cameron","en":"Cameron Park"}},{"name":"Cammeray","state_code":"NSW","latitude":"-33.82132000","longitude":"151.21609000","population":7088,"timezone":"Australia/Sydney","type":"section","translations":{"es":"Cammeray","en":"Cammeray"}},{"name":"Campbelltown","state_code":"NSW","latitude":"-34.06667000","longitude":"150.81667000","population":13193,"timezone":"Australia/Sydney","type":"city","translations":{"es":"Campbelltown","en":"Campbelltown"}},{"name":"Campbelltown Municipality","state_code":"NSW","latitude":"-34.08333000","longitude":"150.83333000","population":null,"timezone":"Australia/Sydney","type":"municipality","translations":{"es":"Municipio de Campbelltown","en":"Campbelltown Municipality"}},{"name":"Camperdown","state_code":"NSW","latitude":"-33.88965000","longitude":"151.17642000","population":11336,"timezone":"Australia/Sydney","type":"section","translations":{"es":"Camperdown","en":"Camperdown"}},{"name":"Campsie","state_code":"NSW","latitude":"-33.91250000","longitude":"151.10279000","population":26132,"timezone":"Australia/Sydney","type":"section","translations":{"es":"Campsie","en":"Campsie"}},{"name":"Canada Bay","state_code":"NSW","latitude":"-33.86590000","longitude":"151.11591000","population":1308,"timezone":"Australia/Sydney","type":"section","translations":{"es":"Bahía de Canadá","en":"Canada Bay"}},{"name":"Canley Heights","state_code":"NSW","latitude":"-33.88262000","longitude":"150.92408000","population":12320,"timezone":"Australia/Sydney","type":"section","translations":{"es":"Alturas de Canley","en":"Canley Heights"}},{"name":"Canley Vale","state_code":"NSW","latitude":"-33.88657000","longitude":"150.94802000","population":10300,"timezone":"Australia/Sydney","type":"section","translations":{"es":"Canley Vale","en":"Canley Vale"}},{"name":"Canowindra","state_code":"NSW","latitude":"-33.56247000","longitude":"148.66434000","population":2437,"timezone":"Australia/Sydney","type":"city","translations":{"es":"Canowindra","en":"Canowindra"}},{"name":"Canterbury","state_code":"NSW","latitude":"-33.91192000","longitude":"151.11862000","population":7200,"timezone":"Australia/Sydney","type":"section","translations":{"es":"Canterbury","en":"Canterbury"}},{"name":"Canton Beach","state_code":"NSW","latitude":"-33.27443000","longitude":"151.54614000","population":1202,"timezone":"Australia/Sydney","type":"section","translations":{"es":"Playa Cantón","en":"Canton Beach"}},{"name":"Cardiff","state_code":"NSW","latitude":"-32.94201000","longitude":"151.65440000","population":2883,"timezone":"Australia/Sydney","type":"section","translations":{"es":"Cardiff","en":"Cardiff"}},{"name":"Cardiff Heights","state_code":"NSW","latitude":"-32.93626000","longitude":"151.67227000","population":1384,"timezone":"Australia/Sydney","type":"section","translations":{"es":"Alturas de Cardiff","en":"Cardiff Heights"}},{"name":"Cardiff South","state_code":"NSW","latitude":"-32.95470000","longitude":"151.66446000","population":2931,"timezone":"Australia/Sydney","type":"section","translations":{"es":"Cardiff Sur","en":"Cardiff South"}},{"name":"Caringbah","state_code":"NSW","latitude":"-34.03534000","longitude":"151.12468000","population":12575,"timezone":"Australia/Sydney","type":"section","translations":{"es":"Caringbah","en":"Caringbah"}},{"name":"Caringbah South","state_code":"NSW","latitude":"-34.05662000","longitude":"151.12149000","population":13168,"timezone":"Australia/Sydney","type":"section","translations":{"es":"Caringbah Sur","en":"Caringbah South"}},{"name":"Carlingford","state_code":"NSW","latitude":"-33.78269000","longitude":"151.04888000","population":28044,"timezone":"Australia/Sydney","type":"section","translations":{"es":"Carlingford","en":"Carlingford"}},{"name":"Carlton","state_code":"NSW","latitude":"-33.97107000","longitude":"151.12136000","population":10631,"timezone":"Australia/Sydney","type":"section","translations":{"es":"Carlton","en":"Carlton"}},{"name":"Carnes Hill","state_code":"NSW","latitude":"-33.93846000","longitude":"150.84881000","population":2045,"timezone":"Australia/Sydney","type":"section","translations":{"es":"Colina de Carnes","en":"Carnes Hill"}},{"name":"Carramar","state_code":"NSW","latitude":"-33.88382000","longitude":"150.96153000","population":3562,"timezone":"Australia/Sydney","type":"section","translations":{"es":"Carramar","en":"Carramar"}},{"name":"Carrathool","state_code":"NSW","latitude":"-33.62571000","longitude":"145.42523000","population":200,"timezone":"Australia/Sydney","type":"city","translations":{"es":"Carrathool","en":"Carrathool"}},{"name":"Carrington","state_code":"NSW","latitude":"-32.91501000","longitude":"151.76436000","population":2061,"timezone":"Australia/Sydney","type":"section","translations":{"es":"Carrington","en":"Carrington"}},{"name":"Carss Park","state_code":"NSW","latitude":"-33.98667000","longitude":"151.11734000","population":1265,"timezone":"Australia/Sydney","type":"section","translations":{"es":"Parque Carss","en":"Carss Park"}},{"name":"Cartwright","state_code":"NSW","latitude":"-33.92498000","longitude":"150.88951000","population":2616,"timezone":"Australia/Sydney","type":"section","translations":{"es":"Carretero","en":"Cartwright"}},{"name":"Carwoola","state_code":"NSW","latitude":"-35.37836000","longitude":"149.32150000","population":1602,"timezone":"Australia/Sydney","type":"section","translations":{"es":"Carwoola","en":"Carwoola"}},{"name":"Casino","state_code":"NSW","latitude":"-28.85819000","longitude":"153.04748000","population":10930,"timezone":"Australia/Sydney","type":"city","translations":{"es":"Casino","en":"Casino"}},{"name":"Castle Cove","state_code":"NSW","latitude":"-33.78655000","longitude":"151.20925000","population":2643,"timezone":"Australia/Sydney","type":"section","translations":{"es":"Cala del castillo","en":"Castle Cove"}},{"name":"Castle Hill","state_code":"NSW","latitude":"-33.73333000","longitude":"151.00000000","population":40874,"timezone":"Australia/Sydney","type":"section","translations":{"es":"Colina del castillo","en":"Castle Hill"}},{"name":"Castlecrag","state_code":"NSW","latitude":"-33.79987000","longitude":"151.22310000","population":2965,"timezone":"Australia/Sydney","type":"section","translations":{"es":"Castlecrag","en":"Castlecrag"}},{"name":"Castlereagh","state_code":"NSW","latitude":"-33.68981000","longitude":"150.67887000","population":1248,"timezone":"Australia/Sydney","type":"section","translations":{"es":"Castlereagh","en":"Castlereagh"}},{"name":"Casuarina","state_code":"NSW","latitude":"-28.30042000","longitude":"153.57064000","population":2700,"timezone":"Australia/Sydney","type":"section","translations":{"es":"Casuarina","en":"Casuarina"}},{"name":"Casula","state_code":"NSW","latitude":"-33.95222000","longitude":"150.89949000","population":16584,"timezone":"Australia/Sydney","type":"section","translations":{"es":"Casula","en":"Casula"}},{"name":"Catalina","state_code":"NSW","latitude":"-35.73000000","longitude":"150.18494000","population":2522,"timezone":"Australia/Sydney","type":"section","translations":{"es":"Catalina","en":"Catalina"}},{"name":"Catherine Field","state_code":"NSW","latitude":"-34.00439000","longitude":"150.77253000","population":1634,"timezone":"Australia/Sydney","type":"section","translations":{"es":"Catherine Field","en":"Catherine Field"}},{"name":"Caves Beach","state_code":"NSW","latitude":"-33.10637000","longitude":"151.64402000","population":4016,"timezone":"Australia/Sydney","type":"section","translations":{"es":"Playa de las cuevas","en":"Caves Beach"}},{"name":"Cecil Hills","state_code":"NSW","latitude":"-33.88917000","longitude":"150.85137000","population":6906,"timezone":"Australia/Sydney","type":"section","translations":{"es":"Colinas de Cecil","en":"Cecil Hills"}},{"name":"Centennial Park","state_code":"NSW","latitude":"-33.89794000","longitude":"151.23364000","population":2300,"timezone":"Australia/Sydney","type":"section","translations":{"es":"Parque Centenario","en":"Centennial Park"}},{"name":"Central Darling","state_code":"NSW","latitude":"-31.77155000","longitude":"143.62569000","population":null,"timezone":"Australia/Sydney","type":"city","translations":{"es":"Central Darling","en":"Central Darling"}},{"name":"Cessnock","state_code":"NSW","latitude":"-32.89391000","longitude":"151.21234000","population":16300,"timezone":"Australia/Sydney","type":"city","translations":{"es":"Cessnock","en":"Cessnock"}},{"name":"Chain Valley Bay","state_code":"NSW","latitude":"-33.17241000","longitude":"151.57143000","population":2773,"timezone":"Australia/Sydney","type":"section","translations":{"es":"Bahía del Valle de la Cadena","en":"Chain Valley Bay"}},{"name":"Charlestown","state_code":"NSW","latitude":"-32.96828000","longitude":"151.69318000","population":13601,"timezone":"Australia/Sydney","type":"section","translations":{"es":"Charlestown","en":"Charlestown"}},{"name":"Charmhaven","state_code":"NSW","latitude":"-33.22671000","longitude":"151.50284000","population":2501,"timezone":"Australia/Sydney","type":"section","translations":{"es":"Charmhaven","en":"Charmhaven"}},{"name":"Chatswood","state_code":"NSW","latitude":"-33.80000000","longitude":"151.18333000","population":25553,"timezone":"Australia/Sydney","type":"section","translations":{"es":"Chatswood","en":"Chatswood"}},{"name":"Chatswood West","state_code":"NSW","latitude":"-33.79402000","longitude":"151.16492000","population":1521,"timezone":"Australia/Sydney","type":"section","translations":{"es":"Chatswood Oeste","en":"Chatswood West"}},{"name":"Cherrybrook","state_code":"NSW","latitude":"-33.72197000","longitude":"151.04607000","population":19082,"timezone":"Australia/Sydney","type":"section","translations":{"es":"Cherrybrook","en":"Cherrybrook"}},{"name":"Chester Hill","state_code":"NSW","latitude":"-33.87896000","longitude":"150.99945000","population":14007,"timezone":"Australia/Sydney","type":"section","translations":{"es":"Chester Hill","en":"Chester Hill"}},{"name":"Chifley","state_code":"NSW","latitude":"-33.96696000","longitude":"151.24221000","population":3490,"timezone":"Australia/Sydney","type":"section","translations":{"es":"Chifley","en":"Chifley"}},{"name":"Chinderah","state_code":"NSW","latitude":"-28.25456000","longitude":"153.53712000","population":1639,"timezone":"Australia/Sydney","type":"section","translations":{"es":"Chinderah","en":"Chinderah"}},{"name":"Chippendale","state_code":"NSW","latitude":"-33.88673000","longitude":"151.19745000","population":7803,"timezone":"Australia/Sydney","type":"section","translations":{"es":"Chippendale","en":"Chippendale"}},{"name":"Chipping Norton","state_code":"NSW","latitude":"-33.91801000","longitude":"150.95927000","population":9412,"timezone":"Australia/Sydney","type":"section","translations":{"es":"Chipping Norton","en":"Chipping Norton"}},{"name":"Chiswick","state_code":"NSW","latitude":"-33.84996000","longitude":"151.13846000","population":2909,"timezone":"Australia/Sydney","type":"section","translations":{"es":"Chiswick","en":"Chiswick"}},{"name":"Chittaway Bay","state_code":"NSW","latitude":"-33.32769000","longitude":"151.42971000","population":1987,"timezone":"Australia/Sydney","type":"section","translations":{"es":"Bahía de Chittaway","en":"Chittaway Bay"}},{"name":"City of Sydney","state_code":"NSW","latitude":"-33.86778000","longitude":"151.20844000","population":5557233,"timezone":"Australia/Sydney","type":"adm1","translations":{"es":"Ciudad de Sídney","en":"City of Sydney"}},{"name":"Claremont Meadows","state_code":"NSW","latitude":"-33.77587000","longitude":"150.75193000","population":5177,"timezone":"Australia/Sydney","type":"section","translations":{"es":"Claremont Meadows","en":"Claremont Meadows"}},{"name":"Clarence Town","state_code":"NSW","latitude":"-32.58395000","longitude":"151.77757000","population":2265,"timezone":"Australia/Sydney","type":"city","translations":{"es":"Clarence Town","en":"Clarence Town"}},{"name":"Clarence Valley","state_code":"NSW","latitude":"-29.69444000","longitude":"152.78156000","population":null,"timezone":"Australia/Sydney","type":"city","translations":{"es":"Valle de Clarence","en":"Clarence Valley"}},{"name":"Claymore","state_code":"NSW","latitude":"-34.04649000","longitude":"150.81114000","population":2595,"timezone":"Australia/Sydney","type":"section","translations":{"es":"Casa antigua","en":"Claymore"}},{"name":"Clemton Park","state_code":"NSW","latitude":"-33.92616000","longitude":"151.10406000","population":1676,"timezone":"Australia/Sydney","type":"section","translations":{"es":"Parque Clemton","en":"Clemton Park"}},{"name":"Clontarf","state_code":"NSW","latitude":"-33.80554000","longitude":"151.25367000","population":1746,"timezone":"Australia/Sydney","type":"section","translations":{"es":"Clontarf","en":"Clontarf"}},{"name":"Clovelly","state_code":"NSW","latitude":"-33.91214000","longitude":"151.25882000","population":4887,"timezone":"Australia/Sydney","type":"section","translations":{"es":"Clovelly","en":"Clovelly"}},{"name":"Coal Point","state_code":"NSW","latitude":"-33.04225000","longitude":"151.61159000","population":1749,"timezone":"Australia/Sydney","type":"section","translations":{"es":"Punto de carbón","en":"Coal Point"}},{"name":"Cobar","state_code":"NSW","latitude":"-31.96613000","longitude":"145.36063000","population":3603,"timezone":"Australia/Sydney","type":"city","translations":{"es":"Cobar","en":"Cobar"}},{"name":"Cobbitty","state_code":"NSW","latitude":"-34.01592000","longitude":"150.67854000","population":2030,"timezone":"Australia/Sydney","type":"section","translations":{"es":"Cobbitty","en":"Cobbitty"}},{"name":"Coffs Harbour","state_code":"NSW","latitude":"-30.17294000","longitude":"153.03262000","population":27089,"timezone":"Australia/Sydney","type":"city","translations":{"es":"Coffs Harbour","en":"Coffs Harbour"}},{"name":"Coleambally","state_code":"NSW","latitude":"-34.80388000","longitude":"145.88036000","population":1152,"timezone":"Australia/Sydney","type":"city","translations":{"es":"Coleambaly","en":"Coleambally"}},{"name":"Colebee","state_code":"NSW","latitude":"-33.72769000","longitude":"150.84743000","population":1929,"timezone":"Australia/Sydney","type":"section","translations":{"es":"Colebee","en":"Colebee"}},{"name":"Coledale","state_code":"NSW","latitude":"-34.29105000","longitude":"150.94470000","population":1372,"timezone":"Australia/Sydney","type":"section","translations":{"es":"Coledale","en":"Coledale"}},{"name":"Collaroy","state_code":"NSW","latitude":"-33.73205000","longitude":"151.30118000","population":7944,"timezone":"Australia/Sydney","type":"section","translations":{"es":"Collaroy","en":"Collaroy"}},{"name":"Collaroy Plateau","state_code":"NSW","latitude":"-33.72884000","longitude":"151.29075000","population":4805,"timezone":"Australia/Sydney","type":"section","translations":{"es":"Meseta de Collaroy","en":"Collaroy Plateau"}},{"name":"Colo Vale","state_code":"NSW","latitude":"-34.40095000","longitude":"150.48573000","population":1775,"timezone":"Australia/Sydney","type":"city","translations":{"es":"Colo Vale","en":"Colo Vale"}},{"name":"Colyton","state_code":"NSW","latitude":"-33.78283000","longitude":"150.79679000","population":8770,"timezone":"Australia/Sydney","type":"section","translations":{"es":"Colyton","en":"Colyton"}},{"name":"Como","state_code":"NSW","latitude":"-33.99941000","longitude":"151.06389000","population":3890,"timezone":"Australia/Sydney","type":"section","translations":{"es":"Como","en":"Como"}},{"name":"Concord","state_code":"NSW","latitude":"-33.84722000","longitude":"151.10381000","population":14551,"timezone":"Australia/Sydney","type":"section","translations":{"es":"Concordia","en":"Concord"}},{"name":"Concord West","state_code":"NSW","latitude":"-33.84809000","longitude":"151.08609000","population":6178,"timezone":"Australia/Sydney","type":"section","translations":{"es":"Concord Oeste","en":"Concord West"}},{"name":"Condell Park","state_code":"NSW","latitude":"-33.92458000","longitude":"151.01093000","population":13066,"timezone":"Australia/Sydney","type":"section","translations":{"es":"Parque Condell","en":"Condell Park"}},{"name":"Condobolin","state_code":"NSW","latitude":"-33.08877000","longitude":"147.15139000","population":3185,"timezone":"Australia/Sydney","type":"city","translations":{"es":"Condobolina","en":"Condobolin"}},{"name":"Coniston","state_code":"NSW","latitude":"-34.45000000","longitude":"150.88333000","population":2267,"timezone":"Australia/Sydney","type":"section","translations":{"es":"Coniston","en":"Coniston"}},{"name":"Connells Point","state_code":"NSW","latitude":"-33.98827000","longitude":"151.09094000","population":2884,"timezone":"Australia/Sydney","type":"section","translations":{"es":"Punta Connells","en":"Connells Point"}},{"name":"Constitution Hill","state_code":"NSW","latitude":"-33.79259000","longitude":"150.97627000","population":4030,"timezone":"Australia/Sydney","type":"section","translations":{"es":"Colina de la Constitución","en":"Constitution Hill"}},{"name":"Coogee","state_code":"NSW","latitude":"-33.92050000","longitude":"151.25522000","population":14634,"timezone":"Australia/Sydney","type":"section","translations":{"es":"Coogee","en":"Coogee"}},{"name":"Cooks Hill","state_code":"NSW","latitude":"-32.93244000","longitude":"151.77114000","population":3774,"timezone":"Australia/Sydney","type":"section","translations":{"es":"Cooks Hill","en":"Cooks Hill"}},{"name":"Coolah","state_code":"NSW","latitude":"-31.82787000","longitude":"149.71564000","population":1262,"timezone":"Australia/Sydney","type":"city","translations":{"es":"Coolah","en":"Coolah"}},{"name":"Coolamon","state_code":"NSW","latitude":"-34.60046000","longitude":"147.13707000","population":2275,"timezone":"Australia/Sydney","type":"city","translations":{"es":"Coolamon","en":"Coolamon"}},{"name":"Cooma","state_code":"NSW","latitude":"-36.23517000","longitude":"149.12408000","population":6715,"timezone":"Australia/Sydney","type":"city","translations":{"es":"Cooma","en":"Cooma"}},{"name":"Coonabarabran","state_code":"NSW","latitude":"-31.27734000","longitude":"149.27904000","population":3477,"timezone":"Australia/Sydney","type":"city","translations":{"es":"Coonabarabran","en":"Coonabarabran"}},{"name":"Coonamble","state_code":"NSW","latitude":"-30.86714000","longitude":"148.29053000","population":2666,"timezone":"Australia/Sydney","type":"city","translations":{"es":"Coonamble","en":"Coonamble"}},{"name":"Cooranbong","state_code":"NSW","latitude":"-33.07622000","longitude":"151.45409000","population":5377,"timezone":"Australia/Sydney","type":"section","translations":{"es":"Cooranbong","en":"Cooranbong"}},{"name":"Cootamundra","state_code":"NSW","latitude":"-34.64095000","longitude":"148.02838000","population":6885,"timezone":"Australia/Sydney","type":"city","translations":{"es":"Cootamundra","en":"Cootamundra"}},{"name":"Copacabana","state_code":"NSW","latitude":"-33.48692000","longitude":"151.43587000","population":2656,"timezone":"Australia/Sydney","type":"section","translations":{"es":"Copacabana","en":"Copacabana"}},{"name":"Coraki","state_code":"NSW","latitude":"-28.99260000","longitude":"153.28374000","population":1373,"timezone":"Australia/Sydney","type":"city","translations":{"es":"Coraki","en":"Coraki"}},{"name":"Cordeaux Heights","state_code":"NSW","latitude":"-34.44043000","longitude":"150.83748000","population":4460,"timezone":"Australia/Sydney","type":"section","translations":{"es":"Alturas de Cordeaux","en":"Cordeaux Heights"}},{"name":"Corindi Beach","state_code":"NSW","latitude":"-30.01668000","longitude":"153.18555000","population":1802,"timezone":"Australia/Sydney","type":"section","translations":{"es":"Playa Corindi","en":"Corindi Beach"}},{"name":"Corlette","state_code":"NSW","latitude":"-32.72014000","longitude":"152.10846000","population":5699,"timezone":"Australia/Sydney","type":"section","translations":{"es":"Corlette","en":"Corlette"}},{"name":"Corowa","state_code":"NSW","latitude":"-35.99704000","longitude":"146.38552000","population":5595,"timezone":"Australia/Sydney","type":"city","translations":{"es":"Corowa","en":"Corowa"}},{"name":"Corrimal","state_code":"NSW","latitude":"-34.37864000","longitude":"150.90356000","population":6972,"timezone":"Australia/Sydney","type":"section","translations":{"es":"Corrimal","en":"Corrimal"}},{"name":"Coutts Crossing","state_code":"NSW","latitude":"-29.82619000","longitude":"152.89156000","population":1053,"timezone":"Australia/Sydney","type":"city","translations":{"es":"Cruce de Coutts","en":"Coutts Crossing"}},{"name":"Cowra","state_code":"NSW","latitude":"-33.81138000","longitude":"148.78346000","population":10145,"timezone":"Australia/Sydney","type":"city","translations":{"es":"Cowra","en":"Cowra"}},{"name":"Cranebrook","state_code":"NSW","latitude":"-33.70610000","longitude":"150.70940000","population":15779,"timezone":"Australia/Sydney","type":"section","translations":{"es":"Cranebrook","en":"Cranebrook"}},{"name":"Cremorne","state_code":"NSW","latitude":"-33.82679000","longitude":"151.22633000","population":11263,"timezone":"Australia/Sydney","type":"section","translations":{"es":"Cremorne","en":"Cremorne"}},{"name":"Cremorne Point","state_code":"NSW","latitude":"-33.84008000","longitude":"151.22698000","population":2270,"timezone":"Australia/Sydney","type":"section","translations":{"es":"Punta Cremorne","en":"Cremorne Point"}},{"name":"Crescent Head","state_code":"NSW","latitude":"-31.18870000","longitude":"152.97301000","population":1633,"timezone":"Australia/Sydney","type":"city","translations":{"es":"Crescent Head","en":"Crescent Head"}},{"name":"Crestwood","state_code":"NSW","latitude":"-35.34844000","longitude":"149.21758000","population":4936,"timezone":"Australia/Sydney","type":"section","translations":{"es":"Crestwood","en":"Crestwood"}},{"name":"Cringila","state_code":"NSW","latitude":"-34.47131000","longitude":"150.86755000","population":2156,"timezone":"Australia/Sydney","type":"section","translations":{"es":"Cringila","en":"Cringila"}},{"name":"Cromer","state_code":"NSW","latitude":"-33.73120000","longitude":"151.26788000","population":8030,"timezone":"Australia/Sydney","type":"section","translations":{"es":"Cromer","en":"Cromer"}},{"name":"Cronulla","state_code":"NSW","latitude":"-34.06251000","longitude":"151.14961000","population":17899,"timezone":"Australia/Sydney","type":"section","translations":{"es":"Cronulla","en":"Cronulla"}},{"name":"Crookwell","state_code":"NSW","latitude":"-34.45925000","longitude":"149.47137000","population":2686,"timezone":"Australia/Sydney","type":"city","translations":{"es":"Crookwell","en":"Crookwell"}},{"name":"Crows Nest","state_code":"NSW","latitude":"-33.82494000","longitude":"151.20398000","population":4657,"timezone":"Australia/Sydney","type":"section","translations":{"es":"Nido de cuervos","en":"Crows Nest"}},{"name":"Croydon","state_code":"NSW","latitude":"-33.88333000","longitude":"151.11667000","population":10546,"timezone":"Australia/Sydney","type":"section","translations":{"es":"Croydon","en":"Croydon"}},{"name":"Culburra Beach","state_code":"NSW","latitude":"-34.92788000","longitude":"150.75766000","population":2946,"timezone":"Australia/Sydney","type":"city","translations":{"es":"Playa Culburra","en":"Culburra Beach"}},{"name":"Culcairn","state_code":"NSW","latitude":"-35.66669000","longitude":"147.03845000","population":1483,"timezone":"Australia/Sydney","type":"city","translations":{"es":"Culcairn","en":"Culcairn"}},{"name":"Cumbalum","state_code":"NSW","latitude":"-28.82250000","longitude":"153.52840000","population":1495,"timezone":"Australia/Sydney","type":"city","translations":{"es":"Cumbalum","en":"Cumbalum"}},{"name":"Cundletown","state_code":"NSW","latitude":"-31.89410000","longitude":"152.52141000","population":2050,"timezone":"Australia/Sydney","type":"city","translations":{"es":"Cundletown","en":"Cundletown"}},{"name":"Curl Curl","state_code":"NSW","latitude":"-33.76886000","longitude":"151.28888000","population":2364,"timezone":"Australia/Sydney","type":"section","translations":{"es":"Rizo Rizo","en":"Curl Curl"}},{"name":"Currans Hill","state_code":"NSW","latitude":"-34.04311000","longitude":"150.77301000","population":5251,"timezone":"Australia/Sydney","type":"section","translations":{"es":"Colina de Currans","en":"Currans Hill"}},{"name":"Daceyville","state_code":"NSW","latitude":"-33.92879000","longitude":"151.22577000","population":1146,"timezone":"Australia/Sydney","type":"section","translations":{"es":"Daceyville","en":"Daceyville"}},{"name":"Dalmeny","state_code":"NSW","latitude":"-36.16608000","longitude":"150.12912000","population":2194,"timezone":"Australia/Sydney","type":"city","translations":{"es":"Dalmeny","en":"Dalmeny"}},{"name":"Dapto","state_code":"NSW","latitude":"-34.50386000","longitude":"150.79416000","population":10954,"timezone":"Australia/Sydney","type":"section","translations":{"es":"Dapto","en":"Dapto"}},{"name":"Darling Point","state_code":"NSW","latitude":"-33.87064000","longitude":"151.23895000","population":3977,"timezone":"Australia/Sydney","type":"section","translations":{"es":"Darling Point","en":"Darling Point"}},{"name":"Darlinghurst","state_code":"NSW","latitude":"-33.87939000","longitude":"151.21925000","population":10615,"timezone":"Australia/Sydney","type":"section","translations":{"es":"Darlinghurst","en":"Darlinghurst"}},{"name":"Darlington","state_code":"NSW","latitude":"-33.89103000","longitude":"151.19548000","population":2597,"timezone":"Australia/Sydney","type":"city","translations":{"es":"Darlington","en":"Darlington"}},{"name":"Darlington Point","state_code":"NSW","latitude":"-34.56942000","longitude":"145.99870000","population":1030,"timezone":"Australia/Sydney","type":"city","translations":{"es":"Punta Darlington","en":"Darlington Point"}},{"name":"Davidson","state_code":"NSW","latitude":"-33.74297000","longitude":"151.20080000","population":2725,"timezone":"Australia/Sydney","type":"section","translations":{"es":"Davidson","en":"Davidson"}},{"name":"Davistown","state_code":"NSW","latitude":"-33.48559000","longitude":"151.36151000","population":2602,"timezone":"Australia/Sydney","type":"section","translations":{"es":"Davistown","en":"Davistown"}},{"name":"Dean Park","state_code":"NSW","latitude":"-33.73539000","longitude":"150.85958000","population":3180,"timezone":"Australia/Sydney","type":"section","translations":{"es":"Parque Dean","en":"Dean Park"}},{"name":"Dee Why","state_code":"NSW","latitude":"-33.75110000","longitude":"151.28886000","population":23354,"timezone":"Australia/Sydney","type":"section","translations":{"es":"Dee Why","en":"Dee Why"}},{"name":"Denham Court","state_code":"NSW","latitude":"-33.98307000","longitude":"150.84606000","population":1980,"timezone":"Australia/Sydney","type":"section","translations":{"es":"Tribunal de Denham","en":"Denham Court"}},{"name":"Deniliquin","state_code":"NSW","latitude":"-35.53245000","longitude":"144.95364000","population":7432,"timezone":"Australia/Sydney","type":"city","translations":{"es":"Deniliquin","en":"Deniliquin"}},{"name":"Denistone","state_code":"NSW","latitude":"-33.79835000","longitude":"151.09051000","population":3726,"timezone":"Australia/Sydney","type":"section","translations":{"es":"Denistone","en":"Denistone"}},{"name":"Denistone East","state_code":"NSW","latitude":"-33.79600000","longitude":"151.09740000","population":2292,"timezone":"Australia/Sydney","type":"section","translations":{"es":"Denistone Este","en":"Denistone East"}},{"name":"Denman","state_code":"NSW","latitude":"-32.38788000","longitude":"150.68935000","population":1821,"timezone":"Australia/Sydney","type":"city","translations":{"es":"Denman","en":"Denman"}},{"name":"Dharruk","state_code":"NSW","latitude":"-33.74814000","longitude":"150.81561000","population":2806,"timezone":"Australia/Sydney","type":"section","translations":{"es":"Dharruk","en":"Dharruk"}},{"name":"Dolls Point","state_code":"NSW","latitude":"-33.99341000","longitude":"151.14474000","population":1633,"timezone":"Australia/Sydney","type":"section","translations":{"es":"Punto de muñecas","en":"Dolls Point"}},{"name":"Doonside","state_code":"NSW","latitude":"-33.76667000","longitude":"150.86667000","population":13614,"timezone":"Australia/Sydney","type":"section","translations":{"es":"Lado de la puerta","en":"Doonside"}},{"name":"Dora Creek","state_code":"NSW","latitude":"-33.08139000","longitude":"151.49677000","population":1739,"timezone":"Australia/Sydney","type":"section","translations":{"es":"Arroyo Dora","en":"Dora Creek"}},{"name":"Dorrigo","state_code":"NSW","latitude":"-30.34112000","longitude":"152.71394000","population":1214,"timezone":"Australia/Sydney","type":"city","translations":{"es":"Dorrigo","en":"Dorrigo"}},{"name":"Double Bay","state_code":"NSW","latitude":"-33.87782000","longitude":"151.24354000","population":4709,"timezone":"Australia/Sydney","type":"section","translations":{"es":"Doble bahía","en":"Double Bay"}},{"name":"Douglas Park","state_code":"NSW","latitude":"-34.18496000","longitude":"150.71449000","population":1386,"timezone":"Australia/Sydney","type":"city","translations":{"es":"Parque Douglas","en":"Douglas Park"}},{"name":"Dover Heights","state_code":"NSW","latitude":"-33.87083000","longitude":"151.27917000","population":4044,"timezone":"Australia/Sydney","type":"section","translations":{"es":"Alturas de Dover","en":"Dover Heights"}},{"name":"Drummoyne","state_code":"NSW","latitude":"-33.85237000","longitude":"151.15491000","population":12011,"timezone":"Australia/Sydney","type":"section","translations":{"es":"Drummoyne","en":"Drummoyne"}},{"name":"Dubbo","state_code":"NSW","latitude":"-32.24295000","longitude":"148.60484000","population":43516,"timezone":"Australia/Sydney","type":"city","translations":{"es":"Dubbo","en":"Dubbo"}},{"name":"Dudley","state_code":"NSW","latitude":"-32.99373000","longitude":"151.72197000","population":2505,"timezone":"Australia/Sydney","type":"section","translations":{"es":"Dudley","en":"Dudley"}},{"name":"Dulwich Hill","state_code":"NSW","latitude":"-33.90410000","longitude":"151.13945000","population":14046,"timezone":"Australia/Sydney","type":"section","translations":{"es":"Dulwich Hill","en":"Dulwich Hill"}},{"name":"Dundas Valley","state_code":"NSW","latitude":"-33.78826000","longitude":"151.05261000","population":5875,"timezone":"Australia/Sydney","type":"section","translations":{"es":"Valle de Dundas","en":"Dundas Valley"}},{"name":"Dunedoo","state_code":"NSW","latitude":"-32.01634000","longitude":"149.38710000","population":1097,"timezone":"Australia/Sydney","type":"city","translations":{"es":"Dunedoo","en":"Dunedoo"}},{"name":"Dungog","state_code":"NSW","latitude":"-32.34619000","longitude":"151.61122000","population":1983,"timezone":"Australia/Sydney","type":"city","translations":{"es":"Dungog","en":"Dungog"}},{"name":"Dural","state_code":"NSW","latitude":"-33.68333000","longitude":"151.01667000","population":7900,"timezone":"Australia/Sydney","type":"section","translations":{"es":"Durabilidad","en":"Dural"}},{"name":"Eagle Vale","state_code":"NSW","latitude":"-34.03747000","longitude":"150.81360000","population":5789,"timezone":"Australia/Sydney","type":"section","translations":{"es":"Valle del águila","en":"Eagle Vale"}},{"name":"Earlwood","state_code":"NSW","latitude":"-33.92090000","longitude":"151.12506000","population":18053,"timezone":"Australia/Sydney","type":"section","translations":{"es":"Earlwood","en":"Earlwood"}},{"name":"East Albury","state_code":"NSW","latitude":"-36.08144000","longitude":"146.92991000","population":6224,"timezone":"Australia/Sydney","type":"section","translations":{"es":"East Albury","en":"East Albury"}},{"name":"East Ballina","state_code":"NSW","latitude":"-28.85709000","longitude":"153.58736000","population":5882,"timezone":"Australia/Sydney","type":"city","translations":{"es":"Este de Ballina","en":"East Ballina"}},{"name":"East Branxton","state_code":"NSW","latitude":"-32.65372000","longitude":"151.36559000","population":1881,"timezone":"Australia/Sydney","type":"section","translations":{"es":"East Branxton","en":"East Branxton"}},{"name":"East Corrimal","state_code":"NSW","latitude":"-34.37606000","longitude":"150.91078000","population":3432,"timezone":"Australia/Sydney","type":"section","translations":{"es":"Corrimal Oriental","en":"East Corrimal"}},{"name":"East Gosford","state_code":"NSW","latitude":"-33.43874000","longitude":"151.35338000","population":4391,"timezone":"Australia/Sydney","type":"section","translations":{"es":"East Gosford","en":"East Gosford"}},{"name":"East Hills","state_code":"NSW","latitude":"-33.96099000","longitude":"150.98822000","population":3370,"timezone":"Australia/Sydney","type":"section","translations":{"es":"Colinas del este","en":"East Hills"}},{"name":"East Jindabyne","state_code":"NSW","latitude":"-36.39579000","longitude":"148.65137000","population":1067,"timezone":"Australia/Sydney","type":"section","translations":{"es":"Jindabyne Oriental","en":"East Jindabyne"}},{"name":"East Kempsey","state_code":"NSW","latitude":"-31.08242000","longitude":"152.85253000","population":1336,"timezone":"Australia/Sydney","type":"section","translations":{"es":"East Kempsey","en":"East Kempsey"}},{"name":"East Killara","state_code":"NSW","latitude":"-33.75535000","longitude":"151.18154000","population":2895,"timezone":"Australia/Sydney","type":"section","translations":{"es":"Killara Oriental","en":"East Killara"}},{"name":"East Kurrajong","state_code":"NSW","latitude":"-33.50550000","longitude":"150.79427000","population":2203,"timezone":"Australia/Sydney","type":"section","translations":{"es":"Kurrajong Oriental","en":"East Kurrajong"}},{"name":"East Lindfield","state_code":"NSW","latitude":"-33.76664000","longitude":"151.18685000","population":3710,"timezone":"Australia/Sydney","type":"section","translations":{"es":"East Lindfield","en":"East Lindfield"}},{"name":"East Lismore","state_code":"NSW","latitude":"-28.82591000","longitude":"153.28880000","population":4980,"timezone":"Australia/Sydney","type":"city","translations":{"es":"Lismore Oriental","en":"East Lismore"}},{"name":"East Maitland","state_code":"NSW","latitude":"-32.75000000","longitude":"151.58333000","population":11860,"timezone":"Australia/Sydney","type":"section","translations":{"es":"Maitland del Este","en":"East Maitland"}},{"name":"East Ryde","state_code":"NSW","latitude":"-33.81031000","longitude":"151.13153000","population":2522,"timezone":"Australia/Sydney","type":"section","translations":{"es":"East Ryde","en":"East Ryde"}},{"name":"East Tamworth","state_code":"NSW","latitude":"-31.08548000","longitude":"150.93721000","population":5417,"timezone":"Australia/Sydney","type":"section","translations":{"es":"Tamworth del este","en":"East Tamworth"}},{"name":"Eastlakes","state_code":"NSW","latitude":"-33.93196000","longitude":"151.21214000","population":6347,"timezone":"Australia/Sydney","type":"section","translations":{"es":"Eastlakes","en":"Eastlakes"}},{"name":"Eastwood","state_code":"NSW","latitude":"-33.79176000","longitude":"151.08057000","population":18695,"timezone":"Australia/Sydney","type":"section","translations":{"es":"Eastwood","en":"Eastwood"}},{"name":"Eden","state_code":"NSW","latitude":"-37.06675000","longitude":"149.90029000","population":3350,"timezone":"Australia/Sydney","type":"city","translations":{"es":"Edén","en":"Eden"}},