[{"name":"Bomarsund","state_code":"02","latitude":"60.21234000","longitude":"20.24023000","population":1016,"timezone":"Europe/Mariehamn","type":"city","translations":{"es":"Bomarsund","en":"Bomarsund"}},{"name":"Finström","state_code":"02","latitude":"60.26667000","longitude":"19.93333000","population":2412,"timezone":"Europe/Mariehamn","type":"city","translations":{"es":"Finström","en":"Finström"}},{"name":"Godby","state_code":"02","latitude":"60.22995000","longitude":"19.98810000","population":1369,"timezone":"Europe/Mariehamn","type":"city","translations":{"es":"Godby","en":"Godby"}},{"name":"Hammarland","state_code":"02","latitude":"60.21667000","longitude":"19.75000000","population":1395,"timezone":"Europe/Mariehamn","type":"city","translations":{"es":"Hammarland","en":"Hammarland"}},{"name":"Jomala","state_code":"02","latitude":"60.14902000","longitude":"19.95100000","population":3662,"timezone":"Europe/Mariehamn","type":"city","translations":{"es":"Jomala","en":"Jomala"}},{"name":"Lemland","state_code":"02","latitude":"60.07178000","longitude":"20.08472000","population":1829,"timezone":"Europe/Mariehamn","type":"city","translations":{"es":"Lemland","en":"Lemland"}},{"name":"Saltvik","state_code":"02","latitude":"60.28333000","longitude":"20.05000000","population":1691,"timezone":"Europe/Mariehamn","type":"city","translations":{"es":"Saltvik","en":"Saltvik"}},{"name":"Sund","state_code":"02","latitude":"60.25000000","longitude":"20.11667000","population":1016,"timezone":"Europe/Mariehamn","type":"city","translations":{"es":"Sund","en":"Sund"}},{"name":"Tjudö","state_code":"02","latitude":"60.33333000","longitude":"19.95000000","population":2630,"timezone":"Europe/Mariehamn","type":"city","translations":{"es":"Tjudö","en":"Tjudö"}},{"name":"Yomala","state_code":"02","latitude":"60.16689000","longitude":"19.93341000","population":5789,"timezone":"Europe/Mariehamn","type":"city","translations":{"es":"Yomala","en":"Yomala"}},{"name":"Ytterby","state_code":"02","latitude":"60.16667000","longitude":"20.01667000","population":6384,"timezone":"Europe/Mariehamn","type":"city","translations":{"es":"Ytterby","en":"Ytterby"}},{"name":"Mariehamn","state_code":"01","latitude":"60.09726000","longitude":"19.93481000","population":10682,"timezone":"Europe/Mariehamn","type":"capital","translations":{"es":"Mariehamn","en":"Mariehamn"}}]