[{"name":"Brussels","state_code":"BRU","latitude":"50.85045000","longitude":"4.34878000","population":1019022,"timezone":"Europe/Brussels","type":"capital","translations":{"es":"Bruselas","en":"Brussels"}},{"name":"Aalst","state_code":"VLG","latitude":"50.93604000","longitude":"4.03550000","population":77534,"timezone":"Europe/Brussels","type":"city","translations":{"es":"Aalst","en":"Aalst"}},{"name":"Aalter","state_code":"VLG","latitude":"51.09017000","longitude":"3.44693000","population":18802,"timezone":"Europe/Brussels","type":"city","translations":{"es":"Aalter","en":"Aalter"}},{"name":"Aarschot","state_code":"VLG","latitude":"50.98715000","longitude":"4.83695000","population":29965,"timezone":"Europe/Brussels","type":"city","translations":{"es":"Aarschot","en":"Aarschot"}},{"name":"Aartselaar","state_code":"VLG","latitude":"51.13412000","longitude":"4.38678000","population":14610,"timezone":"Europe/Brussels","type":"city","translations":{"es":"Aartselaar","en":"Aartselaar"}},{"name":"Alken","state_code":"VLG","latitude":"50.87553000","longitude":"5.30558000","population":11757,"timezone":"Europe/Brussels","type":"city","translations":{"es":"Alquen","en":"Alken"}},{"name":"Alveringem","state_code":"VLG","latitude":"51.01238000","longitude":"2.71117000","population":5089,"timezone":"Europe/Brussels","type":"city","translations":{"es":"Alveringem","en":"Alveringem"}},{"name":"Antwerpen","state_code":"VLG","latitude":"51.21989000","longitude":"4.40346000","population":null,"timezone":"Europe/Brussels","type":"city","translations":{"es":"Amberes","en":"Antwerpen"}},{"name":"Anzegem","state_code":"VLG","latitude":"50.83700000","longitude":"3.47786000","population":14609,"timezone":"Europe/Brussels","type":"city","translations":{"es":"Anzegem","en":"Anzegem"}},{"name":"Ardooie","state_code":"VLG","latitude":"50.97570000","longitude":"3.19736000","population":8988,"timezone":"Europe/Brussels","type":"city","translations":{"es":"Ardooie","en":"Ardooie"}},{"name":"Arendonk","state_code":"VLG","latitude":"51.32267000","longitude":"5.08289000","population":13290,"timezone":"Europe/Brussels","type":"city","translations":{"es":"Arendonk","en":"Arendonk"}},{"name":"As","state_code":"VLG","latitude":"51.00755000","longitude":"5.58453000","population":8190,"timezone":"Europe/Brussels","type":"city","translations":{"es":"Como","en":"As"}},{"name":"Asse","state_code":"VLG","latitude":"50.91011000","longitude":"4.19836000","population":32958,"timezone":"Europe/Brussels","type":"city","translations":{"es":"Culo","en":"Asse"}},{"name":"Assenede","state_code":"VLG","latitude":"51.22598000","longitude":"3.75085000","population":14200,"timezone":"Europe/Brussels","type":"city","translations":{"es":"Assenede","en":"Assenede"}},{"name":"Avelgem","state_code":"VLG","latitude":"50.77618000","longitude":"3.44502000","population":10065,"timezone":"Europe/Brussels","type":"city","translations":{"es":"Avelgem","en":"Avelgem"}},{"name":"Baarle-Hertog","state_code":"VLG","latitude":"51.40504000","longitude":"4.89226000","population":2865,"timezone":"Europe/Brussels","type":"city","translations":{"es":"Baarle-Hertog","en":"Baarle-Hertog"}},{"name":"Balen","state_code":"VLG","latitude":"51.16837000","longitude":"5.17027000","population":22813,"timezone":"Europe/Brussels","type":"city","translations":{"es":"Balen","en":"Balen"}},{"name":"Beernem","state_code":"VLG","latitude":"51.13981000","longitude":"3.33896000","population":15687,"timezone":"Europe/Brussels","type":"city","translations":{"es":"Beernem","en":"Beernem"}},{"name":"Beerse","state_code":"VLG","latitude":"51.31927000","longitude":"4.85304000","population":18128,"timezone":"Europe/Brussels","type":"city","translations":{"es":"Beerse","en":"Beerse"}},{"name":"Beersel","state_code":"VLG","latitude":"50.76589000","longitude":"4.30020000","population":25069,"timezone":"Europe/Brussels","type":"city","translations":{"es":"Beersel","en":"Beersel"}},{"name":"Begijnendijk","state_code":"VLG","latitude":"51.01942000","longitude":"4.78377000","population":10053,"timezone":"Europe/Brussels","type":"city","translations":{"es":"Principio","en":"Begijnendijk"}},{"name":"Bekkevoort","state_code":"VLG","latitude":"50.94074000","longitude":"4.96900000","population":6274,"timezone":"Europe/Brussels","type":"city","translations":{"es":"Bekkevoort","en":"Bekkevoort"}},{"name":"Beringen","state_code":"VLG","latitude":"51.04954000","longitude":"5.22606000","population":46065,"timezone":"Europe/Brussels","type":"city","translations":{"es":"Beringen","en":"Beringen"}},{"name":"Berlaar","state_code":"VLG","latitude":"51.11760000","longitude":"4.65835000","population":11656,"timezone":"Europe/Brussels","type":"city","translations":{"es":"Berlaar","en":"Berlaar"}},{"name":"Berlare","state_code":"VLG","latitude":"51.03333000","longitude":"4.00000000","population":14849,"timezone":"Europe/Brussels","type":"city","translations":{"es":"Berlare","en":"Berlare"}},{"name":"Bertem","state_code":"VLG","latitude":"50.86403000","longitude":"4.62918000","population":9958,"timezone":"Europe/Brussels","type":"city","translations":{"es":"Bertem","en":"Bertem"}},{"name":"Bever","state_code":"VLG","latitude":"50.91667000","longitude":"4.31667000","population":2204,"timezone":"Europe/Brussels","type":"city","translations":{"es":"Beber","en":"Bever"}},{"name":"Beveren","state_code":"VLG","latitude":"51.21187000","longitude":"4.25633000","population":45179,"timezone":"Europe/Brussels","type":"city","translations":{"es":"Beveren","en":"Beveren"}},{"name":"Bierbeek","state_code":"VLG","latitude":"50.82876000","longitude":"4.75949000","population":10025,"timezone":"Europe/Brussels","type":"city","translations":{"es":"Bierbeek","en":"Bierbeek"}},{"name":"Bilzen","state_code":"VLG","latitude":"50.87325000","longitude":"5.51840000","population":29622,"timezone":"Europe/Brussels","type":"city","translations":{"es":"Bilzen","en":"Bilzen"}},{"name":"Blankenberge","state_code":"VLG","latitude":"51.31306000","longitude":"3.13227000","population":20349,"timezone":"Europe/Brussels","type":"city","translations":{"es":"Blankenberge","en":"Blankenberge"}},{"name":"Bocholt","state_code":"VLG","latitude":"51.17337000","longitude":"5.57994000","population":13085,"timezone":"Europe/Brussels","type":"city","translations":{"es":"Bocholt","en":"Bocholt"}},{"name":"Boechout","state_code":"VLG","latitude":"51.15959000","longitude":"4.49195000","population":13372,"timezone":"Europe/Brussels","type":"city","translations":{"es":"Boechout","en":"Boechout"}},{"name":"Bonheiden","state_code":"VLG","latitude":"51.02261000","longitude":"4.54714000","population":1840,"timezone":"Europe/Brussels","type":"city","translations":{"es":"Bonheiden","en":"Bonheiden"}},{"name":"Boom","state_code":"VLG","latitude":"51.09242000","longitude":"4.37170000","population":18555,"timezone":"Europe/Brussels","type":"city","translations":{"es":"Auge","en":"Boom"}},{"name":"Boortmeerbeek","state_code":"VLG","latitude":"50.97929000","longitude":"4.57443000","population":12379,"timezone":"Europe/Brussels","type":"city","translations":{"es":"Boortmeerbeek","en":"Boortmeerbeek"}},{"name":"Borgloon","state_code":"VLG","latitude":"50.80505000","longitude":"5.34366000","population":9955,"timezone":"Europe/Brussels","type":"city","translations":{"es":"Borgloon","en":"Borgloon"}},{"name":"Bornem","state_code":"VLG","latitude":"51.09716000","longitude":"4.24364000","population":19997,"timezone":"Europe/Brussels","type":"city","translations":{"es":"Bornem","en":"Bornem"}},{"name":"Borsbeek","state_code":"VLG","latitude":"51.19661000","longitude":"4.48543000","population":10334,"timezone":"Europe/Brussels","type":"city","translations":{"es":"Borsbeek","en":"Borsbeek"}},{"name":"Boutersem","state_code":"VLG","latitude":"50.83511000","longitude":"4.83450000","population":8167,"timezone":"Europe/Brussels","type":"city","translations":{"es":"Boutersem","en":"Boutersem"}},{"name":"Brasschaat","state_code":"VLG","latitude":"51.29120000","longitude":"4.49182000","population":38223,"timezone":"Europe/Brussels","type":"city","translations":{"es":"Brasschaat","en":"Brasschaat"}},{"name":"Brecht","state_code":"VLG","latitude":"51.35024000","longitude":"4.63829000","population":14007,"timezone":"Europe/Brussels","type":"adm4","translations":{"es":"Brecht","en":"Brecht"}},{"name":"Bredene","state_code":"VLG","latitude":"51.23489000","longitude":"2.97559000","population":17828,"timezone":"Europe/Brussels","type":"city","translations":{"es":"Bredene","en":"Bredene"}},{"name":"Bree","state_code":"VLG","latitude":"51.14152000","longitude":"5.59690000","population":16324,"timezone":"Europe/Brussels","type":"city","translations":{"es":"Bree","en":"Bree"}},{"name":"Brugge","state_code":"VLG","latitude":"51.20892000","longitude":"3.22424000","population":118509,"timezone":"Europe/Brussels","type":"city","translations":{"es":"Brujas","en":"Brugge"}},{"name":"Buggenhout","state_code":"VLG","latitude":"51.01590000","longitude":"4.20173000","population":14475,"timezone":"Europe/Brussels","type":"city","translations":{"es":"Buggenhout","en":"Buggenhout"}},{"name":"Damme","state_code":"VLG","latitude":"51.25147000","longitude":"3.28144000","population":11008,"timezone":"Europe/Brussels","type":"city","translations":{"es":"Damme","en":"Damme"}},{"name":"De Haan","state_code":"VLG","latitude":"51.27261000","longitude":"3.03446000","population":12635,"timezone":"Europe/Brussels","type":"city","translations":{"es":"De Haan","en":"De Haan"}},{"name":"De Panne","state_code":"VLG","latitude":"51.09793000","longitude":"2.59368000","population":11129,"timezone":"Europe/Brussels","type":"city","translations":{"es":"De Panne","en":"De Panne"}},{"name":"De Pinte","state_code":"VLG","latitude":"50.99339000","longitude":"3.64747000","population":10020,"timezone":"Europe/Brussels","type":"city","translations":{"es":"De Pinte","en":"De Pinte"}},{"name":"Deerlijk","state_code":"VLG","latitude":"50.85337000","longitude":"3.35416000","population":11796,"timezone":"Europe/Brussels","type":"city","translations":{"es":"Deerlijk","en":"Deerlijk"}},{"name":"Deinze","state_code":"VLG","latitude":"50.98175000","longitude":"3.53096000","population":29815,"timezone":"Europe/Brussels","type":"city","translations":{"es":"Deinze","en":"Deinze"}},{"name":"Denderleeuw","state_code":"VLG","latitude":"50.88506000","longitude":"4.07601000","population":20086,"timezone":"Europe/Brussels","type":"city","translations":{"es":"Denderleeuw","en":"Denderleeuw"}},{"name":"Dendermonde","state_code":"VLG","latitude":"51.02869000","longitude":"4.10106000","population":45673,"timezone":"Europe/Brussels","type":"adm3","translations":{"es":"Dendermonde","en":"Dendermonde"}},{"name":"Dentergem","state_code":"VLG","latitude":"50.96429000","longitude":"3.41617000","population":2600,"timezone":"Europe/Brussels","type":"adm4","translations":{"es":"Dentergem","en":"Dentergem"}},{"name":"Dessel","state_code":"VLG","latitude":"51.23855000","longitude":"5.11448000","population":2553,"timezone":"Europe/Brussels","type":"adm4","translations":{"es":"Dessel","en":"Dessel"}},{"name":"Destelbergen","state_code":"VLG","latitude":"51.05952000","longitude":"3.79899000","population":18026,"timezone":"Europe/Brussels","type":"city","translations":{"es":"Destelbergen","en":"Destelbergen"}},{"name":"Deurne","state_code":"VLG","latitude":"51.22134000","longitude":"4.46595000","population":85283,"timezone":"Europe/Brussels","type":"city","translations":{"es":"Deurne","en":"Deurne"}},{"name":"Diegem","state_code":"VLG","latitude":"50.89727000","longitude":"4.43354000","population":5001,"timezone":"Europe/Brussels","type":"city","translations":{"es":"Diegem","en":"Diegem"}},{"name":"Diepenbeek","state_code":"VLG","latitude":"50.90769000","longitude":"5.41875000","population":19137,"timezone":"Europe/Brussels","type":"city","translations":{"es":"Diepenbeek","en":"Diepenbeek"}},{"name":"Diest","state_code":"VLG","latitude":"50.98923000","longitude":"5.05062000","population":23824,"timezone":"Europe/Brussels","type":"city","translations":{"es":"Diest","en":"Diest"}},{"name":"Diksmuide","state_code":"VLG","latitude":"51.03248000","longitude":"2.86384000","population":16739,"timezone":"Europe/Brussels","type":"adm3","translations":{"es":"Diksmuide","en":"Diksmuide"}},{"name":"Dilbeek","state_code":"VLG","latitude":"50.84799000","longitude":"4.25972000","population":42434,"timezone":"Europe/Brussels","type":"city","translations":{"es":"Dilbeek","en":"Dilbeek"}},{"name":"Drogenbos","state_code":"VLG","latitude":"50.78733000","longitude":"4.31471000","population":5599,"timezone":"Europe/Brussels","type":"city","translations":{"es":"Drogenbos","en":"Drogenbos"}},{"name":"Duffel","state_code":"VLG","latitude":"51.09554000","longitude":"4.50903000","population":17664,"timezone":"Europe/Brussels","type":"city","translations":{"es":"Muletón","en":"Duffel"}},{"name":"Edegem","state_code":"VLG","latitude":"51.15662000","longitude":"4.44504000","population":22261,"timezone":"Europe/Brussels","type":"city","translations":{"es":"Edegem","en":"Edegem"}},{"name":"Eeklo","state_code":"VLG","latitude":"51.18703000","longitude":"3.55654000","population":20890,"timezone":"Europe/Brussels","type":"adm3","translations":{"es":"Eeklo","en":"Eeklo"}},{"name":"Essen","state_code":"VLG","latitude":"51.46791000","longitude":"4.46901000","population":10000,"timezone":"Europe/Brussels","type":"adm4","translations":{"es":"Essen","en":"Essen"}},{"name":"Evergem","state_code":"VLG","latitude":"51.11306000","longitude":"3.70976000","population":35239,"timezone":"Europe/Brussels","type":"city","translations":{"es":"Gema eterna","en":"Evergem"}},{"name":"Galmaarden","state_code":"VLG","latitude":"50.75389000","longitude":"3.97121000","population":7939,"timezone":"Europe/Brussels","type":"city","translations":{"es":"Galmaarden","en":"Galmaarden"}},{"name":"Gavere","state_code":"VLG","latitude":"50.92917000","longitude":"3.66184000","population":12769,"timezone":"Europe/Brussels","type":"city","translations":{"es":"Gavere","en":"Gavere"}},{"name":"Geel","state_code":"VLG","latitude":"51.16557000","longitude":"4.98917000","population":41828,"timezone":"Europe/Brussels","type":"city","translations":{"es":"Geel","en":"Geel"}},{"name":"Geetbets","state_code":"VLG","latitude":"50.89431000","longitude":"5.11199000","population":6035,"timezone":"Europe/Brussels","type":"city","translations":{"es":"Apuestas","en":"Geetbets"}},{"name":"Genk","state_code":"VLG","latitude":"50.96500000","longitude":"5.50082000","population":66110,"timezone":"Europe/Brussels","type":"city","translations":{"es":"Genk","en":"Genk"}},{"name":"Gent","state_code":"VLG","latitude":"51.05000000","longitude":"3.71667000","population":265086,"timezone":"Europe/Brussels","type":"city","translations":{"es":"Caballero","en":"Gent"}},{"name":"Geraardsbergen","state_code":"VLG","latitude":"50.77343000","longitude":"3.88223000","population":33403,"timezone":"Europe/Brussels","type":"city","translations":{"es":"Geraardsbergen","en":"Geraardsbergen"}},{"name":"Gingelom","state_code":"VLG","latitude":"50.74792000","longitude":"5.13422000","population":8391,"timezone":"Europe/Brussels","type":"city","translations":{"es":"Gingelom","en":"Gingelom"}},{"name":"Gistel","state_code":"VLG","latitude":"51.15612000","longitude":"2.96387000","population":12106,"timezone":"Europe/Brussels","type":"city","translations":{"es":"Gistel","en":"Gistel"}},{"name":"Glabbeek","state_code":"VLG","latitude":"50.87267000","longitude":"4.95615000","population":5298,"timezone":"Europe/Brussels","type":"city","translations":{"es":"Glabbeek","en":"Glabbeek"}},{"name":"Gooik","state_code":"VLG","latitude":"50.79443000","longitude":"4.11378000","population":8957,"timezone":"Europe/Brussels","type":"city","translations":{"es":"Gooik","en":"Gooik"}},{"name":"Grimbergen","state_code":"VLG","latitude":"50.93409000","longitude":"4.37213000","population":37355,"timezone":"Europe/Brussels","type":"adm4","translations":{"es":"Grimbergen","en":"Grimbergen"}},{"name":"Grobbendonk","state_code":"VLG","latitude":"51.19043000","longitude":"4.73562000","population":11172,"timezone":"Europe/Brussels","type":"city","translations":{"es":"Grobbendonk","en":"Grobbendonk"}},{"name":"Haacht","state_code":"VLG","latitude":"50.97737000","longitude":"4.63777000","population":1763,"timezone":"Europe/Brussels","type":"city","translations":{"es":"Haacht","en":"Haacht"}},{"name":"Haaltert","state_code":"VLG","latitude":"50.90634000","longitude":"4.00093000","population":18443,"timezone":"Europe/Brussels","type":"city","translations":{"es":"Haaltert","en":"Haaltert"}},{"name":"Halen","state_code":"VLG","latitude":"50.94837000","longitude":"5.11096000","population":8548,"timezone":"Europe/Brussels","type":"city","translations":{"es":"Halen","en":"Halen"}},{"name":"Halle","state_code":"VLG","latitude":"50.73385000","longitude":"4.23454000","population":39096,"timezone":"Europe/Brussels","type":"city","translations":{"es":"Halle","en":"Halle"}},{"name":"Hamme","state_code":"VLG","latitude":"51.09822000","longitude":"4.13705000","population":24829,"timezone":"Europe/Brussels","type":"city","translations":{"es":"Hamme","en":"Hamme"}},{"name":"Harelbeke","state_code":"VLG","latitude":"50.85343000","longitude":"3.30935000","population":27886,"timezone":"Europe/Brussels","type":"city","translations":{"es":"Harelbeke","en":"Harelbeke"}},{"name":"Hasselt","state_code":"VLG","latitude":"50.93106000","longitude":"5.33781000","population":77651,"timezone":"Europe/Brussels","type":"city","translations":{"es":"Hasselt","en":"Hasselt"}},{"name":"Heers","state_code":"VLG","latitude":"50.75383000","longitude":"5.30210000","population":7290,"timezone":"Europe/Brussels","type":"city","translations":{"es":"Heers","en":"Heers"}},{"name":"Heist-op-den-Berg","state_code":"VLG","latitude":"51.07537000","longitude":"4.72827000","population":42950,"timezone":"Europe/Brussels","type":"adm4","translations":{"es":"Robo en la montaña","en":"Heist-op-den-Berg"}},{"name":"Helchteren","state_code":"VLG","latitude":"51.05591000","longitude":"5.38244000","population":30050,"timezone":"Europe/Brussels","type":"city","translations":{"es":"Ayudar","en":"Helchteren"}},{"name":"Hemiksem","state_code":"VLG","latitude":"51.14484000","longitude":"4.33874000","population":11634,"timezone":"Europe/Brussels","type":"city","translations":{"es":"Hemiksem","en":"Hemiksem"}},{"name":"Herent","state_code":"VLG","latitude":"50.90861000","longitude":"4.67056000","population":21632,"timezone":"Europe/Brussels","type":"city","translations":{"es":"Herent","en":"Herent"}},{"name":"Herentals","state_code":"VLG","latitude":"51.17655000","longitude":"4.83248000","population":28272,"timezone":"Europe/Brussels","type":"city","translations":{"es":"Herentals","en":"Herentals"}},{"name":"Herenthout","state_code":"VLG","latitude":"51.14010000","longitude":"4.75572000","population":3942,"timezone":"Europe/Brussels","type":"city","translations":{"es":"Herenthout","en":"Herenthout"}},{"name":"Herk-de-Stad","state_code":"VLG","latitude":"50.94013000","longitude":"5.16636000","population":12817,"timezone":"Europe/Brussels","type":"city","translations":{"es":"Herk-de-Stad","en":"Herk-de-Stad"}},{"name":"Herne","state_code":"VLG","latitude":"50.72423000","longitude":"4.03481000","population":6459,"timezone":"Europe/Brussels","type":"city","translations":{"es":"Herne","en":"Herne"}},{"name":"Herselt","state_code":"VLG","latitude":"51.05159000","longitude":"4.88231000","population":14521,"timezone":"Europe/Brussels","type":"city","translations":{"es":"Ella misma","en":"Herselt"}},{"name":"Herzele","state_code":"VLG","latitude":"50.88681000","longitude":"3.89014000","population":17723,"timezone":"Europe/Brussels","type":"city","translations":{"es":"Herzele","en":"Herzele"}},{"name":"Heusden","state_code":"VLG","latitude":"51.03664000","longitude":"5.28013000","population":31017,"timezone":"Europe/Brussels","type":"city","translations":{"es":"Heusden","en":"Heusden"}},{"name":"Hoboken","state_code":"VLG","latitude":"51.17611000","longitude":"4.34844000","population":41853,"timezone":"Europe/Brussels","type":"city","translations":{"es":"hoboken","en":"Hoboken"}},{"name":"Hoegaarden","state_code":"VLG","latitude":"50.77560000","longitude":"4.88952000","population":3226,"timezone":"Europe/Brussels","type":"city","translations":{"es":"Hoegaarden","en":"Hoegaarden"}},{"name":"Hoeilaart","state_code":"VLG","latitude":"50.76730000","longitude":"4.46835000","population":11172,"timezone":"Europe/Brussels","type":"city","translations":{"es":"Hoeilaart","en":"Hoeilaart"}},{"name":"Hoeselt","state_code":"VLG","latitude":"50.84714000","longitude":"5.48767000","population":9265,"timezone":"Europe/Brussels","type":"city","translations":{"es":"Hoeselt","en":"Hoeselt"}},{"name":"Holsbeek","state_code":"VLG","latitude":"50.92097000","longitude":"4.75747000","population":9905,"timezone":"Europe/Brussels","type":"city","translations":{"es":"Holsbeek","en":"Holsbeek"}},{"name":"Hooglede","state_code":"VLG","latitude":"50.98333000","longitude":"3.08333000","population":9950,"timezone":"Europe/Brussels","type":"city","translations":{"es":"Hooglede","en":"Hooglede"}},{"name":"Hoogstraten","state_code":"VLG","latitude":"51.40029000","longitude":"4.76034000","population":21424,"timezone":"Europe/Brussels","type":"city","translations":{"es":"Hoogstraten","en":"Hoogstraten"}},{"name":"Houthalen","state_code":"VLG","latitude":"51.03427000","longitude":"5.37429000","population":30050,"timezone":"Europe/Brussels","type":"city","translations":{"es":"Houthalen","en":"Houthalen"}},{"name":"Houthulst","state_code":"VLG","latitude":"50.97824000","longitude":"2.95050000","population":10032,"timezone":"Europe/Brussels","type":"city","translations":{"es":"Houthulst","en":"Houthulst"}},{"name":"Hove","state_code":"VLG","latitude":"51.15446000","longitude":"4.47070000","population":8277,"timezone":"Europe/Brussels","type":"city","translations":{"es":"Hove","en":"Hove"}},{"name":"Huldenberg","state_code":"VLG","latitude":"50.78939000","longitude":"4.58310000","population":9892,"timezone":"Europe/Brussels","type":"city","translations":{"es":"Huldenberg","en":"Huldenberg"}},{"name":"Hulshout","state_code":"VLG","latitude":"51.07451000","longitude":"4.79081000","population":3447,"timezone":"Europe/Brussels","type":"city","translations":{"es":"Hulshout","en":"Hulshout"}},{"name":"Ichtegem","state_code":"VLG","latitude":"51.09572000","longitude":"3.01549000","population":13939,"timezone":"Europe/Brussels","type":"city","translations":{"es":"Ichtegem","en":"Ichtegem"}},{"name":"Ieper","state_code":"VLG","latitude":"50.85114000","longitude":"2.88569000","population":35089,"timezone":"Europe/Brussels","type":"adm3","translations":{"es":"Yipper","en":"Ieper"}},{"name":"Ingelmunster","state_code":"VLG","latitude":"50.92081000","longitude":"3.25571000","population":10928,"timezone":"Europe/Brussels","type":"city","translations":{"es":"Ingelmünster","en":"Ingelmunster"}},{"name":"Izegem","state_code":"VLG","latitude":"50.91396000","longitude":"3.21378000","population":28845,"timezone":"Europe/Brussels","type":"city","translations":{"es":"Izegem","en":"Izegem"}},{"name":"Jabbeke","state_code":"VLG","latitude":"51.18185000","longitude":"3.08935000","population":13880,"timezone":"Europe/Brussels","type":"city","translations":{"es":"Jabbeke","en":"Jabbeke"}},{"name":"Kalmthout","state_code":"VLG","latitude":"51.38442000","longitude":"4.47556000","population":18872,"timezone":"Europe/Brussels","type":"city","translations":{"es":"Kalmthout","en":"Kalmthout"}},{"name":"Kampenhout","state_code":"VLG","latitude":"50.94210000","longitude":"4.55103000","population":1538,"timezone":"Europe/Brussels","type":"city","translations":{"es":"Kampenhout","en":"Kampenhout"}},{"name":"Kapelle-op-den-Bos","state_code":"VLG","latitude":"51.00970000","longitude":"4.36303000","population":9396,"timezone":"Europe/Brussels","type":"city","translations":{"es":"Kapelle-op-den-Bos","en":"Kapelle-op-den-Bos"}},{"name":"Kapellen","state_code":"VLG","latitude":"51.31377000","longitude":"4.43539000","population":26981,"timezone":"Europe/Brussels","type":"city","translations":{"es":"Capillas","en":"Kapellen"}},{"name":"Kaprijke","state_code":"VLG","latitude":"51.21720000","longitude":"3.61519000","population":6429,"timezone":"Europe/Brussels","type":"city","translations":{"es":"Capricho","en":"Kaprijke"}},{"name":"Kasterlee","state_code":"VLG","latitude":"51.24118000","longitude":"4.96651000","population":18882,"timezone":"Europe/Brussels","type":"city","translations":{"es":"Kasterlee","en":"Kasterlee"}},{"name":"Keerbergen","state_code":"VLG","latitude":"51.00295000","longitude":"4.63434000","population":2440,"timezone":"Europe/Brussels","type":"city","translations":{"es":"Keerbergen","en":"Keerbergen"}},{"name":"Kinrooi","state_code":"VLG","latitude":"51.14543000","longitude":"5.74207000","population":12233,"timezone":"Europe/Brussels","type":"city","translations":{"es":"Kinrooi","en":"Kinrooi"}},{"name":"Knesselare","state_code":"VLG","latitude":"51.13932000","longitude":"3.41282000","population":7889,"timezone":"Europe/Brussels","type":"city","translations":{"es":"Knesselare","en":"Knesselare"}},{"name":"Knokke-Heist","state_code":"VLG","latitude":"51.35000000","longitude":"3.26667000","population":33097,"timezone":"Europe/Brussels","type":"city","translations":{"es":"Knokke-Heist","en":"Knokke-Heist"}},{"name":"Koekelare","state_code":"VLG","latitude":"51.09047000","longitude":"2.97830000","population":8784,"timezone":"Europe/Brussels","type":"city","translations":{"es":"Koekelare","en":"Koekelare"}},{"name":"Koksijde","state_code":"VLG","latitude":"51.11642000","longitude":"2.63772000","population":21957,"timezone":"Europe/Brussels","type":"city","translations":{"es":"Koksijde","en":"Koksijde"}},{"name":"Kontich","state_code":"VLG","latitude":"51.13213000","longitude":"4.44706000","population":21203,"timezone":"Europe/Brussels","type":"city","translations":{"es":"Kontich","en":"Kontich"}},{"name":"Kortemark","state_code":"VLG","latitude":"51.02951000","longitude":"3.04112000","population":12584,"timezone":"Europe/Brussels","type":"city","translations":{"es":"Kortemark","en":"Kortemark"}},{"name":"Kortenaken","state_code":"VLG","latitude":"50.90862000","longitude":"5.05968000","population":7875,"timezone":"Europe/Brussels","type":"city","translations":{"es":"Kortenaken","en":"Kortenaken"}},{"name":"Kortenberg","state_code":"VLG","latitude":"50.88982000","longitude":"4.54353000","population":20214,"timezone":"Europe/Brussels","type":"city","translations":{"es":"Kortenberg","en":"Kortenberg"}},{"name":"Kortessem","state_code":"VLG","latitude":"50.85890000","longitude":"5.38974000","population":8042,"timezone":"Europe/Brussels","type":"city","translations":{"es":"Kortessem","en":"Kortessem"}},{"name":"Kortrijk","state_code":"VLG","latitude":"50.82803000","longitude":"3.26487000","population":77741,"timezone":"Europe/Brussels","type":"city","translations":{"es":"Cortrique","en":"Kortrijk"}},{"name":"Kraainem","state_code":"VLG","latitude":"50.86155000","longitude":"4.46946000","population":13690,"timezone":"Europe/Brussels","type":"city","translations":{"es":"Kraainem","en":"Kraainem"}},{"name":"Kruibeke","state_code":"VLG","latitude":"51.17048000","longitude":"4.31444000","population":14815,"timezone":"Europe/Brussels","type":"city","translations":{"es":"Kruibeke","en":"Kruibeke"}},{"name":"Kruishoutem","state_code":"VLG","latitude":"50.90168000","longitude":"3.52588000","population":8179,"timezone":"Europe/Brussels","type":"city","translations":{"es":"Kruishoutem","en":"Kruishoutem"}},{"name":"Kuurne","state_code":"VLG","latitude":"50.85143000","longitude":"3.28240000","population":13318,"timezone":"Europe/Brussels","type":"city","translations":{"es":"Kuurne","en":"Kuurne"}},{"name":"Laarne","state_code":"VLG","latitude":"51.03078000","longitude":"3.85077000","population":12487,"timezone":"Europe/Brussels","type":"city","translations":{"es":"Laarne","en":"Laarne"}},{"name":"Lanaken","state_code":"VLG","latitude":"50.89318000","longitude":"5.64680000","population":25818,"timezone":"Europe/Brussels","type":"city","translations":{"es":"Lanaken","en":"Lanaken"}},{"name":"Landen","state_code":"VLG","latitude":"50.75267000","longitude":"5.08200000","population":15961,"timezone":"Europe/Brussels","type":"city","translations":{"es":"Tierras","en":"Landen"}},{"name":"Lebbeke","state_code":"VLG","latitude":"51.00464000","longitude":"4.13457000","population":19195,"timezone":"Europe/Brussels","type":"city","translations":{"es":"Lebbeke","en":"Lebbeke"}},{"name":"Lede","state_code":"VLG","latitude":"50.96626000","longitude":"3.98594000","population":18628,"timezone":"Europe/Brussels","type":"city","translations":{"es":"Encabezado","en":"Lede"}},{"name":"Ledeberg","state_code":"VLG","latitude":"51.03859000","longitude":"3.74458000","population":8454,"timezone":"Europe/Brussels","type":"city","translations":{"es":"Ledeberg","en":"Ledeberg"}},{"name":"Ledegem","state_code":"VLG","latitude":"50.85785000","longitude":"3.12409000","population":1582,"timezone":"Europe/Brussels","type":"city","translations":{"es":"Ledegem","en":"Ledegem"}},{"name":"Lendelede","state_code":"VLG","latitude":"50.88626000","longitude":"3.23747000","population":5747,"timezone":"Europe/Brussels","type":"city","translations":{"es":"Lendelede","en":"Lendelede"}},{"name":"Leopoldsburg","state_code":"VLG","latitude":"51.11667000","longitude":"5.25000000","population":15625,"timezone":"Europe/Brussels","type":"city","translations":{"es":"Leopoldsburg","en":"Leopoldsburg"}},{"name":"Leuven","state_code":"VLG","latitude":"50.87959000","longitude":"4.70093000","population":101032,"timezone":"Europe/Brussels","type":"city","translations":{"es":"Lovaina","en":"Leuven"}},{"name":"Lichtervelde","state_code":"VLG","latitude":"51.03333000","longitude":"3.15000000","population":8793,"timezone":"Europe/Brussels","type":"city","translations":{"es":"Lichtervelde","en":"Lichtervelde"}},{"name":"Liedekerke","state_code":"VLG","latitude":"50.86892000","longitude":"4.08743000","population":13188,"timezone":"Europe/Brussels","type":"city","translations":{"es":"Liedekerke","en":"Liedekerke"}},{"name":"Lier","state_code":"VLG","latitude":"51.13128000","longitude":"4.57041000","population":36646,"timezone":"Europe/Brussels","type":"city","translations":{"es":"Mentiroso","en":"Lier"}},{"name":"Lille","state_code":"VLG","latitude":"51.24197000","longitude":"4.82313000","population":16564,"timezone":"Europe/Brussels","type":"city","translations":{"es":"Lille","en":"Lille"}},{"name":"Linkebeek","state_code":"VLG","latitude":"50.76781000","longitude":"4.33688000","population":4760,"timezone":"Europe/Brussels","type":"city","translations":{"es":"Linkebeek","en":"Linkebeek"}},{"name":"Lint","state_code":"VLG","latitude":"51.12707000","longitude":"4.49669000","population":2268,"timezone":"Europe/Brussels","type":"city","translations":{"es":"Hilas","en":"Lint"}},{"name":"Lochristi","state_code":"VLG","latitude":"51.09644000","longitude":"3.83194000","population":19696,"timezone":"Europe/Brussels","type":"city","translations":{"es":"Lochristi","en":"Lochristi"}},{"name":"Lokeren","state_code":"VLG","latitude":"51.10364000","longitude":"3.99339000","population":41438,"timezone":"Europe/Brussels","type":"city","translations":{"es":"Lokeren","en":"Lokeren"}},{"name":"Lommel","state_code":"VLG","latitude":"51.23074000","longitude":"5.31349000","population":34044,"timezone":"Europe/Brussels","type":"city","translations":{"es":"Lommel","en":"Lommel"}},{"name":"Londerzeel","state_code":"VLG","latitude":"51.00468000","longitude":"4.30304000","population":1842,"timezone":"Europe/Brussels","type":"city","translations":{"es":"Londerzeel","en":"Londerzeel"}},{"name":"Lovendegem","state_code":"VLG","latitude":"51.10168000","longitude":"3.61298000","population":9272,"timezone":"Europe/Brussels","type":"city","translations":{"es":"Lovendegem","en":"Lovendegem"}},{"name":"Lubbeek","state_code":"VLG","latitude":"50.88278000","longitude":"4.83896000","population":14393,"timezone":"Europe/Brussels","type":"city","translations":{"es":"Lubbeek","en":"Lubbeek"}},{"name":"Lummen","state_code":"VLG","latitude":"50.98772000","longitude":"5.19121000","population":14762,"timezone":"Europe/Brussels","type":"city","translations":{"es":"Lummen","en":"Lummen"}},{"name":"Maaseik","state_code":"VLG","latitude":"51.09802000","longitude":"5.78379000","population":25201,"timezone":"Europe/Brussels","type":"city","translations":{"es":"Maaseik","en":"Maaseik"}},{"name":"Maasmechelen","state_code":"VLG","latitude":"50.96545000","longitude":"5.69452000","population":38193,"timezone":"Europe/Brussels","type":"city","translations":{"es":"Maasmechelen","en":"Maasmechelen"}},{"name":"Machelen","state_code":"VLG","latitude":"50.91061000","longitude":"4.44174000","population":12252,"timezone":"Europe/Brussels","type":"city","translations":{"es":"Machelen","en":"Machelen"}},{"name":"Maldegem","state_code":"VLG","latitude":"51.20737000","longitude":"3.44511000","population":23689,"timezone":"Europe/Brussels","type":"city","translations":{"es":"Maldegem","en":"Maldegem"}},{"name":"Mechelen","state_code":"VLG","latitude":"51.02574000","longitude":"4.47762000","population":86921,"timezone":"Europe/Brussels","type":"city","translations":{"es":"Malinas","en":"Mechelen"}},{"name":"Meerhout","state_code":"VLG","latitude":"51.13210000","longitude":"5.07842000","population":10324,"timezone":"Europe/Brussels","type":"city","translations":{"es":"Meerhout","en":"Meerhout"}},{"name":"Meise","state_code":"VLG","latitude":"50.93934000","longitude":"4.32655000","population":19164,"timezone":"Europe/Brussels","type":"city","translations":{"es":"Meise","en":"Meise"}},{"name":"Melle","state_code":"VLG","latitude":"51.00232000","longitude":"3.80526000","population":10687,"timezone":"Europe/Brussels","type":"city","translations":{"es":"Melle","en":"Melle"}},{"name":"Menen","state_code":"VLG","latitude":"50.79722000","longitude":"3.12245000","population":33982,"timezone":"Europe/Brussels","type":"city","translations":{"es":"Menen","en":"Menen"}},{"name":"Merchtem","state_code":"VLG","latitude":"50.95129000","longitude":"4.23197000","population":16294,"timezone":"Europe/Brussels","type":"city","translations":{"es":"Merchtem","en":"Merchtem"}},{"name":"Merelbeke","state_code":"VLG","latitude":"50.99447000","longitude":"3.74621000","population":16684,"timezone":"Europe/Brussels","type":"adm4","translations":{"es":"Merelbeke","en":"Merelbeke"}},{"name":"Merksplas","state_code":"VLG","latitude":"51.35851000","longitude":"4.86513000","population":8588,"timezone":"Europe/Brussels","type":"city","translations":{"es":"Mercksplas","en":"Merksplas"}},{"name":"Meulebeke","state_code":"VLG","latitude":"50.95136000","longitude":"3.28804000","population":10948,"timezone":"Europe/Brussels","type":"city","translations":{"es":"Meulebeke","en":"Meulebeke"}},{"name":"Middelkerke","state_code":"VLG","latitude":"51.18532000","longitude":"2.82077000","population":19371,"timezone":"Europe/Brussels","type":"city","translations":{"es":"Middelkerke","en":"Middelkerke"}},{"name":"Moerbeke","state_code":"VLG","latitude":"51.17409000","longitude":"3.93001000","population":5855,"timezone":"Europe/Brussels","type":"city","translations":{"es":"Moerbeke","en":"Moerbeke"}},{"name":"Mol","state_code":"VLG","latitude":"51.19188000","longitude":"5.11662000","population":37022,"timezone":"Europe/Brussels","type":"city","translations":{"es":"Mol","en":"Mol"}},{"name":"Moorslede","state_code":"VLG","latitude":"50.89190000","longitude":"3.06117000","population":11080,"timezone":"Europe/Brussels","type":"city","translations":{"es":"Moorslede","en":"Moorslede"}},{"name":"Mortsel","state_code":"VLG","latitude":"51.16697000","longitude":"4.45127000","population":26181,"timezone":"Europe/Brussels","type":"city","translations":{"es":"Mortsel","en":"Mortsel"}},{"name":"Nazareth","state_code":"VLG","latitude":"50.95686000","longitude":"3.59425000","population":10890,"timezone":"Europe/Brussels","type":"city","translations":{"es":"Nazaret","en":"Nazareth"}},{"name":"Neerpelt","state_code":"VLG","latitude":"51.22807000","longitude":"5.44270000","population":16122,"timezone":"Europe/Brussels","type":"city","translations":{"es":"Neerpelt","en":"Neerpelt"}},{"name":"Nevele","state_code":"VLG","latitude":"51.03531000","longitude":"3.54574000","population":11153,"timezone":"Europe/Brussels","type":"city","translations":{"es":"Nevele","en":"Nevele"}},{"name":"Niel","state_code":"VLG","latitude":"51.11096000","longitude":"4.33428000","population":10546,"timezone":"Europe/Brussels","type":"city","translations":{"es":"Niel","en":"Niel"}},{"name":"Nieuwerkerken","state_code":"VLG","latitude":"50.86380000","longitude":"5.19467000","population":6960,"timezone":"Europe/Brussels","type":"city","translations":{"es":"Iglesias nuevas","en":"Nieuwerkerken"}},{"name":"Nieuwpoort","state_code":"VLG","latitude":"51.13008000","longitude":"2.75135000","population":11488,"timezone":"Europe/Brussels","type":"city","translations":{"es":"Nueva puerta","en":"Nieuwpoort"}},{"name":"Nijlen","state_code":"VLG","latitude":"51.16096000","longitude":"4.67008000","population":22936,"timezone":"Europe/Brussels","type":"city","translations":{"es":"Nijlen","en":"Nijlen"}},{"name":"Ninove","state_code":"VLG","latitude":"50.82776000","longitude":"4.02657000","population":39626,"timezone":"Europe/Brussels","type":"city","translations":{"es":"Ninove","en":"Ninove"}},{"name":"Olen","state_code":"VLG","latitude":"51.14391000","longitude":"4.85980000","population":3209,"timezone":"Europe/Brussels","type":"adm4","translations":{"es":"Olen","en":"Olen"}},{"name":"Oostduinkerke","state_code":"VLG","latitude":"51.11565000","longitude":"2.68217000","population":8534,"timezone":"Europe/Brussels","type":"city","translations":{"es":"Oostduinkerke","en":"Oostduinkerke"}},{"name":"Oosterzele","state_code":"VLG","latitude":"50.95261000","longitude":"3.79826000","population":13546,"timezone":"Europe/Brussels","type":"city","translations":{"es":"Oosterzele","en":"Oosterzele"}},{"name":"Oostkamp","state_code":"VLG","latitude":"51.15432000","longitude":"3.23128000","population":23580,"timezone":"Europe/Brussels","type":"city","translations":{"es":"Oostkamp","en":"Oostkamp"}},{"name":"Oostmalle","state_code":"VLG","latitude":"51.30000000","longitude":"4.73333000","population":7034,"timezone":"Europe/Brussels","type":"city","translations":{"es":"Oostmalle","en":"Oostmalle"}},{"name":"Oostrozebeke","state_code":"VLG","latitude":"50.92093000","longitude":"3.33799000","population":7849,"timezone":"Europe/Brussels","type":"city","translations":{"es":"Oostrozebeke","en":"Oostrozebeke"}},{"name":"Opglabbeek","state_code":"VLG","latitude":"51.04258000","longitude":"5.58346000","population":9452,"timezone":"Europe/Brussels","type":"city","translations":{"es":"Opglabbeek","en":"Opglabbeek"}},{"name":"Opwijk","state_code":"VLG","latitude":"50.96724000","longitude":"4.18442000","population":14378,"timezone":"Europe/Brussels","type":"city","translations":{"es":"Opwijk","en":"Opwijk"}},{"name":"Ostend","state_code":"VLG","latitude":"51.21551000","longitude":"2.92700000","population":71557,"timezone":"Europe/Brussels","type":"adm3","translations":{"es":"Ostende","en":"Ostend"}},{"name":"Oud-Heverlee","state_code":"VLG","latitude":"50.83522000","longitude":"4.66421000","population":11099,"timezone":"Europe/Brussels","type":"city","translations":{"es":"Oud-Heverlee","en":"Oud-Heverlee"}},{"name":"Oud-Turnhout","state_code":"VLG","latitude":"51.31978000","longitude":"4.98410000","population":13977,"timezone":"Europe/Brussels","type":"city","translations":{"es":"Oud-Turnhout","en":"Oud-Turnhout"}},{"name":"Oudenaarde","state_code":"VLG","latitude":"50.85168000","longitude":"3.60891000","population":31866,"timezone":"Europe/Brussels","type":"adm3","translations":{"es":"Oudenaarde","en":"Oudenaarde"}},{"name":"Oudenburg","state_code":"VLG","latitude":"51.18489000","longitude":"3.00035000","population":9717,"timezone":"Europe/Brussels","type":"city","translations":{"es":"Oudenburg","en":"Oudenburg"}},{"name":"Overijse","state_code":"VLG","latitude":"50.77436000","longitude":"4.53461000","population":25169,"timezone":"Europe/Brussels","type":"city","translations":{"es":"Overijse","en":"Overijse"}},{"name":"Overpelt","state_code":"VLG","latitude":"51.21038000","longitude":"5.41557000","population":13344,"timezone":"Europe/Brussels","type":"city","translations":{"es":"Sobrepelto","en":"Overpelt"}},{"name":"Peer","state_code":"VLG","latitude":"51.13030000","longitude":"5.45952000","population":16421,"timezone":"Europe/Brussels","type":"city","translations":{"es":"Par","en":"Peer"}},{"name":"Pepingen","state_code":"VLG","latitude":"50.75922000","longitude":"4.15983000","population":603,"timezone":"Europe/Brussels","type":"city","translations":{"es":"Pepingen","en":"Pepingen"}},{"name":"Perre","state_code":"VLG","latitude":"50.88914000","longitude":"3.86098000","population":3000,"timezone":"Europe/Brussels","type":"city","translations":{"es":"Perre","en":"Perre"}},{"name":"Pittem","state_code":"VLG","latitude":"50.99279000","longitude":"3.26317000","population":6752,"timezone":"Europe/Brussels","type":"city","translations":{"es":"Pittem","en":"Pittem"}},{"name":"Poperinge","state_code":"VLG","latitude":"50.85386000","longitude":"2.72659000","population":19782,"timezone":"Europe/Brussels","type":"city","translations":{"es":"Poperinge","en":"Poperinge"}},{"name":"Provincie Antwerpen","state_code":"VLG","latitude":"51.16558000","longitude":"4.83402000","population":null,"timezone":"Europe/Brussels","type":"city","translations":{"es":"Provincia de Amberes","en":"Provincie Antwerpen"}},{"name":"Provincie Limburg","state_code":"VLG","latitude":"51.00000000","longitude":"5.50000000","population":63666,"timezone":"Europe/Brussels","type":"city","translations":{"es":"Provincia de Limburgo","en":"Provincie Limburg"}},{"name":"Provincie Oost-Vlaanderen","state_code":"VLG","latitude":"51.00000000","longitude":"3.75000000","population":null,"timezone":"Europe/Brussels","type":"city","translations":{"es":"Provincia de Flandes Oriental","en":"Provincie Oost-Vlaanderen"}},{"name":"Provincie Vlaams-Brabant","state_code":"VLG","latitude":"50.91667000","longitude":"4.58333000","population":null,"timezone":"Europe/Brussels","type":"city","translations":{"es":"Provincia de Brabante Flamenco","en":"Provincie Vlaams-Brabant"}},{"name":"Provincie West-Vlaanderen","state_code":"VLG","latitude":"51.00000000","longitude":"3.00000000","population":null,"timezone":"Europe/Brussels","type":"city","translations":{"es":"Provincia de Flandes Occidental","en":"Provincie West-Vlaanderen"}},{"name":"Putte","state_code":"VLG","latitude":"51.05337000","longitude":"4.63263000","population":17584,"timezone":"Europe/Brussels","type":"city","translations":{"es":"Putte","en":"Putte"}},{"name":"Puurs","state_code":"VLG","latitude":"51.07409000","longitude":"4.28844000","population":15944,"timezone":"Europe/Brussels","type":"city","translations":{"es":"Puros","en":"Puurs"}},{"name":"Ranst","state_code":"VLG","latitude":"51.18983000","longitude":"4.56533000","population":19187,"timezone":"Europe/Brussels","type":"city","translations":{"es":"Ranst","en":"Ranst"}},{"name":"Ravels","state_code":"VLG","latitude":"51.37274000","longitude":"4.99210000","population":14871,"timezone":"Europe/Brussels","type":"city","translations":{"es":"Ravels","en":"Ravels"}},{"name":"Retie","state_code":"VLG","latitude":"51.26652000","longitude":"5.08242000","population":8000,"timezone":"Europe/Brussels","type":"adm4","translations":{"es":"Retie","en":"Retie"}},{"name":"Riemst","state_code":"VLG","latitude":"50.80995000","longitude":"5.60131000","population":16665,"timezone":"Europe/Brussels","type":"city","translations":{"es":"Riemst","en":"Riemst"}},{"name":"Rijkevorsel","state_code":"VLG","latitude":"51.34795000","longitude":"4.76053000","population":11932,"timezone":"Europe/Brussels","type":"city","translations":{"es":"Rijkevorsel","en":"Rijkevorsel"}},{"name":"Roeselare","state_code":"VLG","latitude":"50.94653000","longitude":"3.12269000","population":64495,"timezone":"Europe/Brussels","type":"city","translations":{"es":"Roeselare","en":"Roeselare"}},{"name":"Ronse","state_code":"VLG","latitude":"50.74574000","longitude":"3.60050000","population":26702,"timezone":"Europe/Brussels","type":"city","translations":{"es":"Ronse","en":"Ronse"}},{"name":"Rotselaar","state_code":"VLG","latitude":"50.95302000","longitude":"4.71665000","population":16678,"timezone":"Europe/Brussels","type":"city","translations":{"es":"Rotselaar","en":"Rotselaar"}},{"name":"Ruiselede","state_code":"VLG","latitude":"51.04039000","longitude":"3.39416000","population":5129,"timezone":"Europe/Brussels","type":"city","translations":{"es":"Ruiselede","en":"Ruiselede"}},{"name":"Rumst","state_code":"VLG","latitude":"51.08153000","longitude":"4.42217000","population":15114,"timezone":"Europe/Brussels","type":"city","translations":{"es":"Rumst","en":"Rumst"}},{"name":"Schelle","state_code":"VLG","latitude":"51.12615000","longitude":"4.34114000","population":8433,"timezone":"Europe/Brussels","type":"city","translations":{"es":"Schelle","en":"Schelle"}},{"name":"Schilde","state_code":"VLG","latitude":"51.24107000","longitude":"4.58336000","population":19585,"timezone":"Europe/Brussels","type":"city","translations":{"es":"Schilde","en":"Schilde"}},{"name":"Schoten","state_code":"VLG","latitude":"51.25251000","longitude":"4.50268000","population":34462,"timezone":"Europe/Brussels","type":"city","translations":{"es":"Schoten","en":"Schoten"}},{"name":"Sint-Amands","state_code":"VLG","latitude":"51.05645000","longitude":"4.20957000","population":7653,"timezone":"Europe/Brussels","type":"city","translations":{"es":"Sint-Amands","en":"Sint-Amands"}},{"name":"Sint-Genesius-Rode","state_code":"VLG","latitude":"50.74645000","longitude":"4.35754000","population":18296,"timezone":"Europe/Brussels","type":"city","translations":{"es":"Sint-Genesius-Rode","en":"Sint-Genesius-Rode"}},{"name":"Sint-Gillis-Waas","state_code":"VLG","latitude":"51.21914000","longitude":"4.12374000","population":19273,"timezone":"Europe/Brussels","type":"city","translations":{"es":"Sint-Gillis-Waas","en":"Sint-Gillis-Waas"}},{"name":"Sint-Joris","state_code":"VLG","latitude":"50.87117000","longitude":"5.27200000","population":2400,"timezone":"Europe/Brussels","type":"city","translations":{"es":"Sint-Joris","en":"Sint-Joris"}},{"name":"Sint-Katelijne-Waver","state_code":"VLG","latitude":"51.06691000","longitude":"4.53469000","population":20870,"timezone":"Europe/Brussels","type":"city","translations":{"es":"Santa Katelijne Waver","en":"Sint-Katelijne-Waver"}},{"name":"Sint-Kruis","state_code":"VLG","latitude":"51.21399000","longitude":"3.24949000","population":15892,"timezone":"Europe/Brussels","type":"city","translations":{"es":"Sint-Kruis","en":"Sint-Kruis"}},{"name":"Sint-Laureins","state_code":"VLG","latitude":"51.24202000","longitude":"3.52441000","population":6684,"timezone":"Europe/Brussels","type":"city","translations":{"es":"Sint-Laureins","en":"Sint-Laureins"}},{"name":"Sint-Lievens-Houtem","state_code":"VLG","latitude":"50.91970000","longitude":"3.86225000","population":10255,"timezone":"Europe/Brussels","type":"city","translations":{"es":"Sint-Lievens-Houtem","en":"Sint-Lievens-Houtem"}},{"name":"Sint-Maria-Lierde","state_code":"VLG","latitude":"50.81867000","longitude":"3.84436000","population":6449,"timezone":"Europe/Brussels","type":"city","translations":{"es":"Santa María Lierde","en":"Sint-Maria-Lierde"}},{"name":"Sint-Martens-Latem","state_code":"VLG","latitude":"51.01459000","longitude":"3.63779000","population":8468,"timezone":"Europe/Brussels","type":"city","translations":{"es":"Sint-Martens-Latem","en":"Sint-Martens-Latem"}},{"name":"Sint-Martens-Lennik","state_code":"VLG","latitude":"50.81158000","longitude":"4.16965000","population":8818,"timezone":"Europe/Brussels","type":"city","translations":{"es":"Sint-Martens-Lennik","en":"Sint-Martens-Lennik"}},{"name":"Sint-Niklaas","state_code":"VLG","latitude":"51.16509000","longitude":"4.14370000","population":80167,"timezone":"Europe/Brussels","type":"adm3","translations":{"es":"San Nicolás","en":"Sint-Niklaas"}},{"name":"Sint-Pieters-Leeuw","state_code":"VLG","latitude":"50.77926000","longitude":"4.24355000","population":34038,"timezone":"Europe/Brussels","type":"city","translations":{"es":"Sint-Pieters-Leeuw","en":"Sint-Pieters-Leeuw"}},{"name":"Sint-Pieters-Voeren","state_code":"VLG","latitude":"50.73863000","longitude":"5.82224000","population":4235,"timezone":"Europe/Brussels","type":"city","translations":{"es":"Sint-Pieters-Voeren","en":"Sint-Pieters-Voeren"}},{"name":"Sint-Truiden","state_code":"VLG","latitude":"50.81679000","longitude":"5.18647000","population":40672,"timezone":"Europe/Brussels","type":"city","translations":{"es":"Sint-Truiden","en":"Sint-Truiden"}},{"name":"Stabroek","state_code":"VLG","latitude":"51.33189000","longitude":"4.37127000","population":18529,"timezone":"Europe/Brussels","type":"city","translations":{"es":"Stabroek","en":"Stabroek"}},{"name":"Staden","state_code":"VLG","latitude":"50.97456000","longitude":"3.01469000","population":11376,"timezone":"Europe/Brussels","type":"city","translations":{"es":"Estadio","en":"Staden"}},{"name":"Steenokkerzeel","state_code":"VLG","latitude":"50.91851000","longitude":"4.50989000","population":12725,"timezone":"Europe/Brussels","type":"city","translations":{"es":"Cera de albañilería","en":"Steenokkerzeel"}},{"name":"Stekene","state_code":"VLG","latitude":"51.20990000","longitude":"4.03651000","population":18352,"timezone":"Europe/Brussels","type":"city","translations":{"es":"Stekene","en":"Stekene"}},{"name":"Temse","state_code":"VLG","latitude":"51.12794000","longitude":"4.21372000","population":29528,"timezone":"Europe/Brussels","type":"city","translations":{"es":"Temse","en":"Temse"}},{"name":"Terkoest","state_code":"VLG","latitude":"50.89832000","longitude":"5.27623000","population":2350,"timezone":"Europe/Brussels","type":"city","translations":{"es":"Terkoest","en":"Terkoest"}},{"name":"Ternat","state_code":"VLG","latitude":"50.86654000","longitude":"4.16682000","population":16665,"timezone":"Europe/Brussels","type":"city","translations":{"es":"Ternat","en":"Ternat"}},{"name":"Tervuren","state_code":"VLG","latitude":"50.82372000","longitude":"4.51418000","population":22248,"timezone":"Europe/Brussels","type":"city","translations":{"es":"Tervuren","en":"Tervuren"}},{"name":"Tessenderlo","state_code":"VLG","latitude":"51.06513000","longitude":"5.08856000","population":16574,"timezone":"Europe/Brussels","type":"city","translations":{"es":"Tessenderlo","en":"Tessenderlo"}},{"name":"Tielt","state_code":"VLG","latitude":"50.99931000","longitude":"3.32707000","population":19299,"timezone":"Europe/Brussels","type":"adm3","translations":{"es":"Tielt","en":"Tielt"}},{"name":"Tienen","state_code":"VLG","latitude":"50.80745000","longitude":"4.93780000","population":36581,"timezone":"Europe/Brussels","type":"city","translations":{"es":"Tienen","en":"Tienen"}},{"name":"Tongeren","state_code":"VLG","latitude":"50.78054000","longitude":"5.46484000","population":29816,"timezone":"Europe/Brussels","type":"city","translations":{"es":"Tongeren","en":"Tongeren"}},{"name":"Torhout","state_code":"VLG","latitude":"51.06560000","longitude":"3.10085000","population":20530,"timezone":"Europe/Brussels","type":"city","translations":{"es":"Torhout","en":"Torhout"}},{"name":"Tremelo","state_code":"VLG","latitude":"50.99231000","longitude":"4.70807000","population":14842,"timezone":"Europe/Brussels","type":"city","translations":{"es":"Tremelo","en":"Tremelo"}},{"name":"Turnhout","state_code":"VLG","latitude":"51.32254000","longitude":"4.94471000","population":44136,"timezone":"Europe/Brussels","type":"adm3","translations":{"es":"Turnhout","en":"Turnhout"}},{"name":"Veurne","state_code":"VLG","latitude":"51.07316000","longitude":"2.66803000","population":12295,"timezone":"Europe/Brussels","type":"adm3","translations":{"es":"Veurne","en":"Veurne"}},{"name":"Vilvoorde","state_code":"VLG","latitude":"50.92814000","longitude":"4.42938000","population":44015,"timezone":"Europe/Brussels","type":"city","translations":{"es":"Vilvoorde","en":"Vilvoorde"}},{"name":"Vorselaar","state_code":"VLG","latitude":"51.20243000","longitude":"4.77259000","population":3622,"timezone":"Europe/Brussels","type":"city","translations":{"es":"Vorselaar","en":"Vorselaar"}},{"name":"Vosselaar","state_code":"VLG","latitude":"51.30856000","longitude":"4.88960000","population":11159,"timezone":"Europe/Brussels","type":"city","translations":{"es":"Vosselaar","en":"Vosselaar"}},{"name":"Waarschoot","state_code":"VLG","latitude":"51.15250000","longitude":"3.60500000","population":7762,"timezone":"Europe/Brussels","type":"city","translations":{"es":"Waarschoot","en":"Waarschoot"}},{"name":"Waasmunster","state_code":"VLG","latitude":"51.10572000","longitude":"4.08573000","population":10768,"timezone":"Europe/Brussels","type":"city","translations":{"es":"Waasmünster","en":"Waasmunster"}},{"name":"Wachtebeke","state_code":"VLG","latitude":"51.16852000","longitude":"3.87183000","population":6911,"timezone":"Europe/Brussels","type":"city","translations":{"es":"Wachtebeke","en":"Wachtebeke"}},{"name":"Waregem","state_code":"VLG","latitude":"50.88898000","longitude":"3.42756000","population":38347,"timezone":"Europe/Brussels","type":"city","translations":{"es":"Waregem","en":"Waregem"}},{"name":"Wellen","state_code":"VLG","latitude":"50.84096000","longitude":"5.33867000","population":7402,"timezone":"Europe/Brussels","type":"city","translations":{"es":"Wellen","en":"Wellen"}},{"name":"Wemmel","state_code":"VLG","latitude":"50.90812000","longitude":"4.30613000","population":14406,"timezone":"Europe/Brussels","type":"city","translations":{"es":"Wemmel","en":"Wemmel"}},{"name":"Wenduine","state_code":"VLG","latitude":"51.29830000","longitude":"3.08213000","population":4003,"timezone":"Europe/Brussels","type":"city","translations":{"es":"Wenduine","en":"Wenduine"}},{"name":"Wervik","state_code":"VLG","latitude":"50.78069000","longitude":"3.03854000","population":17340,"timezone":"Europe/Brussels","type":"city","translations":{"es":"Wervik","en":"Wervik"}},{"name":"Westerlo","state_code":"VLG","latitude":"51.09049000","longitude":"4.91544000","population":24884,"timezone":"Europe/Brussels","type":"city","translations":{"es":"Westerlo","en":"Westerlo"}},{"name":"Wetteren","state_code":"VLG","latitude":"51.00526000","longitude":"3.88341000","population":25477,"timezone":"Europe/Brussels","type":"city","translations":{"es":"Clima","en":"Wetteren"}},{"name":"Wevelgem","state_code":"VLG","latitude":"50.80000000","longitude":"3.16667000","population":31412,"timezone":"Europe/Brussels","type":"city","translations":{"es":"Wevelgem","en":"Wevelgem"}},{"name":"Wezembeek-Oppem","state_code":"VLG","latitude":"50.83950000","longitude":"4.49427000","population":14021,"timezone":"Europe/Brussels","type":"city","translations":{"es":"Wezembeek-Oppem","en":"Wezembeek-Oppem"}},{"name":"Wichelen","state_code":"VLG","latitude":"51.00526000","longitude":"3.97683000","population":11578,"timezone":"Europe/Brussels","type":"city","translations":{"es":"Wichelen","en":"Wichelen"}},{"name":"Wielsbeke","state_code":"VLG","latitude":"50.90000000","longitude":"3.36667000","population":9584,"timezone":"Europe/Brussels","type":"city","translations":{"es":"Wielsbeke","en":"Wielsbeke"}},{"name":"Wijnegem","state_code":"VLG","latitude":"51.22787000","longitude":"4.51895000","population":9711,"timezone":"Europe/Brussels","type":"city","translations":{"es":"Wijnegem","en":"Wijnegem"}},{"name":"Willebroek","state_code":"VLG","latitude":"51.06041000","longitude":"4.36019000","population":26223,"timezone":"Europe/Brussels","type":"city","translations":{"es":"Willebroek","en":"Willebroek"}},{"name":"Wingene","state_code":"VLG","latitude":"51.05782000","longitude":"3.27359000","population":12887,"timezone":"Europe/Brussels","type":"city","translations":{"es":"Wingene","en":"Wingene"}},{"name":"Wommelgem","state_code":"VLG","latitude":"51.20452000","longitude":"4.52250000","population":12893,"timezone":"Europe/Brussels","type":"city","translations":{"es":"Mujer gema","en":"Wommelgem"}},{"name":"Wuustwezel","state_code":"VLG","latitude":"51.39214000","longitude":"4.59546000","population":15000,"timezone":"Europe/Brussels","type":"adm4","translations":{"es":"Wuustwezel","en":"Wuustwezel"}},{"name":"Zandhoven","state_code":"VLG","latitude":"51.21488000","longitude":"4.66164000","population":12985,"timezone":"Europe/Brussels","type":"city","translations":{"es":"Zandhoven","en":"Zandhoven"}},{"name":"Zaventem","state_code":"VLG","latitude":"50.88365000","longitude":"4.47298000","population":35184,"timezone":"Europe/Brussels","type":"city","translations":{"es":"Zaventem","en":"Zaventem"}},{"name":"Zedelgem","state_code":"VLG","latitude":"51.14236000","longitude":"3.13680000","population":22635,"timezone":"Europe/Brussels","type":"city","translations":{"es":"Zedelgem","en":"Zedelgem"}},{"name":"Zeebrugge","state_code":"VLG","latitude":"51.32901000","longitude":"3.18188000","population":4301,"timezone":"Europe/Brussels","type":"city","translations":{"es":"Zeebrugge","en":"Zeebrugge"}},{"name":"Zele","state_code":"VLG","latitude":"51.06566000","longitude":"4.04030000","population":20976,"timezone":"Europe/Brussels","type":"city","translations":{"es":"Zele","en":"Zele"}},{"name":"Zelzate","state_code":"VLG","latitude":"51.18963000","longitude":"3.80777000","population":12699,"timezone":"Europe/Brussels","type":"city","translations":{"es":"Zelzate","en":"Zelzate"}},{"name":"Zemst","state_code":"VLG","latitude":"50.98318000","longitude":"4.46079000","population":23325,"timezone":"Europe/Brussels","type":"city","translations":{"es":"Zemst","en":"Zemst"}},{"name":"Zingem","state_code":"VLG","latitude":"50.90409000","longitude":"3.65305000","population":6588,"timezone":"Europe/Brussels","type":"city","translations":{"es":"Zingem","en":"Zingem"}},{"name":"Zoersel","state_code":"VLG","latitude":"51.26825000","longitude":"4.71296000","population":10000,"timezone":"Europe/Brussels","type":"adm4","translations":{"es":"Zoersel","en":"Zoersel"}},{"name":"Zomergem","state_code":"VLG","latitude":"51.11994000","longitude":"3.56496000","population":8158,"timezone":"Europe/Brussels","type":"city","translations":{"es":"Zomergem","en":"Zomergem"}},{"name":"Zonhoven","state_code":"VLG","latitude":"50.99064000","longitude":"5.36819000","population":21214,"timezone":"Europe/Brussels","type":"city","translations":{"es":"Zonhoven","en":"Zonhoven"}},{"name":"Zonnebeke","state_code":"VLG","latitude":"50.87260000","longitude":"2.98725000","population":12445,"timezone":"Europe/Brussels","type":"city","translations":{"es":"Zonnebeke","en":"Zonnebeke"}},{"name":"Zottegem","state_code":"VLG","latitude":"50.86955000","longitude":"3.81052000","population":24434,"timezone":"Europe/Brussels","type":"city","translations":{"es":"Zottegem","en":"Zottegem"}},{"name":"Zoutleeuw","state_code":"VLG","latitude":"50.83316000","longitude":"5.10376000","population":7897,"timezone":"Europe/Brussels","type":"city","translations":{"es":"Zoutleeuw","en":"Zoutleeuw"}},{"name":"Zuienkerke","state_code":"VLG","latitude":"51.26511000","longitude":"3.15506000","population":2730,"timezone":"Europe/Brussels","type":"city","translations":{"es":"Zuienkerke","en":"Zuienkerke"}},{"name":"Zulte","state_code":"VLG","latitude":"50.91954000","longitude":"3.44859000","population":15720,"timezone":"Europe/Brussels","type":"city","translations":{"es":"Zulte","en":"Zulte"}},{"name":"Zutendaal","state_code":"VLG","latitude":"50.93306000","longitude":"5.57530000","population":7234,"timezone":"Europe/Brussels","type":"city","translations":{"es":"Zutendaal","en":"Zutendaal"}},{"name":"Zwevegem","state_code":"VLG","latitude":"50.81268000","longitude":"3.33848000","population":24619,"timezone":"Europe/Brussels","type":"city","translations":{"es":"Zwevegem","en":"Zwevegem"}},{"name":"Zwijndrecht","state_code":"VLG","latitude":"51.21979000","longitude":"4.32664000","population":18249,"timezone":"Europe/Brussels","type":"city","translations":{"es":"Zwijndrecht","en":"Zwijndrecht"}},{"name":"Aiseau","state_code":"WAL","latitude":"50.41158000","longitude":"4.58671000","population":10906,"timezone":"Europe/Brussels","type":"city","translations":{"es":"Aiseau","en":"Aiseau"}},{"name":"Amay","state_code":"WAL","latitude":"50.54829000","longitude":"5.30974000","population":14305,"timezone":"Europe/Brussels","type":"city","translations":{"es":"Amay","en":"Amay"}},{"name":"Amblève","state_code":"WAL","latitude":"50.35357000","longitude":"6.17002000","population":5221,"timezone":"Europe/Brussels","type":"city","translations":{"es":"Amblève","en":"Amblève"}},{"name":"Andenne","state_code":"WAL","latitude":"50.48941000","longitude":"5.09513000","population":27573,"timezone":"Europe/Brussels","type":"city","translations":{"es":"Andenne","en":"Andenne"}},{"name":"Anderlues","state_code":"WAL","latitude":"50.40704000","longitude":"4.27136000","population":12254,"timezone":"Europe/Brussels","type":"city","translations":{"es":"Anderlues","en":"Anderlues"}},{"name":"Anhée","state_code":"WAL","latitude":"50.31039000","longitude":"4.87827000","population":7117,"timezone":"Europe/Brussels","type":"city","translations":{"es":"Anhée","en":"Anhée"}},{"name":"Ans","state_code":"WAL","latitude":"50.66230000","longitude":"5.52029000","population":28238,"timezone":"Europe/Brussels","type":"city","translations":{"es":"Respuesta","en":"Ans"}},{"name":"Anthisnes","state_code":"WAL","latitude":"50.48323000","longitude":"5.51900000","population":4204,"timezone":"Europe/Brussels","type":"city","translations":{"es":"Anthisnes","en":"Anthisnes"}},{"name":"Antoing","state_code":"WAL","latitude":"50.56765000","longitude":"3.44920000","population":7760,"timezone":"Europe/Brussels","type":"city","translations":{"es":"Antoing","en":"Antoing"}},{"name":"Arlon","state_code":"WAL","latitude":"49.68333000","longitude":"5.81667000","population":26179,"timezone":"Europe/Brussels","type":"city","translations":{"es":"Arlon","en":"Arlon"}},{"name":"Assesse","state_code":"WAL","latitude":"50.36934000","longitude":"5.02204000","population":6964,"timezone":"Europe/Brussels","type":"city","translations":{"es":"Evaluar","en":"Assesse"}},{"name":"Ath","state_code":"WAL","latitude":"50.62937000","longitude":"3.77801000","population":29164,"timezone":"Europe/Brussels","type":"city","translations":{"es":"Ath","en":"Ath"}},{"name":"Attert","state_code":"WAL","latitude":"49.75035000","longitude":"5.78634000","population":5537,"timezone":"Europe/Brussels","type":"city","translations":{"es":"Attert","en":"Attert"}},{"name":"Aubange","state_code":"WAL","latitude":"49.56652000","longitude":"5.80492000","population":16927,"timezone":"Europe/Brussels","type":"city","translations":{"es":"Aubange","en":"Aubange"}},{"name":"Aubel","state_code":"WAL","latitude":"50.70189000","longitude":"5.85812000","population":4221,"timezone":"Europe/Brussels","type":"city","translations":{"es":"Aubel","en":"Aubel"}},{"name":"Awans","state_code":"WAL","latitude":"50.66774000","longitude":"5.46329000","population":9353,"timezone":"Europe/Brussels","type":"city","translations":{"es":"Awans","en":"Awans"}},{"name":"Aywaille","state_code":"WAL","latitude":"50.47411000","longitude":"5.67684000","population":12405,"timezone":"Europe/Brussels","type":"city","translations":{"es":"Aywaille","en":"Aywaille"}},{"name":"Baelen","state_code":"WAL","latitude":"50.63131000","longitude":"5.97433000","population":4434,"timezone":"Europe/Brussels","type":"city","translations":{"es":"Baelen","en":"Baelen"}},{"name":"Basse Lasne","state_code":"WAL","latitude":"50.69503000","longitude":"4.49218000","population":13861,"timezone":"Europe/Brussels","type":"city","translations":{"es":"Basse Lasne","en":"Basse Lasne"}},{"name":"Bassenge","state_code":"WAL","latitude":"50.75883000","longitude":"5.60989000","population":8986,"timezone":"Europe/Brussels","type":"city","translations":{"es":"Bassenge","en":"Bassenge"}},{"name":"Bastogne","state_code":"WAL","latitude":"50.00347000","longitude":"5.71844000","population":14395,"timezone":"Europe/Brussels","type":"adm3","translations":{"es":"Bastoña","en":"Bastogne"}},{"name":"Beaumont","state_code":"WAL","latitude":"50.23699000","longitude":"4.23926000","population":7137,"timezone":"Europe/Brussels","type":"city","translations":{"es":"Beaumont","en":"Beaumont"}},{"name":"Beauraing","state_code":"WAL","latitude":"50.11042000","longitude":"4.95554000","population":9160,"timezone":"Europe/Brussels","type":"city","translations":{"es":"Beauraing","en":"Beauraing"}},{"name":"Beauvechain","state_code":"WAL","latitude":"50.78195000","longitude":"4.77180000","population":7222,"timezone":"Europe/Brussels","type":"city","translations":{"es":"Beauvechain","en":"Beauvechain"}},{"name":"Beloeil","state_code":"WAL","latitude":"50.55047000","longitude":"3.73484000","population":14244,"timezone":"Europe/Brussels","type":"city","translations":{"es":"Beloeil","en":"Beloeil"}},{"name":"Berloz","state_code":"WAL","latitude":"50.69829000","longitude":"5.21236000","population":3080,"timezone":"Europe/Brussels","type":"city","translations":{"es":"Berloz","en":"Berloz"}},{"name":"Bernissart","state_code":"WAL","latitude":"50.47460000","longitude":"3.64961000","population":11894,"timezone":"Europe/Brussels","type":"city","translations":{"es":"Bernissart","en":"Bernissart"}},{"name":"Bertogne","state_code":"WAL","latitude":"50.08364000","longitude":"5.66689000","population":2852,"timezone":"Europe/Brussels","type":"city","translations":{"es":"Bertogne","en":"Bertogne"}},{"name":"Bertrix","state_code":"WAL","latitude":"49.85596000","longitude":"5.25539000","population":8763,"timezone":"Europe/Brussels","type":"city","translations":{"es":"Bertrix","en":"Bertrix"}},{"name":"Beyne-Heusay","state_code":"WAL","latitude":"50.62251000","longitude":"5.66508000","population":12019,"timezone":"Europe/Brussels","type":"city","translations":{"es":"Beyne-Heusay","en":"Beyne-Heusay"}},{"name":"Bièvre","state_code":"WAL","latitude":"49.94085000","longitude":"5.01591000","population":3307,"timezone":"Europe/Brussels","type":"city","translations":{"es":"Bièvre","en":"Bièvre"}},{"name":"Binche","state_code":"WAL","latitude":"50.41155000","longitude":"4.16469000","population":33598,"timezone":"Europe/Brussels","type":"city","translations":{"es":"Binche","en":"Binche"}},{"name":"Blégny","state_code":"WAL","latitude":"50.67255000","longitude":"5.72508000","population":13300,"timezone":"Europe/Brussels","type":"city","translations":{"es":"Blégny","en":"Blégny"}},{"name":"Bouillon","state_code":"WAL","latitude":"49.79324000","longitude":"5.06703000","population":5353,"timezone":"Europe/Brussels","type":"city","translations":{"es":"Caldo","en":"Bouillon"}},{"name":"Boussu","state_code":"WAL","latitude":"50.43417000","longitude":"3.79440000","population":19856,"timezone":"Europe/Brussels","type":"city","translations":{"es":"Boussu","en":"Boussu"}},{"name":"Braine-l'Alleud","state_code":"WAL","latitude":"50.68363000","longitude":"4.36784000","population":39837,"timezone":"Europe/Brussels","type":"city","translations":{"es":"Braine-l'Alleud","en":"Braine-l'Alleud"}},{"name":"Braine-le-Château","state_code":"WAL","latitude":"50.67990000","longitude":"4.27385000","population":10447,"timezone":"Europe/Brussels","type":"city","translations":{"es":"Braine-le-Château","en":"Braine-le-Château"}},{"name":"Braine-le-Comte","state_code":"WAL","latitude":"50.60979000","longitude":"4.14658000","population":23133,"timezone":"Europe/Brussels","type":"city","translations":{"es":"Braine-le-Comte","en":"Braine-le-Comte"}},{"name":"Braives","state_code":"WAL","latitude":"50.61745000","longitude":"5.13302000","population":6325,"timezone":"Europe/Brussels","type":"city","translations":{"es":"Braives","en":"Braives"}},{"name":"Brugelette","state_code":"WAL","latitude":"50.59577000","longitude":"3.85363000","population":3658,"timezone":"Europe/Brussels","type":"city","translations":{"es":"Brugelette","en":"Brugelette"}},{"name":"Brunehault","state_code":"WAL","latitude":"50.50524000","longitude":"4.43209000","population":7592,"timezone":"Europe/Brussels","type":"city","translations":{"es":"Brunehault","en":"Brunehault"}},{"name":"Bullange","state_code":"WAL","latitude":"50.40731000","longitude":"6.25749000","population":5340,"timezone":"Europe/Brussels","type":"city","translations":{"es":"Bullange","en":"Bullange"}},{"name":"Burdinne","state_code":"WAL","latitude":"50.58454000","longitude":"5.07663000","population":3236,"timezone":"Europe/Brussels","type":"city","translations":{"es":"Burdinne","en":"Burdinne"}},{"name":"Butgenbach","state_code":"WAL","latitude":"50.42689000","longitude":"6.20504000","population":5607,"timezone":"Europe/Brussels","type":"city","translations":{"es":"Bütgenbach","en":"Butgenbach"}},{"name":"Celles","state_code":"WAL","latitude":"50.71229000","longitude":"3.45733000","population":675,"timezone":"Europe/Brussels","type":"city","translations":{"es":"Celles","en":"Celles"}},{"name":"Cerfontaine","state_code":"WAL","latitude":"50.17047000","longitude":"4.41028000","population":4927,"timezone":"Europe/Brussels","type":"city","translations":{"es":"Cerfontaine","en":"Cerfontaine"}},{"name":"Chapelle-lez-Herlaimont","state_code":"WAL","latitude":"50.47130000","longitude":"4.28227000","population":14900,"timezone":"Europe/Brussels","type":"city","translations":{"es":"Capilla-lez-Herlaimont","en":"Chapelle-lez-Herlaimont"}},{"name":"Charleroi","state_code":"WAL","latitude":"50.41136000","longitude":"4.44448000","population":204322,"timezone":"Europe/Brussels","type":"city","translations":{"es":"Charleroi","en":"Charleroi"}},{"name":"Chastre-Villeroux-Blanmont","state_code":"WAL","latitude":"50.60857000","longitude":"4.64198000","population":6243,"timezone":"Europe/Brussels","type":"city","translations":{"es":"Chastre-Villeroux-Blanmont","en":"Chastre-Villeroux-Blanmont"}},{"name":"Châtelet","state_code":"WAL","latitude":"50.40338000","longitude":"4.52826000","population":36101,"timezone":"Europe/Brussels","type":"city","translations":{"es":"Châtelet","en":"Châtelet"}},{"name":"Chaudfontaine","state_code":"WAL","latitude":"50.58280000","longitude":"5.63410000","population":20935,"timezone":"Europe/Brussels","type":"city","translations":{"es":"Chaudfontaine","en":"Chaudfontaine"}},{"name":"Chaumont-Gistoux","state_code":"WAL","latitude":"50.67753000","longitude":"4.72120000","population":11731,"timezone":"Europe/Brussels","type":"city","translations":{"es":"Chaumont-Gistoux","en":"Chaumont-Gistoux"}},{"name":"Chièvres","state_code":"WAL","latitude":"50.58787000","longitude":"3.80711000","population":6899,"timezone":"Europe/Brussels","type":"city","translations":{"es":"Chièvres","en":"Chièvres"}},{"name":"Chimay","state_code":"WAL","latitude":"50.04856000","longitude":"4.31712000","population":9841,"timezone":"Europe/Brussels","type":"city","translations":{"es":"Chimay","en":"Chimay"}},{"name":"Chiny","state_code":"WAL","latitude":"49.73833000","longitude":"5.34104000","population":5175,"timezone":"Europe/Brussels","type":"city","translations":{"es":"Chino","en":"Chiny"}},{"name":"Ciney","state_code":"WAL","latitude":"50.29449000","longitude":"5.10015000","population":16439,"timezone":"Europe/Brussels","type":"city","translations":{"es":"Ciney","en":"Ciney"}},{"name":"Clavier","state_code":"WAL","latitude":"50.40069000","longitude":"5.35154000","population":4617,"timezone":"Europe/Brussels","type":"city","translations":{"es":"Consola","en":"Clavier"}},{"name":"Colfontaine","state_code":"WAL","latitude":"50.41410000","longitude":"3.85569000","population":20762,"timezone":"Europe/Brussels","type":"city","translations":{"es":"Colfontaine","en":"Colfontaine"}},{"name":"Comblain-au-Pont","state_code":"WAL","latitude":"50.47488000","longitude":"5.57711000","population":5381,"timezone":"Europe/Brussels","type":"city","translations":{"es":"Comblain-au-Pont","en":"Comblain-au-Pont"}},{"name":"Courcelles","state_code":"WAL","latitude":"50.46379000","longitude":"4.37470000","population":31376,"timezone":"Europe/Brussels","type":"city","translations":{"es":"Courcelles","en":"Courcelles"}},{"name":"Court-Saint-Étienne","state_code":"WAL","latitude":"50.63378000","longitude":"4.56851000","population":10500,"timezone":"Europe/Brussels","type":"city","translations":{"es":"Corte-Saint-Étienne","en":"Court-Saint-Étienne"}},{"name":"Couvin","state_code":"WAL","latitude":"50.05284000","longitude":"4.49495000","population":13782,"timezone":"Europe/Brussels","type":"city","translations":{"es":"Couvin","en":"Couvin"}},{"name":"Crisnée","state_code":"WAL","latitude":"50.71703000","longitude":"5.39802000","population":2587,"timezone":"Europe/Brussels","type":"city","translations":{"es":"Crisnée","en":"Crisnée"}},{"name":"Dalhem","state_code":"WAL","latitude":"50.71315000","longitude":"5.72774000","population":7412,"timezone":"Europe/Brussels","type":"city","translations":{"es":"Dalhem","en":"Dalhem"}},{"name":"Daverdisse","state_code":"WAL","latitude":"50.02161000","longitude":"5.11811000","population":1407,"timezone":"Europe/Brussels","type":"city","translations":{"es":"Daverdisse","en":"Daverdisse"}},{"name":"Dinant","state_code":"WAL","latitude":"50.25807000","longitude":"4.91166000","population":13382,"timezone":"Europe/Brussels","type":"city","translations":{"es":"Dinant","en":"Dinant"}},{"name":"Dison","state_code":"WAL","latitude":"50.61004000","longitude":"5.85340000","population":15405,"timezone":"Europe/Brussels","type":"city","translations":{"es":"Disón","en":"Dison"}},{"name":"Doische","state_code":"WAL","latitude":"50.13356000","longitude":"4.73545000","population":2951,"timezone":"Europe/Brussels","type":"city","translations":{"es":"Doische","en":"Doische"}},{"name":"Donceel","state_code":"WAL","latitude":"50.64827000","longitude":"5.32000000","population":3048,"timezone":"Europe/Brussels","type":"city","translations":{"es":"Donceel","en":"Donceel"}},{"name":"Dour","state_code":"WAL","latitude":"50.39583000","longitude":"3.77792000","population":16716,"timezone":"Europe/Brussels","type":"city","translations":{"es":"Austero","en":"Dour"}},{"name":"Durbuy","state_code":"WAL","latitude":"50.35291000","longitude":"5.45631000","population":11637,"timezone":"Europe/Brussels","type":"city","translations":{"es":"Durbuy","en":"Durbuy"}},{"name":"Écaussinnes-d’Enghien","state_code":"WAL","latitude":"50.56822000","longitude":"4.16580000","population":9802,"timezone":"Europe/Brussels","type":"city","translations":{"es":"Écaussinnes-d’Enghien","en":"Écaussinnes-d’Enghien"}},{"name":"Éghezée","state_code":"WAL","latitude":"50.59076000","longitude":"4.91175000","population":16247,"timezone":"Europe/Brussels","type":"city","translations":{"es":"Éghezée","en":"Éghezée"}},{"name":"Ellezelles","state_code":"WAL","latitude":"50.73512000","longitude":"3.67985000","population":6001,"timezone":"Europe/Brussels","type":"city","translations":{"es":"Ellezelles","en":"Ellezelles"}},{"name":"Enghien","state_code":"WAL","latitude":"50.68373000","longitude":"4.03284000","population":13734,"timezone":"Europe/Brussels","type":"adm4","translations":{"es":"Enghien","en":"Enghien"}},{"name":"Engis","state_code":"WAL","latitude":"50.58156000","longitude":"5.39916000","population":6122,"timezone":"Europe/Brussels","type":"city","translations":{"es":"Engis","en":"Engis"}},{"name":"Érezée","state_code":"WAL","latitude":"50.29292000","longitude":"5.55815000","population":3228,"timezone":"Europe/Brussels","type":"city","translations":{"es":"Érezée","en":"Érezée"}},{"name":"Erquelinnes","state_code":"WAL","latitude":"50.30688000","longitude":"4.11129000","population":9940,"timezone":"Europe/Brussels","type":"city","translations":{"es":"Erquelinnes","en":"Erquelinnes"}},{"name":"Esneux","state_code":"WAL","latitude":"50.53596000","longitude":"5.56775000","population":12889,"timezone":"Europe/Brussels","type":"city","translations":{"es":"Esneux","en":"Esneux"}},{"name":"Estaimpuis","state_code":"WAL","latitude":"50.70485000","longitude":"3.26785000","population":10424,"timezone":"Europe/Brussels","type":"city","translations":{"es":"Estaimpuis","en":"Estaimpuis"}},{"name":"Estinnes-au-Val","state_code":"WAL","latitude":"50.41016000","longitude":"4.10477000","population":7573,"timezone":"Europe/Brussels","type":"city","translations":{"es":"Estinnes-au-Val","en":"Estinnes-au-Val"}},{"name":"Étalle","state_code":"WAL","latitude":"49.67385000","longitude":"5.60019000","population":5855,"timezone":"Europe/Brussels","type":"city","translations":{"es":"Étalle","en":"Étalle"}},{"name":"Eupen","state_code":"WAL","latitude":"50.62790000","longitude":"6.03647000","population":19526,"timezone":"Europe/Brussels","type":"city","translations":{"es":"Eupen","en":"Eupen"}},{"name":"Faimes","state_code":"WAL","latitude":"50.66252000","longitude":"5.26005000","population":3947,"timezone":"Europe/Brussels","type":"city","translations":{"es":"Faimes","en":"Faimes"}},{"name":"Farciennes","state_code":"WAL","latitude":"50.43006000","longitude":"4.54152000","population":11247,"timezone":"Europe/Brussels","type":"city","translations":{"es":"Farciennes","en":"Farciennes"}},{"name":"Fauvillers","state_code":"WAL","latitude":"49.85116000","longitude":"5.66405000","population":2253,"timezone":"Europe/Brussels","type":"city","translations":{"es":"Fauvillers","en":"Fauvillers"}},{"name":"Ferrières","state_code":"WAL","latitude":"50.40157000","longitude":"5.61092000","population":4918,"timezone":"Europe/Brussels","type":"city","translations":{"es":"Ferrières","en":"Ferrières"}},{"name":"Fexhe-le-Haut-Clocher","state_code":"WAL","latitude":"50.66540000","longitude":"5.39978000","population":3263,"timezone":"Europe/Brussels","type":"city","translations":{"es":"Fexhe-le-Haut-Clocher","en":"Fexhe-le-Haut-Clocher"}},{"name":"Flémalle-Haute","state_code":"WAL","latitude":"50.59994000","longitude":"5.44471000","population":25144,"timezone":"Europe/Brussels","type":"city","translations":{"es":"Flémalle-Haute","en":"Flémalle-Haute"}},{"name":"Fléron","state_code":"WAL","latitude":"50.61516000","longitude":"5.68062000","population":16495,"timezone":"Europe/Brussels","type":"city","translations":{"es":"Fléron","en":"Fléron"}},{"name":"Fleurus","state_code":"WAL","latitude":"50.48351000","longitude":"4.55006000","population":22738,"timezone":"Europe/Brussels","type":"city","translations":{"es":"Flor","en":"Fleurus"}},{"name":"Flobecq","state_code":"WAL","latitude":"50.73733000","longitude":"3.73876000","population":3420,"timezone":"Europe/Brussels","type":"city","translations":{"es":"Flobecq","en":"Flobecq"}},{"name":"Floreffe","state_code":"WAL","latitude":"50.43452000","longitude":"4.75960000","population":8114,"timezone":"Europe/Brussels","type":"city","translations":{"es":"Floreffe","en":"Floreffe"}},{"name":"Florennes","state_code":"WAL","latitude":"50.25127000","longitude":"4.60636000","population":11410,"timezone":"Europe/Brussels","type":"city","translations":{"es":"Florennes","en":"Florennes"}},{"name":"Florenville","state_code":"WAL","latitude":"49.69983000","longitude":"5.30740000","population":5629,"timezone":"Europe/Brussels","type":"city","translations":{"es":"Florenville","en":"Florenville"}},{"name":"Forville","state_code":"WAL","latitude":"50.57424000","longitude":"4.99861000","population":1374,"timezone":"Europe/Brussels","type":"city","translations":{"es":"Forville","en":"Forville"}},{"name":"Fosses-la-Ville","state_code":"WAL","latitude":"50.39517000","longitude":"4.69623000","population":10449,"timezone":"Europe/Brussels","type":"city","translations":{"es":"Fosses-la-Ville","en":"Fosses-la-Ville"}},{"name":"Frameries","state_code":"WAL","latitude":"50.40578000","longitude":"3.89603000","population":21878,"timezone":"Europe/Brussels","type":"city","translations":{"es":"Marcos","en":"Frameries"}},{"name":"Frasnes-lez-Buissenal","state_code":"WAL","latitude":"50.66783000","longitude":"3.62047000","population":10936,"timezone":"Europe/Brussels","type":"city","translations":{"es":"Frasnes-lez-Buissenal","en":"Frasnes-lez-Buissenal"}},{"name":"Froidchapelle","state_code":"WAL","latitude":"50.15106000","longitude":"4.32742000","population":3953,"timezone":"Europe/Brussels","type":"city","translations":{"es":"Froidchapelle","en":"Froidchapelle"}},{"name":"Gedinne","state_code":"WAL","latitude":"49.98037000","longitude":"4.93674000","population":4563,"timezone":"Europe/Brussels","type":"city","translations":{"es":"Gedinne","en":"Gedinne"}},{"name":"Geer","state_code":"WAL","latitude":"50.66990000","longitude":"5.17364000","population":2682,"timezone":"Europe/Brussels","type":"city","translations":{"es":"Geer","en":"Geer"}},{"name":"Gembloux","state_code":"WAL","latitude":"50.56149000","longitude":"4.69889000","population":25933,"timezone":"Europe/Brussels","type":"city","translations":{"es":"Gembloux","en":"Gembloux"}},{"name":"Genappe","state_code":"WAL","latitude":"50.61173000","longitude":"4.45152000","population":15353,"timezone":"Europe/Brussels","type":"city","translations":{"es":"Genappe","en":"Genappe"}},{"name":"Gerpinnes","state_code":"WAL","latitude":"50.33789000","longitude":"4.52731000","population":835,"timezone":"Europe/Brussels","type":"city","translations":{"es":"Gerpinnes","en":"Gerpinnes"}},{"name":"Gesves","state_code":"WAL","latitude":"50.40146000","longitude":"5.07457000","population":7210,"timezone":"Europe/Brussels","type":"city","translations":{"es":"Gesves","en":"Gesves"}},{"name":"Gouvy","state_code":"WAL","latitude":"50.18600000","longitude":"5.93917000","population":5206,"timezone":"Europe/Brussels","type":"city","translations":{"es":"Gouvy","en":"Gouvy"}},{"name":"Grez-Doiceau","state_code":"WAL","latitude":"50.73901000","longitude":"4.69829000","population":13368,"timezone":"Europe/Brussels","type":"city","translations":{"es":"Grez-Doiceau","en":"Grez-Doiceau"}},{"name":"Habay-la-Vieille","state_code":"WAL","latitude":"49.72329000","longitude":"5.61999000","population":7704,"timezone":"Europe/Brussels","type":"city","translations":{"es":"Habay-la-Vieille","en":"Habay-la-Vieille"}},{"name":"Hamoir","state_code":"WAL","latitude":"50.42675000","longitude":"5.53304000","population":3872,"timezone":"Europe/Brussels","type":"city","translations":{"es":"Hamoir","en":"Hamoir"}},{"name":"Hamois","state_code":"WAL","latitude":"50.34020000","longitude":"5.15619000","population":7349,"timezone":"Europe/Brussels","type":"city","translations":{"es":"Hamois","en":"Hamois"}},{"name":"Hannut","state_code":"WAL","latitude":"50.67142000","longitude":"5.07898000","population":16435,"timezone":"Europe/Brussels","type":"adm4","translations":{"es":"Hannut","en":"Hannut"}},{"name":"Hastière-Lavaux","state_code":"WAL","latitude":"50.21849000","longitude":"4.82446000","population":5147,"timezone":"Europe/Brussels","type":"city","translations":{"es":"Hastière-Lavaux","en":"Hastière-Lavaux"}},{"name":"Havelange","state_code":"WAL","latitude":"50.38931000","longitude":"5.23816000","population":5130,"timezone":"Europe/Brussels","type":"city","translations":{"es":"Havelange","en":"Havelange"}},{"name":"Hensies","state_code":"WAL","latitude":"50.43263000","longitude":"3.68411000","population":6828,"timezone":"Europe/Brussels","type":"city","translations":{"es":"Hensies","en":"Hensies"}},{"name":"Herbeumont","state_code":"WAL","latitude":"49.78086000","longitude":"5.23580000","population":1627,"timezone":"Europe/Brussels","type":"city","translations":{"es":"Herbeumont","en":"Herbeumont"}},{"name":"Héron","state_code":"WAL","latitude":"50.54731000","longitude":"5.09774000","population":5277,"timezone":"Europe/Brussels","type":"city","translations":{"es":"Garza","en":"Héron"}},{"name":"Herstal","state_code":"WAL","latitude":"50.66415000","longitude":"5.62346000","population":39958,"timezone":"Europe/Brussels","type":"city","translations":{"es":"Herstal","en":"Herstal"}},{"name":"Herve","state_code":"WAL","latitude":"50.64083000","longitude":"5.79353000","population":17598,"timezone":"Europe/Brussels","type":"city","translations":{"es":"Hervé","en":"Herve"}},{"name":"Hotton","state_code":"WAL","latitude":"50.26742000","longitude":"5.44609000","population":5531,"timezone":"Europe/Brussels","type":"city","translations":{"es":"Hotton","en":"Hotton"}},{"name":"Houffalize","state_code":"WAL","latitude":"50.13235000","longitude":"5.78962000","population":5292,"timezone":"Europe/Brussels","type":"city","translations":{"es":"Houffalizar","en":"Houffalize"}},{"name":"Houyet","state_code":"WAL","latitude":"50.18619000","longitude":"5.00762000","population":4876,"timezone":"Europe/Brussels","type":"city","translations":{"es":"Houyet","en":"Houyet"}},{"name":"Huy","state_code":"WAL","latitude":"50.51894000","longitude":"5.23284000","population":21293,"timezone":"Europe/Brussels","type":"city","translations":{"es":"Huy","en":"Huy"}},{"name":"Incourt","state_code":"WAL","latitude":"50.69151000","longitude":"4.79816000","population":4395,"timezone":"Europe/Brussels","type":"city","translations":{"es":"En el tribunal","en":"Incourt"}},{"name":"Ittre","state_code":"WAL","latitude":"50.64396000","longitude":"4.26476000","population":6865,"timezone":"Europe/Brussels","type":"city","translations":{"es":"Ittre","en":"Ittre"}},{"name":"Jalhay","state_code":"WAL","latitude":"50.55876000","longitude":"5.96764000","population":8590,"timezone":"Europe/Brussels","type":"city","translations":{"es":"Jalhay","en":"Jalhay"}},{"name":"Jodoigne","state_code":"WAL","latitude":"50.72357000","longitude":"4.86914000","population":14079,"timezone":"Europe/Brussels","type":"city","translations":{"es":"Jodoigne","en":"Jodoigne"}},{"name":"Juprelle","state_code":"WAL","latitude":"50.70760000","longitude":"5.53127000","population":9288,"timezone":"Europe/Brussels","type":"city","translations":{"es":"Juprelle","en":"Juprelle"}},{"name":"Jurbise","state_code":"WAL","latitude":"50.53100000","longitude":"3.90942000","population":10417,"timezone":"Europe/Brussels","type":"city","translations":{"es":"Jurbise","en":"Jurbise"}},{"name":"La Bruyère","state_code":"WAL","latitude":"50.39478000","longitude":"4.61444000","population":9226,"timezone":"Europe/Brussels","type":"city","translations":{"es":"La Bruyère","en":"La Bruyère"}},{"name":"La Calamine","state_code":"WAL","latitude":"50.71809000","longitude":"6.01107000","population":10232,"timezone":"Europe/Brussels","type":"city","translations":{"es":"La Calamina","en":"La Calamine"}},{"name":"La Hulpe","state_code":"WAL","latitude":"50.73091000","longitude":"4.48577000","population":7320,"timezone":"Europe/Brussels","type":"city","translations":{"es":"La Hulpe","en":"La Hulpe"}},{"name":"La Louvière","state_code":"WAL","latitude":"50.48657000","longitude":"4.18785000","population":80986,"timezone":"Europe/Brussels","type":"city","translations":{"es":"La Louvière","en":"La Louvière"}},{"name":"La Roche-en-Ardenne","state_code":"WAL","latitude":"50.18361000","longitude":"5.57547000","population":4194,"timezone":"Europe/Brussels","type":"city","translations":{"es":"La Roche-en-Ardenne","en":"La Roche-en-Ardenne"}},{"name":"Léglise","state_code":"WAL","latitude":"49.79985000","longitude":"5.53652000","population":3865,"timezone":"Europe/Brussels","type":"city","translations":{"es":"Léglise","en":"Léglise"}},{"name":"Lens","state_code":"WAL","latitude":"50.55696000","longitude":"3.89946000","population":4508,"timezone":"Europe/Brussels","type":"city","translations":{"es":"Lente","en":"Lens"}},{"name":"Lessines","state_code":"WAL","latitude":"50.71104000","longitude":"3.83579000","population":18552,"timezone":"Europe/Brussels","type":"city","translations":{"es":"Lecciones","en":"Lessines"}},{"name":"Libin","state_code":"WAL","latitude":"49.98107000","longitude":"5.25612000","population":5164,"timezone":"Europe/Brussels","type":"city","translations":{"es":"Libin","en":"Libin"}},{"name":"Liège","state_code":"WAL","latitude":"50.63373000","longitude":"5.56749000","population":195278,"timezone":"Europe/Brussels","type":"city","translations":{"es":"Feudal","en":"Liège"}},{"name":"Lierneux","state_code":"WAL","latitude":"50.28477000","longitude":"5.79236000","population":3601,"timezone":"Europe/Brussels","type":"city","translations":{"es":"Lierneux","en":"Lierneux"}},{"name":"Limbourg","state_code":"WAL","latitude":"50.61222000","longitude":"5.94120000","population":5939,"timezone":"Europe/Brussels","type":"city","translations":{"es":"Limburgo","en":"Limbourg"}},{"name":"Lincent","state_code":"WAL","latitude":"50.71222000","longitude":"5.03654000","population":3292,"timezone":"Europe/Brussels","type":"adm4","translations":{"es":"Lincent","en":"Lincent"}},{"name":"Lobbes","state_code":"WAL","latitude":"50.35258000","longitude":"4.26716000","population":5885,"timezone":"Europe/Brussels","type":"city","translations":{"es":"Lobbes","en":"Lobbes"}},{"name":"Lontzen","state_code":"WAL","latitude":"50.68126000","longitude":"6.00712000","population":5695,"timezone":"Europe/Brussels","type":"city","translations":{"es":"Lontzen","en":"Lontzen"}},{"name":"Louvain-la-Neuve","state_code":"WAL","latitude":"50.66829000","longitude":"4.61443000","population":29521,"timezone":"Europe/Brussels","type":"city","translations":{"es":"Lovaina la Nueva","en":"Louvain-la-Neuve"}},{"name":"Malmédy","state_code":"WAL","latitude":"50.42686000","longitude":"6.02794000","population":12654,"timezone":"Europe/Brussels","type":"city","translations":{"es":"Malmedy","en":"Malmédy"}},{"name":"Manage","state_code":"WAL","latitude":"50.50312000","longitude":"4.23589000","population":23122,"timezone":"Europe/Brussels","type":"city","translations":{"es":"Administrar","en":"Manage"}},{"name":"Manhay","state_code":"WAL","latitude":"50.29219000","longitude":"5.67562000","population":3463,"timezone":"Europe/Brussels","type":"city","translations":{"es":"Manhay","en":"Manhay"}},{"name":"Marche-en-Famenne","state_code":"WAL","latitude":"50.22678000","longitude":"5.34416000","population":17455,"timezone":"Europe/Brussels","type":"city","translations":{"es":"Marche-en-Famenne","en":"Marche-en-Famenne"}},{"name":"Marchin","state_code":"WAL","latitude":"50.46707000","longitude":"5.24280000","population":5460,"timezone":"Europe/Brussels","type":"city","translations":{"es":"Marchin","en":"Marchin"}},{"name":"Martelange","state_code":"WAL","latitude":"49.83195000","longitude":"5.73655000","population":1440,"timezone":"Europe/Brussels","type":"city","translations":{"es":"Martelange","en":"Martelange"}},{"name":"Meix-devant-Virton","state_code":"WAL","latitude":"49.60581000","longitude":"5.48045000","population":2831,"timezone":"Europe/Brussels","type":"city","translations":{"es":"Meix-devant-Virton","en":"Meix-devant-Virton"}},{"name":"Merbes-le-Château","state_code":"WAL","latitude":"50.32449000","longitude":"4.16489000","population":4251,"timezone":"Europe/Brussels","type":"city","translations":{"es":"Merbes-le-Château","en":"Merbes-le-Château"}},{"name":"Messancy","state_code":"WAL","latitude":"49.59201000","longitude":"5.81879000","population":8185,"timezone":"Europe/Brussels","type":"city","translations":{"es":"Mensajería","en":"Messancy"}},{"name":"Mettet","state_code":"WAL","latitude":"50.32119000","longitude":"4.66232000","population":13037,"timezone":"Europe/Brussels","type":"city","translations":{"es":"Mettet","en":"Mettet"}},{"name":"Modave","state_code":"WAL","latitude":"50.44614000","longitude":"5.29532000","population":4200,"timezone":"Europe/Brussels","type":"city","translations":{"es":"Modave","en":"Modave"}},{"name":"Momignies","state_code":"WAL","latitude":"50.02710000","longitude":"4.16519000","population":5309,"timezone":"Europe/Brussels","type":"city","translations":{"es":"Momignies","en":"Momignies"}},{"name":"Mons","state_code":"WAL","latitude":"50.45413000","longitude":"3.95229000","population":95299,"timezone":"Europe/Brussels","type":"city","translations":{"es":"Mons","en":"Mons"}},{"name":"Mons-lez-Liège","state_code":"WAL","latitude":"50.61667000","longitude":"5.46667000","population":4936,"timezone":"Europe/Brussels","type":"city","translations":{"es":"Mons-lez-Liège","en":"Mons-lez-Liège"}},{"name":"Mont-Saint-Guibert","state_code":"WAL","latitude":"50.63427000","longitude":"4.61061000","population":7562,"timezone":"Europe/Brussels","type":"city","translations":{"es":"Monte Saint-Guibert","en":"Mont-Saint-Guibert"}},{"name":"Morlanwelz-Mariemont","state_code":"WAL","latitude":"50.45502000","longitude":"4.24519000","population":18233,"timezone":"Europe/Brussels","type":"city","translations":{"es":"Morlanwelz-Mariemont","en":"Morlanwelz-Mariemont"}},{"name":"Mouscron","state_code":"WAL","latitude":"50.74497000","longitude":"3.20639000","population":58234,"timezone":"Europe/Brussels","type":"adm3","translations":{"es":"Mouscron","en":"Mouscron"}},{"name":"Musson","state_code":"WAL","latitude":"49.55835000","longitude":"5.70525000","population":4508,"timezone":"Europe/Brussels","type":"city","translations":{"es":"Musson","en":"Musson"}},{"name":"Namur","state_code":"WAL","latitude":"50.46690000","longitude":"4.86746000","population":114007,"timezone":"Europe/Brussels","type":"adm1","translations":{"es":"Namur","en":"Namur"}},{"name":"Nandrin","state_code":"WAL","latitude":"50.50675000","longitude":"5.41905000","population":559,"timezone":"Europe/Brussels","type":"city","translations":{"es":"Nandrin","en":"Nandrin"}},{"name":"Nassogne","state_code":"WAL","latitude":"50.12849000","longitude":"5.34274000","population":5474,"timezone":"Europe/Brussels","type":"city","translations":{"es":"Nassogne","en":"Nassogne"}},{"name":"Neufchâteau","state_code":"WAL","latitude":"49.84074000","longitude":"5.43535000","population":6416,"timezone":"Europe/Brussels","type":"adm3","translations":{"es":"Neufchâteau","en":"Neufchâteau"}},{"name":"Nivelles","state_code":"WAL","latitude":"50.59833000","longitude":"4.32848000","population":28521,"timezone":"Europe/Brussels","type":"city","translations":{"es":"Nivelles","en":"Nivelles"}},{"name":"Noville-les-Bois","state_code":"WAL","latitude":"50.55702000","longitude":"4.98466000","population":1426,"timezone":"Europe/Brussels","type":"city","translations":{"es":"Noville-les-Bois","en":"Noville-les-Bois"}},{"name":"Ohey","state_code":"WAL","latitude":"50.43570000","longitude":"5.12375000","population":5090,"timezone":"Europe/Brussels","type":"city","translations":{"es":"Oh, oye","en":"Ohey"}},{"name":"Olne","state_code":"WAL","latitude":"50.58994000","longitude":"5.74662000","population":4087,"timezone":"Europe/Brussels","type":"city","translations":{"es":"Olne","en":"Olne"}},{"name":"Onhaye","state_code":"WAL","latitude":"50.24148000","longitude":"4.84069000","population":3201,"timezone":"Europe/Brussels","type":"city","translations":{"es":"Onhaye","en":"Onhaye"}},{"name":"Oreye","state_code":"WAL","latitude":"50.71749000","longitude":"5.34880000","population":3912,"timezone":"Europe/Brussels","type":"city","translations":{"es":"Oreye","en":"Oreye"}},{"name":"Ottignies","state_code":"WAL","latitude":"50.66535000","longitude":"4.56679000","population":9557,"timezone":"Europe/Brussels","type":"city","translations":{"es":"Ottignies","en":"Ottignies"}},{"name":"Ouffet","state_code":"WAL","latitude":"50.43870000","longitude":"5.46570000","population":2802,"timezone":"Europe/Brussels","type":"city","translations":{"es":"Ouffet","en":"Ouffet"}},{"name":"Oupeye","state_code":"WAL","latitude":"50.71184000","longitude":"5.64680000","population":25297,"timezone":"Europe/Brussels","type":"city","translations":{"es":"Oupeye","en":"Oupeye"}},{"name":"Paliseul","state_code":"WAL","latitude":"49.90395000","longitude":"5.13537000","population":5393,"timezone":"Europe/Brussels","type":"city","translations":{"es":"Paliseul","en":"Paliseul"}},{"name":"Pecq","state_code":"WAL","latitude":"50.68619000","longitude":"3.33789000","population":1498,"timezone":"Europe/Brussels","type":"city","translations":{"es":"Pecq","en":"Pecq"}},{"name":"Pepinster","state_code":"WAL","latitude":"50.57375000","longitude":"5.80490000","population":9765,"timezone":"Europe/Brussels","type":"city","translations":{"es":"Pepinster","en":"Pepinster"}},{"name":"Péruwelz","state_code":"WAL","latitude":"50.50819000","longitude":"3.59373000","population":17113,"timezone":"Europe/Brussels","type":"city","translations":{"es":"Péruwelz","en":"Péruwelz"}},{"name":"Perwez","state_code":"WAL","latitude":"50.62426000","longitude":"4.81354000","population":2632,"timezone":"Europe/Brussels","type":"city","translations":{"es":"Perwez","en":"Perwez"}},{"name":"Philippeville","state_code":"WAL","latitude":"50.19612000","longitude":"4.54374000","population":9228,"timezone":"Europe/Brussels","type":"adm3","translations":{"es":"Philippeville","en":"Philippeville"}},{"name":"Plombières","state_code":"WAL","latitude":"50.73656000","longitude":"5.95922000","population":10401,"timezone":"Europe/Brussels","type":"city","translations":{"es":"Plombières","en":"Plombières"}},{"name":"Pont-à-Celles","state_code":"WAL","latitude":"50.50518000","longitude":"4.36887000","population":17287,"timezone":"Europe/Brussels","type":"city","translations":{"es":"Pont-à-Celles","en":"Pont-à-Celles"}},{"name":"Profondeville","state_code":"WAL","latitude":"50.37581000","longitude":"4.86506000","population":12204,"timezone":"Europe/Brussels","type":"city","translations":{"es":"Profondeville","en":"Profondeville"}},{"name":"Province de Liège","state_code":"WAL","latitude":"50.63427000","longitude":"5.56543000","population":null,"timezone":"Europe/Brussels","type":"city","translations":{"es":"Provincia de Lieja","en":"Province de Liège"}},{"name":"Province de Namur","state_code":"WAL","latitude":"50.33333000","longitude":"4.83333000","population":null,"timezone":"Europe/Brussels","type":"city","translations":{"es":"Provincia de Namur","en":"Province de Namur"}},{"name":"Province du Brabant Wallon","state_code":"WAL","latitude":"50.75000000","longitude":"4.58333000","population":null,"timezone":"Europe/Brussels","type":"city","translations":{"es":"Provincia del Brabante Valón","en":"Province du Brabant Wallon"}},{"name":"Province du Hainaut","state_code":"WAL","latitude":"50.50000000","longitude":"3.83333000","population":6137,"timezone":"Europe/Brussels","type":"city","translations":{"es":"Provincia de Hainaut","en":"Province du Hainaut"}},{"name":"Quaregnon","state_code":"WAL","latitude":"50.44067000","longitude":"3.86530000","population":19006,"timezone":"Europe/Brussels","type":"city","translations":{"es":"Quaregnon","en":"Quaregnon"}},{"name":"Quévy-le-Petit","state_code":"WAL","latitude":"50.36879000","longitude":"3.93602000","population":7689,"timezone":"Europe/Brussels","type":"city","translations":{"es":"Quévy-le-Petit","en":"Quévy-le-Petit"}},{"name":"Quiévrain","state_code":"WAL","latitude":"50.40737000","longitude":"3.68351000","population":6759,"timezone":"Europe/Brussels","type":"city","translations":{"es":"Quiévrain","en":"Quiévrain"}},{"name":"Raeren","state_code":"WAL","latitude":"50.66720000","longitude":"6.11535000","population":10707,"timezone":"Europe/Brussels","type":"city","translations":{"es":"Raeren","en":"Raeren"}},{"name":"Ramillies","state_code":"WAL","latitude":"50.63395000","longitude":"4.90119000","population":6394,"timezone":"Europe/Brussels","type":"city","translations":{"es":"Ramillies","en":"Ramillies"}},