[{"name":"Jidd Ḩafş","state_code":"13","latitude":"26.21861000","longitude":"50.54778000","population":66588,"timezone":"Asia/Bahrain","type":"city","translations":{"es":"Jidd Ḩafş","en":"Jidd Ḩafş"}},{"name":"Manama","state_code":"13","latitude":"26.22787000","longitude":"50.58565000","population":147074,"timezone":"Asia/Bahrain","type":"capital","translations":{"es":"Manama","en":"Manama"}},{"name":"Sitrah","state_code":"13","latitude":"26.15472000","longitude":"50.62056000","population":72601,"timezone":"Asia/Bahrain","type":"city","translations":{"es":"Sitrah","en":"Sitrah"}},{"name":"Al Ḩadd","state_code":"15","latitude":"26.24556000","longitude":"50.65417000","population":12797,"timezone":"Asia/Bahrain","type":"city","translations":{"es":"Al Hadd","en":"Al Ḩadd"}},{"name":"Al Muharraq","state_code":"15","latitude":"26.25722000","longitude":"50.61194000","population":176583,"timezone":"Asia/Bahrain","type":"city","translations":{"es":"Al Muharraq","en":"Al Muharraq"}},{"name":"Madīnat Ḩamad","state_code":"17","latitude":"26.11528000","longitude":"50.50694000","population":133550,"timezone":"Asia/Bahrain","type":"city","translations":{"es":"Madinat Hamad","en":"Madīnat Ḩamad"}},{"name":"Ar Rifā‘","state_code":"14","latitude":"26.13000000","longitude":"50.55500000","population":115495,"timezone":"Asia/Bahrain","type":"city","translations":{"es":"Ar Rifā‘","en":"Ar Rifā‘"}},{"name":"Dār Kulayb","state_code":"14","latitude":"26.06861000","longitude":"50.50389000","population":65466,"timezone":"Asia/Bahrain","type":"city","translations":{"es":"Dar Kulayb","en":"Dār Kulayb"}},{"name":"Madīnat ‘Īsá","state_code":"14","latitude":"26.17361000","longitude":"50.54778000","population":38090,"timezone":"Asia/Bahrain","type":"city","translations":{"es":"Madinat ‘Isá","en":"Madīnat ‘Īsá"}}]