[{"name":"Banikoara","state_code":"AL","latitude":"11.29845000","longitude":"2.43856000","population":37571,"timezone":"Africa/Porto-Novo","type":"city","translations":{"es":"Banikoara","en":"Banikoara"}},{"name":"Kandi","state_code":"AL","latitude":"11.13417000","longitude":"2.93861000","population":56043,"timezone":"Africa/Porto-Novo","type":"adm1","translations":{"es":"Kandi","en":"Kandi"}},{"name":"Malanville","state_code":"AL","latitude":"11.86819000","longitude":"3.38327000","population":64639,"timezone":"Africa/Porto-Novo","type":"adm3","translations":{"es":"Malanville","en":"Malanville"}},{"name":"Guilmaro","state_code":"AK","latitude":"10.56583000","longitude":"1.72444000","population":6516,"timezone":"Africa/Porto-Novo","type":"city","translations":{"es":"Guilmaro","en":"Guilmaro"}},{"name":"Natitingou","state_code":"AK","latitude":"10.30416000","longitude":"1.37962000","population":53284,"timezone":"Africa/Porto-Novo","type":"adm1","translations":{"es":"Natitingou","en":"Natitingou"}},{"name":"Tanguieta","state_code":"AK","latitude":"11.03621000","longitude":"1.41757000","population":54719,"timezone":"Africa/Porto-Novo","type":"city","translations":{"es":"Tanguieta","en":"Tanguieta"}},{"name":"Abomey-Calavi","state_code":"AQ","latitude":"6.44852000","longitude":"2.35566000","population":385755,"timezone":"Africa/Porto-Novo","type":"city","translations":{"es":"Abomey-Calavi","en":"Abomey-Calavi"}},{"name":"Allada","state_code":"AQ","latitude":"6.66547000","longitude":"2.15138000","population":23287,"timezone":"Africa/Porto-Novo","type":"adm1","translations":{"es":"Allada","en":"Allada"}},{"name":"Hévié","state_code":"AQ","latitude":"6.41667000","longitude":"2.25000000","population":13450,"timezone":"Africa/Porto-Novo","type":"city","translations":{"es":"Hévié","en":"Hévié"}},{"name":"Hinvi","state_code":"AQ","latitude":"6.76667000","longitude":"2.16667000","population":3604,"timezone":"Africa/Porto-Novo","type":"city","translations":{"es":"Hinvi","en":"Hinvi"}},{"name":"Ouidah","state_code":"AQ","latitude":"6.36307000","longitude":"2.08506000","population":47616,"timezone":"Africa/Porto-Novo","type":"city","translations":{"es":"Ouidah","en":"Ouidah"}},{"name":"Bembèrèkè","state_code":"BO","latitude":"10.22827000","longitude":"2.66335000","population":31176,"timezone":"Africa/Porto-Novo","type":"city","translations":{"es":"Bembèrèkè","en":"Bembèrèkè"}},{"name":"Bétérou","state_code":"BO","latitude":"9.19916000","longitude":"2.25855000","population":13108,"timezone":"Africa/Porto-Novo","type":"city","translations":{"es":"Bétérou","en":"Bétérou"}},{"name":"Nikki","state_code":"BO","latitude":"9.94009000","longitude":"3.21075000","population":66109,"timezone":"Africa/Porto-Novo","type":"city","translations":{"es":"Nikki","en":"Nikki"}},{"name":"Parakou","state_code":"BO","latitude":"9.33716000","longitude":"2.63031000","population":255478,"timezone":"Africa/Porto-Novo","type":"adm1","translations":{"es":"Parakou","en":"Parakou"}},{"name":"Tchaourou","state_code":"BO","latitude":"8.88649000","longitude":"2.59753000","population":43862,"timezone":"Africa/Porto-Novo","type":"city","translations":{"es":"Tchaourou","en":"Tchaourou"}},{"name":"Comé","state_code":"CO","latitude":"6.40764000","longitude":"1.88198000","population":42586,"timezone":"Africa/Porto-Novo","type":"city","translations":{"es":"Venir","en":"Comé"}},{"name":"Dassa-Zoumé","state_code":"CO","latitude":"7.75000000","longitude":"2.18333000","population":29461,"timezone":"Africa/Porto-Novo","type":"adm1","translations":{"es":"Dassa-Zoumé","en":"Dassa-Zoumé"}},{"name":"Savalou","state_code":"CO","latitude":"7.92807000","longitude":"1.97558000","population":38162,"timezone":"Africa/Porto-Novo","type":"city","translations":{"es":"Savalou","en":"Savalou"}},{"name":"Savé","state_code":"CO","latitude":"8.03424000","longitude":"2.48660000","population":31444,"timezone":"Africa/Porto-Novo","type":"city","translations":{"es":"Ahorrar","en":"Savé"}},{"name":"Bassila","state_code":"DO","latitude":"9.00814000","longitude":"1.66540000","population":46569,"timezone":"Africa/Porto-Novo","type":"city","translations":{"es":"Bassila","en":"Bassila"}},{"name":"Commune of Djougou","state_code":"DO","latitude":"9.64300000","longitude":"1.89600000","population":237040,"timezone":"Africa/Porto-Novo","type":"city","translations":{"es":"Comuna de Djougou","en":"Commune of Djougou"}},{"name":"Djougou","state_code":"DO","latitude":"9.70853000","longitude":"1.66598000","population":94773,"timezone":"Africa/Porto-Novo","type":"adm1","translations":{"es":"Djougou","en":"Djougou"}},{"name":"Djakotomey","state_code":"KO","latitude":"6.90000000","longitude":"1.71667000","population":19498,"timezone":"Africa/Porto-Novo","type":"city","translations":{"es":"Djakotomey","en":"Djakotomey"}},{"name":"Dogbo","state_code":"KO","latitude":"6.79911000","longitude":"1.78073000","population":41341,"timezone":"Africa/Porto-Novo","type":"adm2","translations":{"es":"Dogbo","en":"Dogbo"}},{"name":"Cotonou","state_code":"LI","latitude":"6.36536000","longitude":"2.41833000","population":679012,"timezone":"Africa/Porto-Novo","type":"gov_seat","translations":{"es":"Cotonú","en":"Cotonou"}},{"name":"Commune of Athieme","state_code":"MO","latitude":"6.56924000","longitude":"1.70259000","population":null,"timezone":"Africa/Porto-Novo","type":"adm2","translations":{"es":"Comuna de Athieme","en":"Commune of Athieme"}},{"name":"Lokossa","state_code":"MO","latitude":"6.63869000","longitude":"1.71674000","population":47246,"timezone":"Africa/Porto-Novo","type":"adm1","translations":{"es":"Lokossa","en":"Lokossa"}},{"name":"Porto-Novo","state_code":"OU","latitude":"6.49646000","longitude":"2.60359000","population":234168,"timezone":"Africa/Porto-Novo","type":"capital","translations":{"es":"Porto Novo","en":"Porto-Novo"}},{"name":"Kétou","state_code":"PL","latitude":"7.36332000","longitude":"2.59978000","population":39626,"timezone":"Africa/Porto-Novo","type":"city","translations":{"es":"Kétou","en":"Kétou"}},{"name":"Pobé","state_code":"PL","latitude":"6.98008000","longitude":"2.66490000","population":49232,"timezone":"Africa/Porto-Novo","type":"adm2","translations":{"es":"Pobé","en":"Pobé"}},{"name":"Sakété","state_code":"PL","latitude":"6.73618000","longitude":"2.65866000","population":43541,"timezone":"Africa/Porto-Novo","type":"city","translations":{"es":"Saketé","en":"Sakété"}},{"name":"Abomey","state_code":"ZO","latitude":"7.18286000","longitude":"1.99119000","population":117824,"timezone":"Africa/Porto-Novo","type":"adm1","translations":{"es":"Abomey","en":"Abomey"}},{"name":"Bohicon","state_code":"ZO","latitude":"7.17826000","longitude":"2.06670000","population":93744,"timezone":"Africa/Porto-Novo","type":"adm2","translations":{"es":"Bohicón","en":"Bohicon"}},{"name":"Commune of Agbangnizoun","state_code":"ZO","latitude":"7.07600000","longitude":"1.96100000","population":null,"timezone":"Africa/Porto-Novo","type":"adm1","translations":{"es":"Comuna de Agbangnizoun","en":"Commune of Agbangnizoun"}},{"name":"Cové","state_code":"ZO","latitude":"7.22097000","longitude":"2.34017000","population":43554,"timezone":"Africa/Porto-Novo","type":"city","translations":{"es":"Ensenada","en":"Cové"}}]