[{"name":"Boven Bolivia","state_code":"BQ1","latitude":"12.18190000","longitude":"-68.21810000","population":null,"timezone":"America/Curacao","type":"city","translations":{"es":"Sobre Bolivia","en":"Boven Bolivia"}},{"name":"Dorp Tera Kora","state_code":"BQ1","latitude":"12.13333000","longitude":"-68.26667000","population":1186,"timezone":"America/Kralendijk","type":"city","translations":{"es":"Dorp Tera Kora","en":"Dorp Tera Kora"}},{"name":"Oranjestad","state_code":"BQ1","latitude":"17.48333333","longitude":"-62.98333333","population":1097,"timezone":"America/Kralendijk","type":"adm1","translations":{"es":"Oranjestad","en":"Oranjestad"}},{"name":"Rincon","state_code":"BQ1","latitude":"12.23833333","longitude":"-68.33250000","population":1875,"timezone":"America/Kralendijk","type":"city","translations":{"es":"Rincón","en":"Rincon"}},{"name":"St. Johns","state_code":"BQ1","latitude":"17.62100750","longitude":"-63.24316830","population":null,"timezone":"America/Curacao","type":"city","translations":{"es":"San Juan","en":"St. Johns"}},{"name":"The Bottom","state_code":"BQ1","latitude":"17.62611111","longitude":"-63.24916667","population":488,"timezone":"America/Kralendijk","type":"adm1","translations":{"es":"El fondo","en":"The Bottom"}},{"name":"Windwardside","state_code":"BQ1","latitude":"17.62864000","longitude":"-63.23136000","population":null,"timezone":"America/Curacao","type":"city","translations":{"es":"Barlovento","en":"Windwardside"}},{"name":"Zion's Hill","state_code":"BQ1","latitude":"17.64300000","longitude":"-63.22649000","population":2810,"timezone":"America/Kralendijk","type":"city","translations":{"es":"La colina de Sión","en":"Zion's Hill"}}]