[{"name":"Airdrie","state_code":"AB","latitude":"51.30011000","longitude":"-114.03528000","population":74100,"timezone":"America/Edmonton","type":"city","translations":{"es":"Airdrie","en":"Airdrie"}},{"name":"Athabasca","state_code":"AB","latitude":"54.71687000","longitude":"-113.28537000","population":2759,"timezone":"America/Edmonton","type":"city","translations":{"es":"Atabasca","en":"Athabasca"}},{"name":"Banff","state_code":"AB","latitude":"51.17622000","longitude":"-115.56982000","population":8305,"timezone":"America/Edmonton","type":"city","translations":{"es":"Banff","en":"Banff"}},{"name":"Barrhead","state_code":"AB","latitude":"54.13345000","longitude":"-114.40211000","population":4320,"timezone":"America/Edmonton","type":"city","translations":{"es":"Cabeza de barrido","en":"Barrhead"}},{"name":"Bassano","state_code":"AB","latitude":"50.78342000","longitude":"-112.46854000","population":1216,"timezone":"America/Edmonton","type":"city","translations":{"es":"Bassano","en":"Bassano"}},{"name":"Beaumont","state_code":"AB","latitude":"53.35013000","longitude":"-113.41871000","population":7366,"timezone":"America/Edmonton","type":"city","translations":{"es":"Beaumont","en":"Beaumont"}},{"name":"Beaverlodge","state_code":"AB","latitude":"55.21664000","longitude":"-119.43605000","population":2271,"timezone":"America/Edmonton","type":"city","translations":{"es":"Cabaña de castores","en":"Beaverlodge"}},{"name":"Black Diamond","state_code":"AB","latitude":"50.70011000","longitude":"-114.23530000","population":null,"timezone":"America/Toronto","type":"city","translations":{"es":"Diamante negro","en":"Black Diamond"}},{"name":"Blackfalds","state_code":"AB","latitude":"52.38342000","longitude":"-113.78530000","population":10470,"timezone":"America/Edmonton","type":"city","translations":{"es":"Blackfalds","en":"Blackfalds"}},{"name":"Bon Accord","state_code":"AB","latitude":"53.83345000","longitude":"-113.41872000","population":1461,"timezone":"America/Edmonton","type":"city","translations":{"es":"Buen acuerdo","en":"Bon Accord"}},{"name":"Bonnyville","state_code":"AB","latitude":"54.26684000","longitude":"-110.73505000","population":6404,"timezone":"America/Edmonton","type":"city","translations":{"es":"Bonnyville","en":"Bonnyville"}},{"name":"Bow Island","state_code":"AB","latitude":"49.86676000","longitude":"-111.36843000","population":2036,"timezone":"America/Edmonton","type":"city","translations":{"es":"Isla Bow","en":"Bow Island"}},{"name":"Brooks","state_code":"AB","latitude":"50.58341000","longitude":"-111.88509000","population":14924,"timezone":"America/Edmonton","type":"city","translations":{"es":"Brooks","en":"Brooks"}},{"name":"Calgary","state_code":"AB","latitude":"51.05011000","longitude":"-114.08529000","population":1306784,"timezone":"America/Edmonton","type":"city","translations":{"es":"Calgary","en":"Calgary"}},{"name":"Calmar","state_code":"AB","latitude":"53.26683000","longitude":"-113.81874000","population":2183,"timezone":"America/Edmonton","type":"city","translations":{"es":"Calmar","en":"Calmar"}},{"name":"Camrose","state_code":"AB","latitude":"53.01684000","longitude":"-112.83525000","population":18772,"timezone":"America/Edmonton","type":"city","translations":{"es":"Camrose","en":"Camrose"}},{"name":"Canmore","state_code":"AB","latitude":"51.08335000","longitude":"-115.35206000","population":15990,"timezone":"America/Edmonton","type":"city","translations":{"es":"Canmore","en":"Canmore"}},{"name":"Cardston","state_code":"AB","latitude":"49.19998000","longitude":"-113.30190000","population":3724,"timezone":"America/Edmonton","type":"city","translations":{"es":"Cardston","en":"Cardston"}},{"name":"Carstairs","state_code":"AB","latitude":"51.56681000","longitude":"-114.10200000","population":4898,"timezone":"America/Edmonton","type":"city","translations":{"es":"Escaleras del coche","en":"Carstairs"}},{"name":"Chestermere","state_code":"AB","latitude":"51.03341000","longitude":"-113.81867000","population":32255,"timezone":"America/Edmonton","type":"city","translations":{"es":"Chestermere","en":"Chestermere"}},{"name":"Claresholm","state_code":"AB","latitude":"50.03332000","longitude":"-113.58524000","population":3804,"timezone":"America/Edmonton","type":"city","translations":{"es":"Claresholm","en":"Claresholm"}},{"name":"Coaldale","state_code":"AB","latitude":"49.71670000","longitude":"-112.61854000","population":8771,"timezone":"America/Edmonton","type":"city","translations":{"es":"Coaldale","en":"Coaldale"}},{"name":"Coalhurst","state_code":"AB","latitude":"49.74640000","longitude":"-112.93246000","population":2869,"timezone":"America/Edmonton","type":"city","translations":{"es":"Coalhurst","en":"Coalhurst"}},{"name":"Cochrane","state_code":"AB","latitude":"51.18341000","longitude":"-114.46871000","population":32199,"timezone":"America/Edmonton","type":"city","translations":{"es":"Cochrane","en":"Cochrane"}},{"name":"Cold Lake","state_code":"AB","latitude":"54.46525000","longitude":"-110.18154000","population":11595,"timezone":"America/Edmonton","type":"city","translations":{"es":"Lago frío","en":"Cold Lake"}},{"name":"Crossfield","state_code":"AB","latitude":"51.43341000","longitude":"-114.03528000","population":2512,"timezone":"America/Edmonton","type":"city","translations":{"es":"Campo cruzado","en":"Crossfield"}},{"name":"Devon","state_code":"AB","latitude":"53.36683000","longitude":"-113.73533000","population":6545,"timezone":"America/Edmonton","type":"city","translations":{"es":"Devon","en":"Devon"}},{"name":"Didsbury","state_code":"AB","latitude":"51.66681000","longitude":"-114.13529000","population":5070,"timezone":"America/Edmonton","type":"city","translations":{"es":"Didsbury","en":"Didsbury"}},{"name":"Drayton Valley","state_code":"AB","latitude":"53.21682000","longitude":"-114.98544000","population":7291,"timezone":"America/Edmonton","type":"city","translations":{"es":"Valle de Drayton","en":"Drayton Valley"}},{"name":"Edmonton","state_code":"AB","latitude":"53.55014000","longitude":"-113.46871000","population":1010899,"timezone":"America/Edmonton","type":"adm1","translations":{"es":"Edmonton","en":"Edmonton"}},{"name":"Edson","state_code":"AB","latitude":"53.58345000","longitude":"-116.43559000","population":8374,"timezone":"America/Edmonton","type":"city","translations":{"es":"Edson","en":"Edson"}},{"name":"Elk Point","state_code":"AB","latitude":"53.90017000","longitude":"-110.90170000","population":1399,"timezone":"America/Edmonton","type":"city","translations":{"es":"Elk Point","en":"Elk Point"}},{"name":"Fairview","state_code":"AB","latitude":"56.06675000","longitude":"-118.38606000","population":2817,"timezone":"America/Edmonton","type":"city","translations":{"es":"Fairview","en":"Fairview"}},{"name":"Falher","state_code":"AB","latitude":"55.73339000","longitude":"-117.20262000","population":1001,"timezone":"America/Edmonton","type":"city","translations":{"es":"Falher","en":"Falher"}},{"name":"Fort Macleod","state_code":"AB","latitude":"49.71671000","longitude":"-113.41857000","population":3297,"timezone":"America/Edmonton","type":"city","translations":{"es":"Fuerte Macleod","en":"Fort Macleod"}},{"name":"Fort McMurray","state_code":"AB","latitude":"56.72676000","longitude":"-111.38103000","population":68002,"timezone":"America/Edmonton","type":"city","translations":{"es":"Fuerte McMurray","en":"Fort McMurray"}},{"name":"Fort Saskatchewan","state_code":"AB","latitude":"53.71684000","longitude":"-113.21870000","population":28624,"timezone":"America/Toronto","type":"city","translations":{"es":"Fuerte Saskatchewan","en":"Fort Saskatchewan"}},{"name":"Fox Creek","state_code":"AB","latitude":"54.40007000","longitude":"-116.80238000","population":2457,"timezone":"America/Edmonton","type":"city","translations":{"es":"Arroyo Fox","en":"Fox Creek"}},{"name":"Gibbons","state_code":"AB","latitude":"53.83345000","longitude":"-113.33531000","population":3218,"timezone":"America/Edmonton","type":"city","translations":{"es":"Gibones","en":"Gibbons"}},{"name":"Grand Centre","state_code":"AB","latitude":"54.41628000","longitude":"-110.21304000","population":7256,"timezone":"America/Edmonton","type":"city","translations":{"es":"Gran Centro","en":"Grand Centre"}},{"name":"Grande Cache","state_code":"AB","latitude":"53.88335000","longitude":"-119.13585000","population":3571,"timezone":"America/Edmonton","type":"city","translations":{"es":"Gran caché","en":"Grande Cache"}},{"name":"Grande Prairie","state_code":"AB","latitude":"55.16667000","longitude":"-118.80271000","population":64141,"timezone":"America/Edmonton","type":"city","translations":{"es":"Grande Prairie","en":"Grande Prairie"}},{"name":"Grimshaw","state_code":"AB","latitude":"56.18339000","longitude":"-117.60270000","population":2601,"timezone":"America/Edmonton","type":"city","translations":{"es":"Grimshaw","en":"Grimshaw"}},{"name":"Hanna","state_code":"AB","latitude":"51.63343000","longitude":"-111.90181000","population":3140,"timezone":"America/Edmonton","type":"city","translations":{"es":"Hanna","en":"Hanna"}},{"name":"Heritage Pointe","state_code":"AB","latitude":"50.84213000","longitude":"-114.00493000","population":2075,"timezone":"America/Edmonton","type":"city","translations":{"es":"Punta del patrimonio","en":"Heritage Pointe"}},{"name":"High Level","state_code":"AB","latitude":"58.51688000","longitude":"-117.13605000","population":3922,"timezone":"America/Edmonton","type":"city","translations":{"es":"Alto nivel","en":"High Level"}},{"name":"High Prairie","state_code":"AB","latitude":"55.43340000","longitude":"-116.48580000","population":2380,"timezone":"America/Edmonton","type":"city","translations":{"es":"Alta pradera","en":"High Prairie"}},{"name":"High River","state_code":"AB","latitude":"50.58341000","longitude":"-113.86867000","population":14324,"timezone":"America/Edmonton","type":"city","translations":{"es":"Río Alto","en":"High River"}},{"name":"Hinton","state_code":"AB","latitude":"53.40009000","longitude":"-117.58567000","population":9817,"timezone":"America/Edmonton","type":"city","translations":{"es":"Hinton","en":"Hinton"}},{"name":"Irricana","state_code":"AB","latitude":"51.32372000","longitude":"-113.60475000","population":1179,"timezone":"America/Edmonton","type":"city","translations":{"es":"Irricana","en":"Irricana"}},{"name":"Jasper Park Lodge","state_code":"AB","latitude":"52.88633000","longitude":"-118.05625000","population":3907,"timezone":"America/Edmonton","type":"locality","translations":{"es":"Jasper Park Lodge","en":"Jasper Park Lodge"}},{"name":"Killam","state_code":"AB","latitude":"52.78344000","longitude":"-111.85175000","population":918,"timezone":"America/Edmonton","type":"city","translations":{"es":"Killam","en":"Killam"}},{"name":"Lac La Biche","state_code":"AB","latitude":"54.76690000","longitude":"-111.96861000","population":2314,"timezone":"America/Edmonton","type":"city","translations":{"es":"Lago La Biche","en":"Lac La Biche"}},{"name":"Lacombe","state_code":"AB","latitude":"52.46681000","longitude":"-113.73530000","population":13396,"timezone":"America/Edmonton","type":"city","translations":{"es":"Lacombe","en":"Lacombe"}},{"name":"Lamont","state_code":"AB","latitude":"53.76686000","longitude":"-112.80195000","population":1744,"timezone":"America/Edmonton","type":"city","translations":{"es":"Lamont","en":"Lamont"}},{"name":"Larkspur","state_code":"AB","latitude":"53.47942000","longitude":"-113.38142000","population":4988,"timezone":"America/Edmonton","type":"section","translations":{"es":"Espuela de caballero","en":"Larkspur"}},{"name":"Laurel","state_code":"AB","latitude":"53.44667000","longitude":"-113.38197000","population":1606,"timezone":"America/Edmonton","type":"section","translations":{"es":"Laurel","en":"Laurel"}},{"name":"Leduc","state_code":"AB","latitude":"53.26682000","longitude":"-113.55201000","population":15561,"timezone":"America/Edmonton","type":"city","translations":{"es":"Leduc","en":"Leduc"}},{"name":"Lethbridge","state_code":"AB","latitude":"49.69999000","longitude":"-112.81856000","population":98406,"timezone":"America/Edmonton","type":"city","translations":{"es":"Lethbridge","en":"Lethbridge"}},{"name":"Lloydminster","state_code":"AB","latitude":"53.27237000","longitude":"-110.02256000","population":31582,"timezone":"America/Edmonton","type":"adm2","translations":{"es":"Lloydminster","en":"Lloydminster"}},{"name":"Magrath","state_code":"AB","latitude":"49.41668000","longitude":"-112.86856000","population":2481,"timezone":"America/Edmonton","type":"city","translations":{"es":"Magrath","en":"Magrath"}},{"name":"Manning","state_code":"AB","latitude":"56.91683000","longitude":"-117.61945000","population":1126,"timezone":"America/Toronto","type":"city","translations":{"es":"Manning","en":"Manning"}},{"name":"Mannville","state_code":"AB","latitude":"53.33764000","longitude":"-111.17750000","population":765,"timezone":"America/Toronto","type":"city","translations":{"es":"Mannville","en":"Mannville"}},{"name":"Maple Ridge","state_code":"AB","latitude":"53.50172000","longitude":"-113.36274000","population":1711,"timezone":"America/Edmonton","type":"section","translations":{"es":"Cresta de arce","en":"Maple Ridge"}},{"name":"Mayerthorpe","state_code":"AB","latitude":"53.95015000","longitude":"-115.13547000","population":1259,"timezone":"America/Edmonton","type":"city","translations":{"es":"Mayerthorpe","en":"Mayerthorpe"}},{"name":"Medicine Hat","state_code":"AB","latitude":"50.03928000","longitude":"-110.67661000","population":63271,"timezone":"America/Edmonton","type":"city","translations":{"es":"Medicine Hat","en":"Medicine Hat"}},{"name":"Mill Woods Town Centre","state_code":"AB","latitude":"53.45639000","longitude":"-113.42751000","population":1247,"timezone":"America/Edmonton","type":"section","translations":{"es":"Centro de la ciudad de Mill Woods","en":"Mill Woods Town Centre"}},{"name":"Millet","state_code":"AB","latitude":"53.10013000","longitude":"-113.46870000","population":1890,"timezone":"America/Toronto","type":"city","translations":{"es":"Mijo","en":"Millet"}},{"name":"Morinville","state_code":"AB","latitude":"53.80014000","longitude":"-113.65203000","population":10385,"timezone":"America/Edmonton","type":"city","translations":{"es":"Morinville","en":"Morinville"}},{"name":"Nanton","state_code":"AB","latitude":"50.35008000","longitude":"-113.76866000","population":2167,"timezone":"America/Edmonton","type":"city","translations":{"es":"Nantón","en":"Nanton"}},{"name":"Okotoks","state_code":"AB","latitude":"50.72885000","longitude":"-113.98281000","population":30405,"timezone":"America/Edmonton","type":"city","translations":{"es":"Okotoks","en":"Okotoks"}},{"name":"Olds","state_code":"AB","latitude":"51.78341000","longitude":"-114.10199000","population":9209,"timezone":"America/Edmonton","type":"city","translations":{"es":"Viejos","en":"Olds"}},{"name":"Peace River","state_code":"AB","latitude":"56.23715000","longitude":"-117.29176000","population":6619,"timezone":"America/Edmonton","type":"city","translations":{"es":"Río de la Paz","en":"Peace River"}},{"name":"Penhold","state_code":"AB","latitude":"52.13342000","longitude":"-113.86870000","population":3484,"timezone":"America/Edmonton","type":"city","translations":{"es":"Penhold","en":"Penhold"}},{"name":"Picture Butte","state_code":"AB","latitude":"49.88330000","longitude":"-112.78516000","population":1930,"timezone":"America/Edmonton","type":"city","translations":{"es":"Picture Butte","en":"Picture Butte"}},{"name":"Pincher Creek","state_code":"AB","latitude":"49.48328000","longitude":"-113.95195000","population":3622,"timezone":"America/Edmonton","type":"city","translations":{"es":"Arroyo Pincher","en":"Pincher Creek"}},{"name":"Ponoka","state_code":"AB","latitude":"52.67680000","longitude":"-113.58147000","population":7331,"timezone":"America/Edmonton","type":"city","translations":{"es":"Ponoka","en":"Ponoka"}},{"name":"Provost","state_code":"AB","latitude":"52.35014000","longitude":"-110.26828000","population":1900,"timezone":"America/Edmonton","type":"city","translations":{"es":"Preboste","en":"Provost"}},{"name":"Raymond","state_code":"AB","latitude":"49.44998000","longitude":"-112.65185000","population":4199,"timezone":"America/Toronto","type":"city","translations":{"es":"Raymond","en":"Raymond"}},{"name":"Red Deer","state_code":"AB","latitude":"52.26682000","longitude":"-113.80200000","population":100844,"timezone":"America/Edmonton","type":"city","translations":{"es":"Ciervo","en":"Red Deer"}},{"name":"Rideau Park","state_code":"AB","latitude":"53.47899000","longitude":"-113.50470000","population":1883,"timezone":"America/Edmonton","type":"section","translations":{"es":"Parque Rideau","en":"Rideau Park"}},{"name":"Rimbey","state_code":"AB","latitude":"52.63340000","longitude":"-114.23532000","population":2470,"timezone":"America/Edmonton","type":"city","translations":{"es":"Rimbey","en":"Rimbey"}},{"name":"Rocky Mountain House","state_code":"AB","latitude":"52.36683000","longitude":"-114.91880000","population":6765,"timezone":"America/Edmonton","type":"city","translations":{"es":"Casa de las Montañas Rocosas","en":"Rocky Mountain House"}},{"name":"Sexsmith","state_code":"AB","latitude":"55.34998000","longitude":"-118.78602000","population":2427,"timezone":"America/Edmonton","type":"city","translations":{"es":"Sexsmith","en":"Sexsmith"}},{"name":"Sherwood Park","state_code":"AB","latitude":"53.51684000","longitude":"-113.31870000","population":72017,"timezone":"America/Edmonton","type":"city","translations":{"es":"Parque Sherwood","en":"Sherwood Park"}},{"name":"Silver Berry","state_code":"AB","latitude":"53.45787000","longitude":"-113.38170000","population":8089,"timezone":"America/Edmonton","type":"section","translations":{"es":"Baya plateada","en":"Silver Berry"}},{"name":"Slave Lake","state_code":"AB","latitude":"55.28344000","longitude":"-114.76896000","population":6836,"timezone":"America/Edmonton","type":"city","translations":{"es":"Lago del esclavo","en":"Slave Lake"}},{"name":"Smoky Lake","state_code":"AB","latitude":"54.11687000","longitude":"-112.46863000","population":1127,"timezone":"America/Edmonton","type":"city","translations":{"es":"Lago humeante","en":"Smoky Lake"}},{"name":"Spirit River","state_code":"AB","latitude":"55.78327000","longitude":"-118.83607000","population":1157,"timezone":"America/Edmonton","type":"city","translations":{"es":"Río Spirit","en":"Spirit River"}},{"name":"Springbrook","state_code":"AB","latitude":"52.17920000","longitude":"-113.87981000","population":1507,"timezone":"America/Edmonton","type":"city","translations":{"es":"Springbrook","en":"Springbrook"}},{"name":"Spruce Grove","state_code":"AB","latitude":"53.53344000","longitude":"-113.91874000","population":37645,"timezone":"America/Edmonton","type":"city","translations":{"es":"Bosque de abetos","en":"Spruce Grove"}},{"name":"St. Albert","state_code":"AB","latitude":"53.63344000","longitude":"-113.63533000","population":68232,"timezone":"America/Edmonton","type":"city","translations":{"es":"San Alberto","en":"St. Albert"}},{"name":"Stettler","state_code":"AB","latitude":"52.31683000","longitude":"-112.71861000","population":5695,"timezone":"America/Edmonton","type":"city","translations":{"es":"Stettler","en":"Stettler"}},{"name":"Stony Plain","state_code":"AB","latitude":"53.53343000","longitude":"-114.00205000","population":17993,"timezone":"America/Edmonton","type":"city","translations":{"es":"Llanura pedregosa","en":"Stony Plain"}},{"name":"Strathmore","state_code":"AB","latitude":"51.05011000","longitude":"-113.38523000","population":14339,"timezone":"America/Edmonton","type":"city","translations":{"es":"Strathmore","en":"Strathmore"}},{"name":"Sundre","state_code":"AB","latitude":"51.80010000","longitude":"-114.63532000","population":2672,"timezone":"America/Edmonton","type":"city","translations":{"es":"Sundre","en":"Sundre"}},{"name":"Swan Hills","state_code":"AB","latitude":"54.71681000","longitude":"-115.40226000","population":1900,"timezone":"America/Edmonton","type":"city","translations":{"es":"Colinas de los cisnes","en":"Swan Hills"}},{"name":"Sylvan Lake","state_code":"AB","latitude":"52.31100000","longitude":"-114.08375000","population":15995,"timezone":"America/Edmonton","type":"city","translations":{"es":"Lago Sylvan","en":"Sylvan Lake"}},{"name":"Taber","state_code":"AB","latitude":"49.78703000","longitude":"-112.14603000","population":8862,"timezone":"America/Edmonton","type":"city","translations":{"es":"Taber","en":"Taber"}},{"name":"Tamarack","state_code":"AB","latitude":"53.46441000","longitude":"-113.36235000","population":2348,"timezone":"America/Edmonton","type":"section","translations":{"es":"Alerce","en":"Tamarack"}},{"name":"Three Hills","state_code":"AB","latitude":"51.70012000","longitude":"-113.26863000","population":3042,"timezone":"America/Edmonton","type":"city","translations":{"es":"Tres colinas","en":"Three Hills"}},{"name":"Tofield","state_code":"AB","latitude":"53.36684000","longitude":"-112.66862000","population":2045,"timezone":"America/Edmonton","type":"city","translations":{"es":"Tofield","en":"Tofield"}},{"name":"Two Hills","state_code":"AB","latitude":"53.71686000","longitude":"-111.75181000","population":1416,"timezone":"America/Toronto","type":"city","translations":{"es":"Dos colinas","en":"Two Hills"}},{"name":"Valleyview","state_code":"AB","latitude":"55.06673000","longitude":"-117.28585000","population":1673,"timezone":"America/Edmonton","type":"city","translations":{"es":"Vista del valle","en":"Valleyview"}},{"name":"Vegreville","state_code":"AB","latitude":"53.50015000","longitude":"-112.05182000","population":5689,"timezone":"America/Edmonton","type":"city","translations":{"es":"Vegreville","en":"Vegreville"}},{"name":"Vermilion","state_code":"AB","latitude":"53.35409000","longitude":"-110.85849000","population":3948,"timezone":"America/Edmonton","type":"city","translations":{"es":"Bermellón","en":"Vermilion"}},{"name":"Viking","state_code":"AB","latitude":"53.10014000","longitude":"-111.76844000","population":986,"timezone":"America/Toronto","type":"city","translations":{"es":"Vikingo","en":"Viking"}},{"name":"Vulcan","state_code":"AB","latitude":"50.40008000","longitude":"-113.25189000","population":1769,"timezone":"America/Edmonton","type":"city","translations":{"es":"Vulcano","en":"Vulcan"}},{"name":"Wainwright","state_code":"AB","latitude":"52.83482000","longitude":"-110.85342000","population":6606,"timezone":"America/Edmonton","type":"city","translations":{"es":"Wainwright","en":"Wainwright"}},{"name":"Wembley","state_code":"AB","latitude":"55.14995000","longitude":"-119.13602000","population":1432,"timezone":"America/Edmonton","type":"city","translations":{"es":"Wembley","en":"Wembley"}},{"name":"Westlake","state_code":"AB","latitude":"55.22228000","longitude":"-118.80415000","population":1363,"timezone":"America/Edmonton","type":"city","translations":{"es":"Lago Oeste","en":"Westlake"}},{"name":"Westlock","state_code":"AB","latitude":"54.15016000","longitude":"-113.86876000","population":4921,"timezone":"America/Edmonton","type":"city","translations":{"es":"Westlock","en":"Westlock"}},{"name":"Wetaskiwin","state_code":"AB","latitude":"52.96683000","longitude":"-113.36869000","population":12594,"timezone":"America/Edmonton","type":"city","translations":{"es":"Wetaskiwin","en":"Wetaskiwin"}},{"name":"Whitecourt","state_code":"AB","latitude":"54.15015000","longitude":"-115.68548000","population":9927,"timezone":"America/Edmonton","type":"city","translations":{"es":"Whitecourt","en":"Whitecourt"}},{"name":"Wild Rose","state_code":"AB","latitude":"53.47080000","longitude":"-113.38119000","population":8531,"timezone":"America/Edmonton","type":"section","translations":{"es":"Escaramujo","en":"Wild Rose"}},{"name":"Abbotsford","state_code":"BC","latitude":"49.05798000","longitude":"-122.25257000","population":153524,"timezone":"America/Vancouver","type":"city","translations":{"es":"Abbotsford","en":"Abbotsford"}},{"name":"Agassiz","state_code":"BC","latitude":"49.23298000","longitude":"-121.76926000","population":6300,"timezone":"America/Vancouver","type":"city","translations":{"es":"Agassiz","en":"Agassiz"}},{"name":"Aldergrove","state_code":"BC","latitude":"49.05801000","longitude":"-122.47087000","population":12363,"timezone":"America/Vancouver","type":"city","translations":{"es":"Aldergrove","en":"Aldergrove"}},{"name":"Aldergrove East","state_code":"BC","latitude":"49.05593000","longitude":"-122.42299000","population":null,"timezone":"America/Toronto","type":"section","translations":{"es":"Aldergrove Este","en":"Aldergrove East"}},{"name":"Anmore","state_code":"BC","latitude":"49.31637000","longitude":"-122.85263000","population":2210,"timezone":"America/Vancouver","type":"adm3","translations":{"es":"Anmore","en":"Anmore"}},{"name":"Arbutus Ridge","state_code":"BC","latitude":"49.24966000","longitude":"-123.16934000","population":15295,"timezone":"America/Vancouver","type":"section","translations":{"es":"Cresta de Arbutus","en":"Arbutus Ridge"}},{"name":"Armstrong","state_code":"BC","latitude":"50.44979000","longitude":"-119.20235000","population":5323,"timezone":"America/Vancouver","type":"city","translations":{"es":"Armstrong","en":"Armstrong"}},{"name":"Ashcroft","state_code":"BC","latitude":"50.72372000","longitude":"-121.28207000","population":1558,"timezone":"America/Vancouver","type":"city","translations":{"es":"Ashcroft","en":"Ashcroft"}},{"name":"Barrière","state_code":"BC","latitude":"51.18308000","longitude":"-120.11920000","population":1765,"timezone":"America/Vancouver","type":"city","translations":{"es":"Barrera","en":"Barrière"}},{"name":"Bowen Island","state_code":"BC","latitude":"49.38470000","longitude":"-123.33622000","population":4256,"timezone":"America/Vancouver","type":"city","translations":{"es":"Isla Bowen","en":"Bowen Island"}},{"name":"Burnaby","state_code":"BC","latitude":"49.26636000","longitude":"-122.95263000","population":249125,"timezone":"America/Vancouver","type":"adm3","translations":{"es":"Burnaby","en":"Burnaby"}},{"name":"Burns Lake","state_code":"BC","latitude":"54.22972000","longitude":"-125.76084000","population":1779,"timezone":"America/Vancouver","type":"city","translations":{"es":"Lago Burns","en":"Burns Lake"}},{"name":"Cache Creek","state_code":"BC","latitude":"50.81011000","longitude":"-121.32460000","population":1061,"timezone":"America/Vancouver","type":"city","translations":{"es":"Cache Creek","en":"Cache Creek"}},{"name":"Campbell River","state_code":"BC","latitude":"50.01634000","longitude":"-125.24459000","population":32588,"timezone":"America/Vancouver","type":"city","translations":{"es":"Río Campbell","en":"Campbell River"}},{"name":"Castlegar","state_code":"BC","latitude":"49.32317000","longitude":"-117.65831000","population":8039,"timezone":"America/Vancouver","type":"city","translations":{"es":"Castlegar","en":"Castlegar"}},{"name":"Cedar","state_code":"BC","latitude":"49.11633000","longitude":"-123.85270000","population":2836,"timezone":"America/Vancouver","type":"city","translations":{"es":"Cedro","en":"Cedar"}},{"name":"Central Coast Regional","state_code":"BC","latitude":"52.16638000","longitude":"-127.00323000","population":3319,"timezone":"America/Toronto","type":"district","translations":{"es":"Distrito Regional de la Costa Central","en":"Central Coast Regional"}},{"name":"Chase","state_code":"BC","latitude":"50.81650000","longitude":"-119.68571000","population":2471,"timezone":"America/Vancouver","type":"city","translations":{"es":"Perseguir","en":"Chase"}},{"name":"Chemainus","state_code":"BC","latitude":"48.91633000","longitude":"-123.71937000","population":3021,"timezone":"America/Vancouver","type":"city","translations":{"es":"Chemainus","en":"Chemainus"}},{"name":"Chetwynd","state_code":"BC","latitude":"55.69988000","longitude":"-121.63627000","population":2587,"timezone":"America/Dawson_Creek","type":"city","translations":{"es":"Chetwynd","en":"Chetwynd"}},{"name":"Chilliwack","state_code":"BC","latitude":"49.16638000","longitude":"-121.95257000","population":83788,"timezone":"America/Vancouver","type":"adm2","translations":{"es":"Chilliwack","en":"Chilliwack"}},{"name":"Colwood","state_code":"BC","latitude":"48.43293000","longitude":"-123.48591000","population":16859,"timezone":"America/Vancouver","type":"city","translations":{"es":"Colwood","en":"Colwood"}},{"name":"Coombs","state_code":"BC","latitude":"49.29963000","longitude":"-124.41946000","population":1612,"timezone":"America/Vancouver","type":"city","translations":{"es":"Coombs","en":"Coombs"}},{"name":"Coquitlam","state_code":"BC","latitude":"49.28460000","longitude":"-122.78217000","population":148625,"timezone":"America/Vancouver","type":"adm3","translations":{"es":"Coquitlam","en":"Coquitlam"}},{"name":"Courtenay","state_code":"BC","latitude":"49.68657000","longitude":"-124.99360000","population":25599,"timezone":"America/Vancouver","type":"city","translations":{"es":"Courtenay","en":"Courtenay"}},{"name":"Cowichan Bay","state_code":"BC","latitude":"48.73366000","longitude":"-123.61739000","population":2799,"timezone":"America/Vancouver","type":"city","translations":{"es":"Bahía de Cowichan","en":"Cowichan Bay"}},{"name":"Cranbrook","state_code":"BC","latitude":"49.49991000","longitude":"-115.76879000","population":20047,"timezone":"America/Edmonton","type":"city","translations":{"es":"Cranbrook","en":"Cranbrook"}},{"name":"Creston","state_code":"BC","latitude":"49.09987000","longitude":"-116.50211000","population":5583,"timezone":"America/Creston","type":"city","translations":{"es":"Crestón","en":"Creston"}},{"name":"Cumberland","state_code":"BC","latitude":"49.61634000","longitude":"-125.03613000","population":3753,"timezone":"America/Vancouver","type":"city","translations":{"es":"Cumberland","en":"Cumberland"}},{"name":"Dawson Creek","state_code":"BC","latitude":"55.75984000","longitude":"-120.24030000","population":12178,"timezone":"America/Dawson_Creek","type":"city","translations":{"es":"Dawson Creek","en":"Dawson Creek"}},{"name":"Delta","state_code":"BC","latitude":"49.14399000","longitude":"-122.90680000","population":101668,"timezone":"America/Vancouver","type":"city","translations":{"es":"Delta","en":"Delta"}},{"name":"Denman Island","state_code":"BC","latitude":"49.53294000","longitude":"-124.81950000","population":1020,"timezone":"America/Vancouver","type":"city","translations":{"es":"Isla Denman","en":"Denman Island"}},{"name":"Denman Island Trust Area","state_code":"BC","latitude":"49.55189000","longitude":"-124.79881000","population":1165,"timezone":"America/Vancouver","type":"city","translations":{"es":"Área fiduciaria de la isla Denman","en":"Denman Island Trust Area"}},{"name":"Duck Lake","state_code":"BC","latitude":"50.00880000","longitude":"-119.39672000","population":15817,"timezone":"America/Vancouver","type":"city","translations":{"es":"Lago de los patos","en":"Duck Lake"}},{"name":"Duncan","state_code":"BC","latitude":"48.78293000","longitude":"-123.70266000","population":22199,"timezone":"America/Vancouver","type":"city","translations":{"es":"Duncan","en":"Duncan"}},{"name":"East Wellington","state_code":"BC","latitude":"49.17385000","longitude":"-124.01745000","population":1444,"timezone":"America/Vancouver","type":"city","translations":{"es":"Este de Wellington","en":"East Wellington"}},{"name":"Elkford","state_code":"BC","latitude":"50.05007000","longitude":"-114.88540000","population":2585,"timezone":"America/Toronto","type":"city","translations":{"es":"Elkford","en":"Elkford"}},{"name":"Ellison","state_code":"BC","latitude":"49.93307000","longitude":"-119.36907000","population":3094,"timezone":"America/Vancouver","type":"city","translations":{"es":"Ellison","en":"Ellison"}},{"name":"Enderby","state_code":"BC","latitude":"50.54980000","longitude":"-119.15234000","population":3028,"timezone":"America/Vancouver","type":"city","translations":{"es":"Enderby","en":"Enderby"}},{"name":"Fairwinds","state_code":"BC","latitude":"49.27588000","longitude":"-124.12782000","population":1147,"timezone":"America/Vancouver","type":"city","translations":{"es":"Vientos favorables","en":"Fairwinds"}},{"name":"Fernie","state_code":"BC","latitude":"49.49996000","longitude":"-115.06871000","population":5249,"timezone":"America/Edmonton","type":"city","translations":{"es":"Fernie","en":"Fernie"}},{"name":"Fort Nelson","state_code":"BC","latitude":"58.80533000","longitude":"-122.70020000","population":2611,"timezone":"America/Fort_Nelson","type":"city","translations":{"es":"Fuerte Nelson","en":"Fort Nelson"}},{"name":"Fort St. John","state_code":"BC","latitude":"56.24988000","longitude":"-120.85292000","population":17402,"timezone":"America/Dawson_Creek","type":"city","translations":{"es":"Fuerte San Juan","en":"Fort St. John"}},{"name":"Fraser Valley Regional","state_code":"BC","latitude":"49.58299000","longitude":"-121.83587000","population":295934,"timezone":"America/Toronto","type":"district","translations":{"es":"Distrito Regional del Valle Fraser","en":"Fraser Valley Regional"}},{"name":"French Creek","state_code":"BC","latitude":"49.34123000","longitude":"-124.35541000","population":1024,"timezone":"America/Vancouver","type":"city","translations":{"es":"Arroyo francés","en":"French Creek"}},{"name":"Fruitvale","state_code":"BC","latitude":"49.11654000","longitude":"-117.55222000","population":3491,"timezone":"America/Vancouver","type":"city","translations":{"es":"Fruitvale","en":"Fruitvale"}},{"name":"Gibsons","state_code":"BC","latitude":"49.39539000","longitude":"-123.50555000","population":6821,"timezone":"America/Vancouver","type":"city","translations":{"es":"Gibsons","en":"Gibsons"}},{"name":"Golden","state_code":"BC","latitude":"51.29995000","longitude":"-116.96890000","population":4038,"timezone":"America/Edmonton","type":"city","translations":{"es":"Dorado","en":"Golden"}},{"name":"Grand Forks","state_code":"BC","latitude":"49.03309000","longitude":"-118.43560000","population":4049,"timezone":"America/Vancouver","type":"city","translations":{"es":"Grand Forks","en":"Grand Forks"}},{"name":"Hanceville","state_code":"BC","latitude":"51.91922000","longitude":"-123.04458000","population":10000,"timezone":"America/Vancouver","type":"locality","translations":{"es":"Hanceville","en":"Hanceville"}},{"name":"Hope","state_code":"BC","latitude":"49.38299000","longitude":"-121.44144000","population":4434,"timezone":"America/Vancouver","type":"city","translations":{"es":"Esperanza","en":"Hope"}},{"name":"Hornby Island","state_code":"BC","latitude":"49.53448000","longitude":"-124.66923000","population":1100,"timezone":"America/Vancouver","type":"city","translations":{"es":"Isla Hornby","en":"Hornby Island"}},{"name":"Houston","state_code":"BC","latitude":"54.39976000","longitude":"-126.67008000","population":2993,"timezone":"America/Vancouver","type":"city","translations":{"es":"Houston","en":"Houston"}},{"name":"Invermere","state_code":"BC","latitude":"50.51666000","longitude":"-116.03538000","population":3391,"timezone":"America/Edmonton","type":"city","translations":{"es":"Invermere","en":"Invermere"}},{"name":"Kamloops","state_code":"BC","latitude":"50.66648000","longitude":"-120.31920000","population":97902,"timezone":"America/Vancouver","type":"city","translations":{"es":"Kamloops","en":"Kamloops"}},{"name":"Kelowna","state_code":"BC","latitude":"49.88307000","longitude":"-119.48568000","population":144576,"timezone":"America/Vancouver","type":"city","translations":{"es":"Kelowna","en":"Kelowna"}},{"name":"Kimberley","state_code":"BC","latitude":"49.67071000","longitude":"-115.97760000","population":7425,"timezone":"America/Edmonton","type":"city","translations":{"es":"Kimberley","en":"Kimberley"}},{"name":"Kitimat","state_code":"BC","latitude":"54.05244000","longitude":"-128.65342000","population":8131,"timezone":"America/Vancouver","type":"city","translations":{"es":"Kitimat","en":"Kitimat"}},{"name":"Ladner","state_code":"BC","latitude":"49.08938000","longitude":"-123.08241000","population":22193,"timezone":"America/Vancouver","type":"section","translations":{"es":"Ladner","en":"Ladner"}},{"name":"Ladysmith","state_code":"BC","latitude":"48.99016000","longitude":"-123.81699000","population":8537,"timezone":"America/Vancouver","type":"city","translations":{"es":"Ladysmith","en":"Ladysmith"}},{"name":"Lake Cowichan","state_code":"BC","latitude":"48.82495000","longitude":"-124.05461000","population":3226,"timezone":"America/Vancouver","type":"city","translations":{"es":"Lago Cowichan","en":"Lake Cowichan"}},{"name":"Langford","state_code":"BC","latitude":"48.44963000","longitude":"-123.50261000","population":46584,"timezone":"America/Vancouver","type":"city","translations":{"es":"Langford","en":"Langford"}},{"name":"Langley","state_code":"BC","latitude":"49.10107000","longitude":"-122.65883000","population":132603,"timezone":"America/Vancouver","type":"city","translations":{"es":"Langley","en":"Langley"}},{"name":"Lillooet","state_code":"BC","latitude":"50.68560000","longitude":"-121.94200000","population":2302,"timezone":"America/Vancouver","type":"city","translations":{"es":"Lillooet","en":"Lillooet"}},{"name":"Lions Bay","state_code":"BC","latitude":"49.45218000","longitude":"-123.23760000","population":1334,"timezone":"America/Vancouver","type":"city","translations":{"es":"Bahía de los Leones","en":"Lions Bay"}},{"name":"Logan Lake","state_code":"BC","latitude":"50.49976000","longitude":"-120.80253000","population":2190,"timezone":"America/Toronto","type":"city","translations":{"es":"Lago Logan","en":"Logan Lake"}},{"name":"Lumby","state_code":"BC","latitude":"50.24979000","longitude":"-118.96904000","population":2063,"timezone":"America/Vancouver","type":"city","translations":{"es":"Lumby","en":"Lumby"}},{"name":"Mackenzie","state_code":"BC","latitude":"55.33637000","longitude":"-123.09374000","population":3262,"timezone":"America/Vancouver","type":"city","translations":{"es":"Mackenzie","en":"Mackenzie"}},{"name":"Maple Ridge","state_code":"BC","latitude":"49.21939000","longitude":"-122.60193000","population":82256,"timezone":"America/Vancouver","type":"city","translations":{"es":"Cresta de arce","en":"Maple Ridge"}},{"name":"Merritt","state_code":"BC","latitude":"50.11225000","longitude":"-120.79420000","population":7139,"timezone":"America/Vancouver","type":"city","translations":{"es":"Merritt","en":"Merritt"}},{"name":"Metchosin","state_code":"BC","latitude":"48.38293000","longitude":"-123.53591000","population":5067,"timezone":"America/Vancouver","type":"city","translations":{"es":"Metcosina","en":"Metchosin"}},{"name":"Metro Vancouver Regional","state_code":"BC","latitude":"49.33296000","longitude":"-123.00264000","population":2463431,"timezone":"America/Toronto","type":"district","translations":{"es":"Distrito Regional Metropolitano de Vancouver","en":"Metro Vancouver Regional"}},{"name":"Mission","state_code":"BC","latitude":"49.13298000","longitude":"-122.30258000","population":38833,"timezone":"America/Vancouver","type":"city","translations":{"es":"Misión","en":"Mission"}},{"name":"Nakusp","state_code":"BC","latitude":"50.24987000","longitude":"-117.80226000","population":1706,"timezone":"America/Vancouver","type":"city","translations":{"es":"Nakusp","en":"Nakusp"}},{"name":"Nanaimo","state_code":"BC","latitude":"49.16638000","longitude":"-123.94003000","population":99863,"timezone":"America/Vancouver","type":"city","translations":{"es":"Nanaimo","en":"Nanaimo"}},{"name":"Nelson","state_code":"BC","latitude":"49.49985000","longitude":"-117.28553000","population":10664,"timezone":"America/Vancouver","type":"city","translations":{"es":"Nelson","en":"Nelson"}},{"name":"New Westminster","state_code":"BC","latitude":"49.20678000","longitude":"-122.91092000","population":70996,"timezone":"America/Vancouver","type":"city","translations":{"es":"Nuevo Westminster","en":"New Westminster"}},{"name":"North Cowichan","state_code":"BC","latitude":"48.84133000","longitude":"-123.68596000","population":29676,"timezone":"America/Vancouver","type":"city","translations":{"es":"Cowichan del Norte","en":"North Cowichan"}},{"name":"North Oyster/Yellow Point","state_code":"BC","latitude":"49.04807000","longitude":"-123.83395000","population":1320,"timezone":"America/Vancouver","type":"city","translations":{"es":"Ostra del Norte/Punta Amarilla","en":"North Oyster/Yellow Point"}},{"name":"North Saanich","state_code":"BC","latitude":"48.66634000","longitude":"-123.41933000","population":11089,"timezone":"America/Vancouver","type":"city","translations":{"es":"Saanich del Norte","en":"North Saanich"}},{"name":"North Vancouver","state_code":"BC","latitude":"49.31636000","longitude":"-123.06934000","population":88168,"timezone":"America/Vancouver","type":"city","translations":{"es":"Vancouver del Norte","en":"North Vancouver"}},{"name":"Oak Bay","state_code":"BC","latitude":"48.44964000","longitude":"-123.30260000","population":18015,"timezone":"America/Vancouver","type":"city","translations":{"es":"Bahía de Oak","en":"Oak Bay"}},{"name":"Okanagan","state_code":"BC","latitude":"50.36386000","longitude":"-119.34997000","population":null,"timezone":"America/Toronto","type":"city","translations":{"es":"Okanagan","en":"Okanagan"}},{"name":"Okanagan Falls","state_code":"BC","latitude":"49.35000000","longitude":"-119.56667000","population":2266,"timezone":"America/Vancouver","type":"city","translations":{"es":"Cataratas de Okanagan","en":"Okanagan Falls"}},{"name":"Oliver","state_code":"BC","latitude":"49.18306000","longitude":"-119.55240000","population":5094,"timezone":"America/Vancouver","type":"city","translations":{"es":"Oliver","en":"Oliver"}},{"name":"Osoyoos","state_code":"BC","latitude":"49.03306000","longitude":"-119.45237000","population":5556,"timezone":"America/Vancouver","type":"city","translations":{"es":"Osoyoos","en":"Osoyoos"}},{"name":"Parksville","state_code":"BC","latitude":"49.31947000","longitude":"-124.31575000","population":12514,"timezone":"America/Vancouver","type":"city","translations":{"es":"Parksville","en":"Parksville"}},{"name":"Peace River Regional","state_code":"BC","latitude":"56.66650000","longitude":"-122.75302000","population":62942,"timezone":"America/Toronto","type":"district","translations":{"es":"Distrito Regional del Río Paz","en":"Peace River Regional"}},{"name":"Peachland","state_code":"BC","latitude":"49.76647000","longitude":"-119.73568000","population":5006,"timezone":"America/Toronto","type":"city","translations":{"es":"Tierra de melocotones","en":"Peachland"}},{"name":"Pemberton","state_code":"BC","latitude":"50.31641000","longitude":"-122.80273000","population":2574,"timezone":"America/Vancouver","type":"city","translations":{"es":"Pemberton","en":"Pemberton"}},{"name":"Penticton","state_code":"BC","latitude":"49.48062000","longitude":"-119.58584000","population":33761,"timezone":"America/Vancouver","type":"city","translations":{"es":"Penticton","en":"Penticton"}},{"name":"Pitt Meadows","state_code":"BC","latitude":"49.22119000","longitude":"-122.68965000","population":18573,"timezone":"America/Vancouver","type":"city","translations":{"es":"Prados de Pitt","en":"Pitt Meadows"}},{"name":"Port Alberni","state_code":"BC","latitude":"49.24133000","longitude":"-124.80280000","population":17678,"timezone":"America/Vancouver","type":"city","translations":{"es":"Puerto Alberni","en":"Port Alberni"}},{"name":"Port Coquitlam","state_code":"BC","latitude":"49.26637000","longitude":"-122.76932000","population":58000,"timezone":"America/Vancouver","type":"adm3","translations":{"es":"Puerto Coquitlam","en":"Port Coquitlam"}},{"name":"Port McNeill","state_code":"BC","latitude":"50.58716000","longitude":"-127.08053000","population":2234,"timezone":"America/Toronto","type":"city","translations":{"es":"Puerto McNeill","en":"Port McNeill"}},{"name":"Port Moody","state_code":"BC","latitude":"49.28124000","longitude":"-122.82457000","population":33551,"timezone":"America/Vancouver","type":"adm3","translations":{"es":"Puerto Moody","en":"Port Moody"}},{"name":"Powell River","state_code":"BC","latitude":"49.83278000","longitude":"-124.52368000","population":13157,"timezone":"America/Vancouver","type":"city","translations":{"es":"Río Powell","en":"Powell River"}},{"name":"Prince George","state_code":"BC","latitude":"53.91660000","longitude":"-122.75301000","population":74003,"timezone":"America/Vancouver","type":"city","translations":{"es":"Príncipe Jorge","en":"Prince George"}},{"name":"Prince Rupert","state_code":"BC","latitude":"54.31507000","longitude":"-130.32098000","population":12220,"timezone":"America/Vancouver","type":"city","translations":{"es":"Príncipe Rupert","en":"Prince Rupert"}},{"name":"Princeton","state_code":"BC","latitude":"49.45802000","longitude":"-120.51076000","population":2828,"timezone":"America/Vancouver","type":"city","translations":{"es":"Princeton","en":"Princeton"}},{"name":"Puntledge","state_code":"BC","latitude":"49.66168000","longitude":"-125.05686000","population":null,"timezone":"America/Toronto","type":"city","translations":{"es":"Puntledge","en":"Puntledge"}},{"name":"Quesnel","state_code":"BC","latitude":"52.97842000","longitude":"-122.49310000","population":9879,"timezone":"America/Vancouver","type":"city","translations":{"es":"Quesnel","en":"Quesnel"}},{"name":"Regional District of Alberni-Clayoquot","state_code":"BC","latitude":"49.24962000","longitude":"-125.33615000","population":null,"timezone":"America/Toronto","type":"city","translations":{"es":"Distrito Regional de Alberni-Clayoquot","en":"Regional District of Alberni-Clayoquot"}},{"name":"Regional District of Central Okanagan","state_code":"BC","latitude":"49.99978000","longitude":"-119.41908000","population":194882,"timezone":"America/Toronto","type":"city","translations":{"es":"Distrito Regional de Okanagan Central","en":"Regional District of Central Okanagan"}},{"name":"Revelstoke","state_code":"BC","latitude":"50.99712000","longitude":"-118.19530000","population":7547,"timezone":"America/Vancouver","type":"city","translations":{"es":"Revelstoke","en":"Revelstoke"}},{"name":"Richmond","state_code":"BC","latitude":"49.17003000","longitude":"-123.13683000","population":209937,"timezone":"America/Vancouver","type":"city","translations":{"es":"Richmond","en":"Richmond"}},{"name":"Rossland","state_code":"BC","latitude":"49.08313000","longitude":"-117.80224000","population":4140,"timezone":"America/Vancouver","type":"city","translations":{"es":"Rossland","en":"Rossland"}},{"name":"Royston","state_code":"BC","latitude":"49.64703000","longitude":"-124.94670000","population":1616,"timezone":"America/Vancouver","type":"city","translations":{"es":"Royston","en":"Royston"}},{"name":"Salmo","state_code":"BC","latitude":"49.19986000","longitude":"-117.26890000","population":1141,"timezone":"America/Toronto","type":"city","translations":{"es":"Salmo","en":"Salmo"}},{"name":"Salmon Arm","state_code":"BC","latitude":"50.69980000","longitude":"-119.30237000","population":12875,"timezone":"America/Vancouver","type":"city","translations":{"es":"Brazo de salmón","en":"Salmon Arm"}},{"name":"Salt Spring Island","state_code":"BC","latitude":"48.81852000","longitude":"-123.49061000","population":null,"timezone":"America/Toronto","type":"city","translations":{"es":"Isla Salt Spring","en":"Salt Spring Island"}},{"name":"Saltair","state_code":"BC","latitude":"48.94963000","longitude":"-123.76939000","population":2069,"timezone":"America/Vancouver","type":"city","translations":{"es":"Saltair","en":"Saltair"}},{"name":"Sechelt","state_code":"BC","latitude":"49.47512000","longitude":"-123.75903000","population":8832,"timezone":"America/Vancouver","type":"city","translations":{"es":"Sechelt","en":"Sechelt"}},{"name":"Sicamous","state_code":"BC","latitude":"50.83312000","longitude":"-118.98565000","population":1786,"timezone":"America/Vancouver","type":"city","translations":{"es":"Sicamous","en":"Sicamous"}},{"name":"Six Mile","state_code":"BC","latitude":"48.45767000","longitude":"-123.46088000","population":1031,"timezone":"America/Vancouver","type":"city","translations":{"es":"Seis millas","en":"Six Mile"}},{"name":"Smithers","state_code":"BC","latitude":"54.78036000","longitude":"-127.17428000","population":5401,"timezone":"America/Vancouver","type":"city","translations":{"es":"Smithers","en":"Smithers"}},{"name":"Sooke","state_code":"BC","latitude":"48.37463000","longitude":"-123.72762000","population":6145,"timezone":"America/Vancouver","type":"city","translations":{"es":"Sooke","en":"Sooke"}},{"name":"South Pender Harbour","state_code":"BC","latitude":"49.62202000","longitude":"-124.02484000","population":1187,"timezone":"America/Vancouver","type":"city","translations":{"es":"Puerto de South Pender","en":"South Pender Harbour"}},{"name":"Sparwood","state_code":"BC","latitude":"49.73332000","longitude":"-114.88532000","population":3784,"timezone":"America/Edmonton","type":"city","translations":{"es":"Sparwood","en":"Sparwood"}},{"name":"Summerland","state_code":"BC","latitude":"49.59977000","longitude":"-119.66911000","population":11615,"timezone":"America/Vancouver","type":"city","translations":{"es":"Tierra de verano","en":"Summerland"}},{"name":"Surrey","state_code":"BC","latitude":"49.10635000","longitude":"-122.82509000","population":568322,"timezone":"America/Vancouver","type":"city","translations":{"es":"Surrey","en":"Surrey"}},{"name":"Terrace","state_code":"BC","latitude":"54.51634000","longitude":"-128.60345000","population":19443,"timezone":"America/Vancouver","type":"city","translations":{"es":"Terraza","en":"Terrace"}},{"name":"Tofino","state_code":"BC","latitude":"49.15314000","longitude":"-125.90744000","population":2516,"timezone":"America/Vancouver","type":"city","translations":{"es":"Tofino","en":"Tofino"}},{"name":"Trail","state_code":"BC","latitude":"49.09983000","longitude":"-117.70223000","population":7709,"timezone":"America/Vancouver","type":"city","translations":{"es":"Camino","en":"Trail"}},{"name":"Tsawwassen","state_code":"BC","latitude":"49.01667000","longitude":"-123.08333000","population":21588,"timezone":"America/Vancouver","type":"section","translations":{"es":"Tsawwassen","en":"Tsawwassen"}},{"name":"Tumbler Ridge","state_code":"BC","latitude":"55.13027000","longitude":"-120.99415000","population":2454,"timezone":"America/Dawson_Creek","type":"city","translations":{"es":"Cresta Tumbler","en":"Tumbler Ridge"}},{"name":"Ucluelet","state_code":"BC","latitude":"48.94153000","longitude":"-125.54635000","population":2066,"timezone":"America/Vancouver","type":"city","translations":{"es":"Ucluelet","en":"Ucluelet"}},{"name":"Vancouver","state_code":"BC","latitude":"49.24966000","longitude":"-123.11934000","population":662248,"timezone":"America/Vancouver","type":"city","translations":{"es":"Vancouver","en":"Vancouver"}},{"name":"Vanderhoof","state_code":"BC","latitude":"54.01657000","longitude":"-124.01982000","population":4346,"timezone":"America/Vancouver","type":"city","translations":{"es":"Vanderhoof","en":"Vanderhoof"}},{"name":"Vernon","state_code":"BC","latitude":"50.26729000","longitude":"-119.27337000","population":44519,"timezone":"America/Vancouver","type":"city","translations":{"es":"Vernon","en":"Vernon"}},{"name":"Victoria","state_code":"BC","latitude":"48.43590000","longitude":"-123.35155000","population":289625,"timezone":"America/Vancouver","type":"adm1","translations":{"es":"Victoria","en":"Victoria"}},{"name":"Walnut Grove","state_code":"BC","latitude":"49.16473000","longitude":"-122.64042000","population":25683,"timezone":"America/Vancouver","type":"city","translations":{"es":"Walnut Grove","en":"Walnut Grove"}},{"name":"Welcome Beach","state_code":"BC","latitude":"49.47959000","longitude":"-123.89239000","population":1125,"timezone":"America/Vancouver","type":"locality","translations":{"es":"Playa de bienvenida","en":"Welcome Beach"}},{"name":"West End","state_code":"BC","latitude":"49.28333000","longitude":"-123.13333000","population":47200,"timezone":"America/Vancouver","type":"section","translations":{"es":"West End","en":"West End"}},{"name":"West Kelowna","state_code":"BC","latitude":"49.86250000","longitude":"-119.58333000","population":28793,"timezone":"America/Vancouver","type":"city","translations":{"es":"Oeste de Kelowna","en":"West Kelowna"}},{"name":"West Vancouver","state_code":"BC","latitude":"49.36672000","longitude":"-123.16652000","population":42473,"timezone":"America/Toronto","type":"city","translations":{"es":"Vancouver occidental","en":"West Vancouver"}},{"name":"Whistler","state_code":"BC","latitude":"50.11817000","longitude":"-122.95396000","population":8713,"timezone":"America/Vancouver","type":"city","translations":{"es":"Whistler","en":"Whistler"}},{"name":"White Rock","state_code":"BC","latitude":"49.01636000","longitude":"-122.80260000","population":19952,"timezone":"America/Toronto","type":"city","translations":{"es":"Roca blanca","en":"White Rock"}},{"name":"Williams Lake","state_code":"BC","latitude":"52.14153000","longitude":"-122.14451000","population":14168,"timezone":"America/Vancouver","type":"city","translations":{"es":"Lago Williams","en":"Williams Lake"}},{"name":"Altona","state_code":"MB","latitude":"49.10469000","longitude":"-97.55961000","population":4212,"timezone":"America/Winnipeg","type":"city","translations":{"es":"Altona","en":"Altona"}},{"name":"Beausejour","state_code":"MB","latitude":"50.06220000","longitude":"-96.51669000","population":3126,"timezone":"America/Winnipeg","type":"city","translations":{"es":"Beauséjour","en":"Beausejour"}},{"name":"Boissevain","state_code":"MB","latitude":"49.23062000","longitude":"-100.05586000","population":1656,"timezone":"America/Winnipeg","type":"city","translations":{"es":"Boissevain","en":"Boissevain"}},{"name":"Brandon","state_code":"MB","latitude":"49.84692000","longitude":"-99.95306000","population":51313,"timezone":"America/Winnipeg","type":"city","translations":{"es":"Brandon","en":"Brandon"}},{"name":"Carberry","state_code":"MB","latitude":"49.86893000","longitude":"-99.36021000","population":1738,"timezone":"America/Winnipeg","type":"city","translations":{"es":"Arándano","en":"Carberry"}},{"name":"Carman","state_code":"MB","latitude":"49.49920000","longitude":"-98.00156000","population":3027,"timezone":"America/Winnipeg","type":"city","translations":{"es":"Dirigente de coche","en":"Carman"}},{"name":"Cross Lake 19A","state_code":"MB","latitude":"54.65135000","longitude":"-97.76848000","population":2018,"timezone":"America/Winnipeg","type":"city","translations":{"es":"Lago Cross 19A","en":"Cross Lake 19A"}},{"name":"Dauphin","state_code":"MB","latitude":"51.14941000","longitude":"-100.05023000","population":8368,"timezone":"America/Winnipeg","type":"city","translations":{"es":"Delfín","en":"Dauphin"}},{"name":"De Salaberry","state_code":"MB","latitude":"49.39999000","longitude":"-97.00894000","population":3580,"timezone":"America/Toronto","type":"city","translations":{"es":"De Salaberry","en":"De Salaberry"}},{"name":"Deloraine","state_code":"MB","latitude":"49.19082000","longitude":"-100.49477000","population":1068,"timezone":"America/Winnipeg","type":"city","translations":{"es":"Deloraine","en":"Deloraine"}},{"name":"Flin Flon","state_code":"MB","latitude":"54.76703000","longitude":"-101.87433000","population":5099,"timezone":"America/Winnipeg","type":"city","translations":{"es":"Flin Flon","en":"Flin Flon"}},{"name":"Gimli","state_code":"MB","latitude":"50.63362000","longitude":"-96.99066000","population":2345,"timezone":"America/Winnipeg","type":"city","translations":{"es":"Gimli","en":"Gimli"}},{"name":"Grunthal","state_code":"MB","latitude":"49.40668000","longitude":"-96.85873000","population":1680,"timezone":"America/Winnipeg","type":"city","translations":{"es":"Grunthal","en":"Grunthal"}},{"name":"Headingley","state_code":"MB","latitude":"49.87530000","longitude":"-97.40896000","population":3579,"timezone":"America/Winnipeg","type":"city","translations":{"es":"Headingley","en":"Headingley"}},{"name":"Ile des Chênes","state_code":"MB","latitude":"49.71060000","longitude":"-96.98893000","population":1253,"timezone":"America/Winnipeg","type":"city","translations":{"es":"Isla de los Chênes","en":"Ile des Chênes"}},{"name":"Killarney","state_code":"MB","latitude":"49.18332000","longitude":"-99.66364000","population":2362,"timezone":"America/Winnipeg","type":"city","translations":{"es":"Killarney","en":"Killarney"}},{"name":"La Broquerie","state_code":"MB","latitude":"49.51688000","longitude":"-96.50029000","population":1073,"timezone":"America/Winnipeg","type":"city","translations":{"es":"La Broquerie","en":"La Broquerie"}},{"name":"Lac du Bonnet","state_code":"MB","latitude":"50.25360000","longitude":"-96.06116000","population":1089,"timezone":"America/Winnipeg","type":"city","translations":{"es":"Lago del Bonnet","en":"Lac du Bonnet"}},{"name":"Landmark","state_code":"MB","latitude":"49.67169000","longitude":"-96.82232000","population":1292,"timezone":"America/Winnipeg","type":"city","translations":{"es":"Marca","en":"Landmark"}},{"name":"Lorette","state_code":"MB","latitude":"49.73919000","longitude":"-96.87232000","population":3208,"timezone":"America/Winnipeg","type":"city","translations":{"es":"Lorette","en":"Lorette"}},{"name":"Melita","state_code":"MB","latitude":"49.26811000","longitude":"-100.99669000","population":1042,"timezone":"America/Winnipeg","type":"city","translations":{"es":"Melita","en":"Melita"}},{"name":"Minnedosa","state_code":"MB","latitude":"50.24532000","longitude":"-99.84364000","population":2449,"timezone":"America/Winnipeg","type":"city","translations":{"es":"Minnedosa","en":"Minnedosa"}},{"name":"Moose Lake","state_code":"MB","latitude":"49.20559000","longitude":"-95.30629000","population":1225,"timezone":"America/Winnipeg","type":"locality","translations":{"es":"Lago Moose","en":"Moose Lake"}},{"name":"Morden","state_code":"MB","latitude":"49.19190000","longitude":"-98.10136000","population":9929,"timezone":"America/Winnipeg","type":"city","translations":{"es":"Moderno","en":"Morden"}},{"name":"Morris","state_code":"MB","latitude":"49.35499000","longitude":"-97.36567000","population":1885,"timezone":"America/Winnipeg","type":"city","translations":{"es":"Morris","en":"Morris"}},{"name":"Neepawa","state_code":"MB","latitude":"50.22892000","longitude":"-99.46642000","population":4609,"timezone":"America/Winnipeg","type":"city","translations":{"es":"Neepawa","en":"Neepawa"}},{"name":"Niverville","state_code":"MB","latitude":"49.60559000","longitude":"-97.04234000","population":4083,"timezone":"America/Winnipeg","type":"city","translations":{"es":"Niverville","en":"Niverville"}},{"name":"Portage la Prairie","state_code":"MB","latitude":"49.97282000","longitude":"-98.29263000","population":13304,"timezone":"America/Winnipeg","type":"city","translations":{"es":"Portage la Prairie","en":"Portage la Prairie"}},{"name":"Rivers","state_code":"MB","latitude":"50.03081000","longitude":"-100.24029000","population":1257,"timezone":"America/Winnipeg","type":"city","translations":{"es":"Ríos","en":"Rivers"}},{"name":"Roblin","state_code":"MB","latitude":"51.22999000","longitude":"-101.35650000","population":1614,"timezone":"America/Winnipeg","type":"city","translations":{"es":"Roblin","en":"Roblin"}},{"name":"Selkirk","state_code":"MB","latitude":"50.14360000","longitude":"-96.88452000","population":10504,"timezone":"America/Winnipeg","type":"city","translations":{"es":"Selkirk","en":"Selkirk"}},{"name":"Shilo","state_code":"MB","latitude":"49.80509000","longitude":"-99.63175000","population":null,"timezone":"America/Toronto","type":"city","translations":{"es":"Shilo","en":"Shilo"}},{"name":"Souris","state_code":"MB","latitude":"49.61720000","longitude":"-100.26120000","population":1876,"timezone":"America/Winnipeg","type":"city","translations":{"es":"Ratón","en":"Souris"}},{"name":"St. Adolphe","state_code":"MB","latitude":"49.67440000","longitude":"-97.11124000","population":1362,"timezone":"America/Winnipeg","type":"city","translations":{"es":"San Adolfo","en":"St. Adolphe"}},{"name":"Steinbach","state_code":"MB","latitude":"49.52579000","longitude":"-96.68451000","population":17806,"timezone":"America/Winnipeg","type":"city","translations":{"es":"Steinbach","en":"Steinbach"}},{"name":"Stonewall","state_code":"MB","latitude":"50.13441000","longitude":"-97.32676000","population":4536,"timezone":"America/Winnipeg","type":"city","translations":{"es":"Emplear una táctica de cerrojo","en":"Stonewall"}},{"name":"Swan River","state_code":"MB","latitude":"52.10580000","longitude":"-101.26759000","population":4049,"timezone":"America/Winnipeg","type":"city","translations":{"es":"Río Swan","en":"Swan River"}},{"name":"The Pas","state_code":"MB","latitude":"53.82509000","longitude":"-101.25413000","population":5369,"timezone":"America/Toronto","type":"city","translations":{"es":"El Pas","en":"The Pas"}},{"name":"Thompson","state_code":"MB","latitude":"55.74350000","longitude":"-97.85579000","population":13035,"timezone":"America/Winnipeg","type":"city","translations":{"es":"Thompson","en":"Thompson"}},{"name":"Virden","state_code":"MB","latitude":"49.85080000","longitude":"-100.93262000","population":3322,"timezone":"America/Winnipeg","type":"city","translations":{"es":"Virden","en":"Virden"}},{"name":"West St. Paul","state_code":"MB","latitude":"49.99940000","longitude":"-97.16284000","population":5368,"timezone":"America/Toronto","type":"city","translations":{"es":"Oeste de St. Paul","en":"West St. Paul"}},{"name":"Winkler","state_code":"MB","latitude":"49.18170000","longitude":"-97.94104000","population":13745,"timezone":"America/Winnipeg","type":"city","translations":{"es":"Winkler","en":"Winkler"}},{"name":"Winnipeg","state_code":"MB","latitude":"49.88440000","longitude":"-97.14704000","population":749607,"timezone":"America/Winnipeg","type":"adm1","translations":{"es":"Winnipeg","en":"Winnipeg"}},{"name":"Baie Ste. Anne","state_code":"NB","latitude":"47.05231000","longitude":"-64.95355000","population":1319,"timezone":"America/Moncton","type":"city","translations":{"es":"Bahía Santa Ana","en":"Baie Ste. Anne"}},{"name":"Bathurst","state_code":"NB","latitude":"47.61814000","longitude":"-65.65112000","population":11897,"timezone":"America/Moncton","type":"city","translations":{"es":"Bathurst","en":"Bathurst"}},{"name":"Bouctouche","state_code":"NB","latitude":"46.46844000","longitude":"-64.73905000","population":2361,"timezone":"America/Moncton","type":"city","translations":{"es":"Bouctouche","en":"Bouctouche"}},{"name":"Campbellton","state_code":"NB","latitude":"48.00751000","longitude":"-66.67272000","population":6883,"timezone":"America/Moncton","type":"city","translations":{"es":"Campbellton","en":"Campbellton"}},{"name":"Dieppe","state_code":"NB","latitude":"46.07844000","longitude":"-64.68735000","population":27304,"timezone":"America/Moncton","type":"city","translations":{"es":"Dieppe","en":"Dieppe"}},{"name":"Edmundston","state_code":"NB","latitude":"47.37370000","longitude":"-68.32512000","population":17175,"timezone":"America/Moncton","type":"city","translations":{"es":"Edmundston","en":"Edmundston"}},{"name":"Florenceville-Bristol","state_code":"NB","latitude":"46.44353000","longitude":"-67.61536000","population":1639,"timezone":"America/Moncton","type":"city","translations":{"es":"Florenceville-Bristol","en":"Florenceville-Bristol"}},{"name":"Fredericton","state_code":"NB","latitude":"45.94541000","longitude":"-66.66558000","population":63116,"timezone":"America/Moncton","type":"adm1","translations":{"es":"Fredericton","en":"Fredericton"}},{"name":"Fundy Bay","state_code":"NB","latitude":"44.74100000","longitude":"-66.76041000","population":1167,"timezone":"America/Moncton","type":"city","translations":{"es":"Bahía de Fundy","en":"Fundy Bay"}},{"name":"Grande-Digue","state_code":"NB","latitude":"46.30014000","longitude":"-64.56546000","population":2261,"timezone":"America/Moncton","type":"city","translations":{"es":"Grande-Digue","en":"Grande-Digue"}},{"name":"Greater Lakeburn","state_code":"NB","latitude":"46.07651000","longitude":"-64.66818000","population":1014,"timezone":"America/Moncton","type":"city","translations":{"es":"Gran Lakeburn","en":"Greater Lakeburn"}},{"name":"Hampton","state_code":"NB","latitude":"45.52876000","longitude":"-65.85354000","population":3436,"timezone":"America/Moncton","type":"city","translations":{"es":"Hampton","en":"Hampton"}},{"name":"Harrison Brook","state_code":"NB","latitude":"47.21304000","longitude":"-67.92847000","population":null,"timezone":"America/Halifax","type":"city","translations":{"es":"Harrison Brook","en":"Harrison Brook"}},{"name":"Keswick Ridge","state_code":"NB","latitude":"46.00011000","longitude":"-66.88218000","population":1652,"timezone":"America/Moncton","type":"city","translations":{"es":"Cresta de Keswick","en":"Keswick Ridge"}},{"name":"Lincoln","state_code":"NB","latitude":"45.90012000","longitude":"-66.58218000","population":2504,"timezone":"America/Moncton","type":"city","translations":{"es":"Lincoln","en":"Lincoln"}},{"name":"Lutes Mountain","state_code":"NB","latitude":"46.13544000","longitude":"-64.90504000","population":16311,"timezone":"America/Moncton","type":"city","translations":{"es":"Montaña Lutes","en":"Lutes Mountain"}},{"name":"McEwen","state_code":"NB","latitude":"46.14520000","longitude":"-64.78615000","population":1462,"timezone":"America/Moncton","type":"city","translations":{"es":"McEwen","en":"McEwen"}},{"name":"Miramichi","state_code":"NB","latitude":"47.02895000","longitude":"-65.50186000","population":18129,"timezone":"America/Moncton","type":"city","translations":{"es":"miramichi","en":"Miramichi"}},{"name":"Moncton","state_code":"NB","latitude":"46.09454000","longitude":"-64.79650000","population":79470,"timezone":"America/Moncton","type":"city","translations":{"es":"Moncton","en":"Moncton"}},{"name":"Nackawic","state_code":"NB","latitude":"45.99666000","longitude":"-67.24028000","population":962,"timezone":"America/Moncton","type":"city","translations":{"es":"Nackawic","en":"Nackawic"}},{"name":"New Maryland","state_code":"NB","latitude":"45.87932000","longitude":"-66.66828000","population":4174,"timezone":"America/Halifax","type":"city","translations":{"es":"Nueva Maryland","en":"New Maryland"}},{"name":"Noonan","state_code":"NB","latitude":"45.96682000","longitude":"-66.53218000","population":1042,"timezone":"America/Moncton","type":"city","translations":{"es":"Noonan","en":"Noonan"}},{"name":"Oromocto","state_code":"NB","latitude":"45.83512000","longitude":"-66.47917000","population":8805,"timezone":"America/Moncton","type":"city","translations":{"es":"Oromocto","en":"Oromocto"}},{"name":"Richibucto","state_code":"NB","latitude":"46.68073000","longitude":"-64.88044000","population":1411,"timezone":"America/Moncton","type":"city","translations":{"es":"Richibucto","en":"Richibucto"}},{"name":"Sackville","state_code":"NB","latitude":"45.91875000","longitude":"-64.38455000","population":0,"timezone":"America/Halifax","type":"city","translations":{"es":"Sackville","en":"Sackville"}},{"name":"Saint Andrews","state_code":"NB","latitude":"45.07370000","longitude":"-67.05312000","population":1809,"timezone":"America/Moncton","type":"city","translations":{"es":"San Andrés","en":"Saint Andrews"}},{"name":"Saint John","state_code":"NB","latitude":"45.27271000","longitude":"-66.06766000","population":67575,"timezone":"America/Halifax","type":"city","translations":{"es":"San Juan","en":"Saint John"}},{"name":"Saint-Antoine","state_code":"NB","latitude":"46.36294000","longitude":"-64.74985000","population":1252,"timezone":"America/Moncton","type":"city","translations":{"es":"San Antonio","en":"Saint-Antoine"}},{"name":"Saint-Léonard","state_code":"NB","latitude":"47.16317000","longitude":"-67.92460000","population":2700,"timezone":"America/Moncton","type":"city","translations":{"es":"San Leonardo","en":"Saint-Léonard"}},{"name":"Salisbury","state_code":"NB","latitude":"46.03905000","longitude":"-65.04628000","population":1534,"timezone":"America/Moncton","type":"city","translations":{"es":"Salisbury","en":"Salisbury"}},{"name":"Shediac","state_code":"NB","latitude":"46.21981000","longitude":"-64.54107000","population":6664,"timezone":"America/Moncton","type":"city","translations":{"es":"Shediac","en":"Shediac"}},{"name":"Shediac Bridge-Shediac River","state_code":"NB","latitude":"46.26886000","longitude":"-64.60047000","population":1098,"timezone":"America/Moncton","type":"city","translations":{"es":"Puente Shediac-Río Shediac","en":"Shediac Bridge-Shediac River"}},{"name":"Shippagan","state_code":"NB","latitude":"47.74424000","longitude":"-64.70804000","population":2580,"timezone":"America/Moncton","type":"city","translations":{"es":"Shippagan","en":"Shippagan"}},{"name":"Starlight Village","state_code":"NB","latitude":"45.88308000","longitude":"-66.76905000","population":null,"timezone":"America/Halifax","type":"city","translations":{"es":"Aldea Starlight","en":"Starlight Village"}},{"name":"Sussex","state_code":"NB","latitude":"45.72266000","longitude":"-65.50663000","population":5298,"timezone":"America/Moncton","type":"city","translations":{"es":"Sussex","en":"Sussex"}},{"name":"Tracadie-Sheila","state_code":"NB","latitude":"47.51444000","longitude":"-64.91806000","population":3184,"timezone":"America/Moncton","type":"city","translations":{"es":"Tracadie-Sheila","en":"Tracadie-Sheila"}},{"name":"Wells","state_code":"NB","latitude":"45.39274000","longitude":"-65.92313000","population":217,"timezone":"America/Halifax","type":"section","translations":{"es":"Pozos","en":"Wells"}},{"name":"Bay Roberts","state_code":"NL","latitude":"47.59989000","longitude":"-53.26478000","population":6012,"timezone":"America/St_Johns","type":"city","translations":{"es":"Bahía Roberts","en":"Bay Roberts"}},{"name":"Bay St. George South","state_code":"NL","latitude":"48.22781000","longitude":"-58.84162000","population":1103,"timezone":"America/St_Johns","type":"city","translations":{"es":"Bahía St. George Sur","en":"Bay St. George South"}},{"name":"Bonavista","state_code":"NL","latitude":"48.64989000","longitude":"-53.11474000","population":3448,"timezone":"America/St_Johns","type":"city","translations":{"es":"Bonavista","en":"Bonavista"}},{"name":"Botwood","state_code":"NL","latitude":"49.14994000","longitude":"-55.34819000","population":2875,"timezone":"America/St_Johns","type":"city","translations":{"es":"Botwood","en":"Botwood"}},{"name":"Burgeo","state_code":"NL","latitude":"47.61668000","longitude":"-57.61516000","population":1307,"timezone":"America/St_Johns","type":"city","translations":{"es":"Burgeo","en":"Burgeo"}},{"name":"Carbonear","state_code":"NL","latitude":"47.73319000","longitude":"-53.21478000","population":4838,"timezone":"America/St_Johns","type":"city","translations":{"es":"Carbonear","en":"Carbonear"}},{"name":"Catalina","state_code":"NL","latitude":"48.51659000","longitude":"-53.08135000","population":845,"timezone":"America/St_Johns","type":"city","translations":{"es":"Catalina","en":"Catalina"}},{"name":"Channel-Port aux Basques","state_code":"NL","latitude":"47.57286000","longitude":"-59.13808000","population":4220,"timezone":"America/St_Johns","type":"city","translations":{"es":"Canal-Puerto de los Vascos","en":"Channel-Port aux Basques"}},{"name":"Clarenville-Shoal Harbour","state_code":"NL","latitude":"48.18050000","longitude":"-53.96982000","population":3478,"timezone":"America/St_Johns","type":"city","translations":{"es":"Puerto de Clarenville-Shoal","en":"Clarenville-Shoal Harbour"}},{"name":"Conception Bay South","state_code":"NL","latitude":"47.49989000","longitude":"-52.99806000","population":17087,"timezone":"America/St_Johns","type":"city","translations":{"es":"Bahía Concepción Sur","en":"Conception Bay South"}},{"name":"Corner Brook","state_code":"NL","latitude":"48.95001000","longitude":"-57.95202000","population":18693,"timezone":"America/St_Johns","type":"city","translations":{"es":"Corner Brook","en":"Corner Brook"}},{"name":"Deer Lake","state_code":"NL","latitude":"49.16671000","longitude":"-57.43163000","population":4602,"timezone":"America/St_Johns","type":"city","translations":{"es":"Lago de los ciervos","en":"Deer Lake"}},{"name":"Fogo Island","state_code":"NL","latitude":"49.71649000","longitude":"-54.16981000","population":2244,"timezone":"America/St_Johns","type":"city","translations":{"es":"Isla de Fogo","en":"Fogo Island"}},{"name":"Gambo","state_code":"NL","latitude":"48.78320000","longitude":"-54.21482000","population":1978,"timezone":"America/St_Johns","type":"city","translations":{"es":"Gambo","en":"Gambo"}},{"name":"Goulds","state_code":"NL","latitude":"47.45532000","longitude":"-52.77552000","population":4418,"timezone":"America/St_Johns","type":"city","translations":{"es":"Goulds","en":"Goulds"}},{"name":"Grand Bank","state_code":"NL","latitude":"47.09995000","longitude":"-55.76504000","population":4623,"timezone":"America/St_Johns","type":"city","translations":{"es":"Gran Banco","en":"Grand Bank"}},{"name":"Grand Falls-Windsor","state_code":"NL","latitude":"48.93324000","longitude":"-55.66492000","population":14171,"timezone":"America/St_Johns","type":"city","translations":{"es":"Grand Falls-Windsor","en":"Grand Falls-Windsor"}},{"name":"Happy Valley-Goose Bay","state_code":"NL","latitude":"53.30380000","longitude":"-60.32576000","population":8109,"timezone":"America/Goose_Bay","type":"city","translations":{"es":"Valle Feliz-Goose Bay","en":"Happy Valley-Goose Bay"}},{"name":"Harbour Breton","state_code":"NL","latitude":"47.48325000","longitude":"-55.79833000","population":1634,"timezone":"America/St_Johns","type":"city","translations":{"es":"Puerto bretón","en":"Harbour Breton"}},{"name":"Labrador City","state_code":"NL","latitude":"52.94626000","longitude":"-66.91137000","population":7220,"timezone":"America/Goose_Bay","type":"city","translations":{"es":"Ciudad Labrador","en":"Labrador City"}},{"name":"Lewisporte","state_code":"NL","latitude":"49.24993000","longitude":"-55.04816000","population":2174,"timezone":"America/St_Johns","type":"city","translations":{"es":"Lewisporte","en":"Lewisporte"}},{"name":"Marystown","state_code":"NL","latitude":"47.16663000","longitude":"-55.14829000","population":2697,"timezone":"America/St_Johns","type":"city","translations":{"es":"Marystown","en":"Marystown"}},{"name":"Mount Pearl","state_code":"NL","latitude":"47.51659000","longitude":"-52.78135000","population":23120,"timezone":"America/St_Johns","type":"city","translations":{"es":"Monte Perla","en":"Mount Pearl"}},{"name":"Pasadena","state_code":"NL","latitude":"49.01671000","longitude":"-57.59837000","population":3620,"timezone":"America/St_Johns","type":"city","translations":{"es":"Pasadena","en":"Pasadena"}},{"name":"Springdale","state_code":"NL","latitude":"49.49995000","longitude":"-56.06492000","population":2080,"timezone":"America/St_Johns","type":"city","translations":{"es":"Springdale","en":"Springdale"}},{"name":"St. Anthony","state_code":"NL","latitude":"51.37039000","longitude":"-55.59743000","population":2049,"timezone":"America/St_Johns","type":"city","translations":{"es":"San Antonio","en":"St. Anthony"}},{"name":"St. John's","state_code":"NL","latitude":"47.56494000","longitude":"-52.70931000","population":110525,"timezone":"America/St_Johns","type":"adm1","translations":{"es":"San Juan","en":"St. John's"}},{"name":"Stephenville","state_code":"NL","latitude":"48.55001000","longitude":"-58.58180000","population":6278,"timezone":"America/St_Johns","type":"city","translations":{"es":"Stephenville","en":"Stephenville"}},{"name":"Stephenville Crossing","state_code":"NL","latitude":"48.50001000","longitude":"-58.43180000","population":1183,"timezone":"America/St_Johns","type":"city","translations":{"es":"Cruce de Stephenville","en":"Stephenville Crossing"}},{"name":"Torbay","state_code":"NL","latitude":"47.66659000","longitude":"-52.73135000","population":3097,"timezone":"America/St_Johns","type":"city","translations":{"es":"Torbay","en":"Torbay"}},{"name":"Upper Island Cove","state_code":"NL","latitude":"47.64989000","longitude":"-53.21478000","population":1142,"timezone":"America/St_Johns","type":"city","translations":{"es":"Cala de la isla superior","en":"Upper Island Cove"}},{"name":"Wabana","state_code":"NL","latitude":"47.63319000","longitude":"-52.94806000","population":2146,"timezone":"America/St_Johns","type":"city","translations":{"es":"Wabana","en":"Wabana"}},{"name":"Behchokǫ̀","state_code":"NT","latitude":"62.80250000","longitude":"-116.04639000","population":1746,"timezone":"America/Edmonton","type":"city","translations":{"es":"Behchokǫ̀","en":"Behchokǫ̀"}},{"name":"Fort McPherson","state_code":"NT","latitude":"67.43863000","longitude":"-134.88543000","population":700,"timezone":"America/Edmonton","type":"city","translations":{"es":"Fuerte McPherson","en":"Fort McPherson"}},{"name":"Fort Smith","state_code":"NT","latitude":"60.00439000","longitude":"-111.88871000","population":2248,"timezone":"America/Edmonton","type":"city","translations":{"es":"Fuerte Smith","en":"Fort Smith"}},{"name":"Hay River","state_code":"NT","latitude":"60.81555000","longitude":"-115.79993000","population":3528,"timezone":"America/Edmonton","type":"city","translations":{"es":"Río Hay","en":"Hay River"}},{"name":"Inuvik","state_code":"NT","latitude":"68.34986000","longitude":"-133.72181000","population":3137,"timezone":"America/Toronto","type":"city","translations":{"es":"Inuvik","en":"Inuvik"}},{"name":"Norman Wells","state_code":"NT","latitude":"65.28201000","longitude":"-126.83290000","population":1027,"timezone":"America/Edmonton","type":"city","translations":{"es":"Norman Wells","en":"Norman Wells"}},{"name":"Yellowknife","state_code":"NT","latitude":"62.45411000","longitude":"-114.37248000","population":20340,"timezone":"America/Edmonton","type":"adm1","translations":{"es":"Cuchillo amarillo","en":"Yellowknife"}},{"name":"Amherst","state_code":"NS","latitude":"45.83345000","longitude":"-64.19874000","population":9413,"timezone":"America/Halifax","type":"city","translations":{"es":"Amherst","en":"Amherst"}},{"name":"Annapolis","state_code":"NS","latitude":"44.58345000","longitude":"-65.16551000","population":18252,"timezone":"America/Halifax","type":"county","translations":{"es":"Condado de Annapolis","en":"Annapolis"}},{"name":"Antigonish","state_code":"NS","latitude":"45.61685000","longitude":"-61.99858000","population":4364,"timezone":"America/Halifax","type":"city","translations":{"es":"Antigonish","en":"Antigonish"}},{"name":"Berwick","state_code":"NS","latitude":"45.05015000","longitude":"-64.73208000","population":2509,"timezone":"America/Halifax","type":"city","translations":{"es":"Berwick","en":"Berwick"}},{"name":"Bridgewater","state_code":"NS","latitude":"44.37856000","longitude":"-64.51882000","population":8532,"timezone":"America/Halifax","type":"city","translations":{"es":"Bridgewater","en":"Bridgewater"}},{"name":"Cape Breton","state_code":"NS","latitude":"46.00014000","longitude":"-60.31516000","population":null,"timezone":"America/Halifax","type":"county","translations":{"es":"Condado de Cape Breton","en":"Cape Breton"}},{"name":"Chester","state_code":"NS","latitude":"44.54225000","longitude":"-64.23891000","population":2348,"timezone":"America/Halifax","type":"city","translations":{"es":"Chester","en":"Chester"}},{"name":"Colchester","state_code":"NS","latitude":"45.33345000","longitude":"-63.24868000","population":0,"timezone":"America/Halifax","type":"city","translations":{"es":"Colchester","en":"Colchester"}},{"name":"Cole Harbour","state_code":"NS","latitude":"44.67244000","longitude":"-63.47506000","population":20000,"timezone":"America/Halifax","type":"section","translations":{"es":"Puerto de Cole","en":"Cole Harbour"}},{"name":"Cow Bay","state_code":"NS","latitude":"44.63141000","longitude":"-63.43218000","population":1257,"timezone":"America/Halifax","type":"city","translations":{"es":"Bahía de las vacas","en":"Cow Bay"}},{"name":"Dartmouth","state_code":"NS","latitude":"44.67134000","longitude":"-63.57719000","population":101343,"timezone":"America/Halifax","type":"city","translations":{"es":"Dartmouth","en":"Dartmouth"}},{"name":"Digby","state_code":"NS","latitude":"44.62188000","longitude":"-65.75860000","population":2052,"timezone":"America/Halifax","type":"city","translations":{"es":"Digby","en":"Digby"}},{"name":"Digby County","state_code":"NS","latitude":"44.36685000","longitude":"-65.69884000","population":null,"timezone":"America/Halifax","type":"county","translations":{"es":"Condado de Digby","en":"Digby County"}},{"name":"English Corner","state_code":"NS","latitude":"44.73345000","longitude":"-63.78201000","population":1151,"timezone":"America/Halifax","type":"locality","translations":{"es":"Rincón inglés","en":"English Corner"}},{"name":"Eskasoni 3","state_code":"NS","latitude":"45.94522000","longitude":"-60.61617000","population":2120,"timezone":"America/Glace_Bay","type":"city","translations":{"es":"Eskasoni 3","en":"Eskasoni 3"}},{"name":"Fall River","state_code":"NS","latitude":"44.81685000","longitude":"-63.61540000","population":11526,"timezone":"America/Halifax","type":"city","translations":{"es":"Río Fall","en":"Fall River"}},{"name":"Glace Bay","state_code":"NS","latitude":"46.19695000","longitude":"-59.95698000","population":17556,"timezone":"America/Glace_Bay","type":"city","translations":{"es":"Bahía Glace","en":"Glace Bay"}},{"name":"Greenwood","state_code":"NS","latitude":"44.97413000","longitude":"-64.93169000","population":5369,"timezone":"America/Halifax","type":"city","translations":{"es":"Bosque verde","en":"Greenwood"}},{"name":"Halifax","state_code":"NS","latitude":"44.64533000","longitude":"-63.57239000","population":440072,"timezone":"America/Halifax","type":"adm1","translations":{"es":"Halifax","en":"Halifax"}},{"name":"Hantsport","state_code":"NS","latitude":"45.06685000","longitude":"-64.16544000","population":1253,"timezone":"America/Halifax","type":"city","translations":{"es":"Hantsport","en":"Hantsport"}},{"name":"Hayes Subdivision","state_code":"NS","latitude":"45.05519000","longitude":"-64.58795000","population":1121,"timezone":"America/Halifax","type":"city","translations":{"es":"Subdivisión Hayes","en":"Hayes Subdivision"}},{"name":"Kentville","state_code":"NS","latitude":"45.07710000","longitude":"-64.49605000","population":12636,"timezone":"America/Halifax","type":"city","translations":{"es":"Kentville","en":"Kentville"}},{"name":"Lake Echo","state_code":"NS","latitude":"44.73345000","longitude":"-63.38198000","population":2515,"timezone":"America/Halifax","type":"city","translations":{"es":"Lago Echo","en":"Lake Echo"}},{"name":"Lantz","state_code":"NS","latitude":"44.98345000","longitude":"-63.48199000","population":2229,"timezone":"America/Halifax","type":"city","translations":{"es":"Lantz","en":"Lantz"}},{"name":"Lower Sackville","state_code":"NS","latitude":"44.77599000","longitude":"-63.67865000","population":21379,"timezone":"America/Halifax","type":"city","translations":{"es":"Sackville inferior","en":"Lower Sackville"}},{"name":"Lunenburg","state_code":"NS","latitude":"44.37847000","longitude":"-64.31658000","population":2263,"timezone":"America/Halifax","type":"city","translations":{"es":"Lunenburg","en":"Lunenburg"}},{"name":"Middleton","state_code":"NS","latitude":"44.94284000","longitude":"-65.07022000","population":1832,"timezone":"America/Halifax","type":"city","translations":{"es":"Middleton","en":"Middleton"}},{"name":"New Glasgow","state_code":"NS","latitude":"45.58344000","longitude":"-62.64863000","population":18665,"timezone":"America/Halifax","type":"city","translations":{"es":"Nueva Glasgow","en":"New Glasgow"}},{"name":"Oxford","state_code":"NS","latitude":"45.73345000","longitude":"-63.86542000","population":1190,"timezone":"America/Halifax","type":"city","translations":{"es":"Oxford","en":"Oxford"}},{"name":"Parrsboro","state_code":"NS","latitude":"45.40567000","longitude":"-64.32585000","population":1472,"timezone":"America/Halifax","type":"city","translations":{"es":"Parrsboro","en":"Parrsboro"}},{"name":"Pictou","state_code":"NS","latitude":"45.67875000","longitude":"-62.70936000","population":3186,"timezone":"America/Halifax","type":"city","translations":{"es":"Pictou","en":"Pictou"}},{"name":"Pictou County","state_code":"NS","latitude":"45.50015000","longitude":"-62.58193000","population":43748,"timezone":"America/Halifax","type":"county","translations":{"es":"Condado de Pictou","en":"Pictou County"}},{"name":"Port Hawkesbury","state_code":"NS","latitude":"45.61685000","longitude":"-61.34853000","population":3214,"timezone":"America/Halifax","type":"city","translations":{"es":"Puerto Hawkesbury","en":"Port Hawkesbury"}},{"name":"Port Williams","state_code":"NS","latitude":"45.10015000","longitude":"-64.41546000","population":1120,"timezone":"America/Halifax","type":"city","translations":{"es":"Puerto Williams","en":"Port Williams"}},{"name":"Princeville","state_code":"NS","latitude":"45.76684000","longitude":"-61.29853000","population":5571,"timezone":"America/Halifax","type":"city","translations":{"es":"Princeville","en":"Princeville"}},{"name":"Shelburne","state_code":"NS","latitude":"43.76325000","longitude":"-65.32355000","population":1330,"timezone":"America/Halifax","type":"city","translations":{"es":"Shelburne","en":"Shelburne"}},{"name":"Springhill","state_code":"NS","latitude":"45.65015000","longitude":"-64.04873000","population":2743,"timezone":"America/Halifax","type":"city","translations":{"es":"Springhill","en":"Springhill"}},{"name":"Sydney","state_code":"NS","latitude":"46.13510000","longitude":"-60.18310000","population":105968,"timezone":"America/Glace_Bay","type":"city","translations":{"es":"Sídney","en":"Sydney"}},{"name":"Sydney Mines","state_code":"NS","latitude":"46.23669000","longitude":"-60.21767000","population":14135,"timezone":"America/Glace_Bay","type":"city","translations":{"es":"Minas de Sydney","en":"Sydney Mines"}},{"name":"Truro","state_code":"NS","latitude":"45.36685000","longitude":"-63.26538000","population":12261,"timezone":"America/Halifax","type":"city","translations":{"es":"Truro","en":"Truro"}},{"name":"Windsor","state_code":"NS","latitude":"44.98345000","longitude":"-64.13204000","population":3864,"timezone":"America/Halifax","type":"city","translations":{"es":"Windsor","en":"Windsor"}},{"name":"Wolfville","state_code":"NS","latitude":"45.08345000","longitude":"-64.36546000","population":4195,"timezone":"America/Halifax","type":"city","translations":{"es":"Wolfville","en":"Wolfville"}},{"name":"Yarmouth","state_code":"NS","latitude":"43.83345000","longitude":"-66.11557000","population":6518,"timezone":"America/Halifax","type":"city","translations":{"es":"Yarmouth","en":"Yarmouth"}},{"name":"Clyde River","state_code":"NU","latitude":"70.47233000","longitude":"-68.58987000","population":1181,"timezone":"America/Iqaluit","type":"locality","translations":{"es":"Río Clyde","en":"Clyde River"}},{"name":"Gjoa Haven","state_code":"NU","latitude":"68.62602000","longitude":"-95.87836000","population":1349,"timezone":"America/Cambridge_Bay","type":"locality","translations":{"es":"Refugio de Gjoa","en":"Gjoa Haven"}},{"name":"Iqaluit","state_code":"NU","latitude":"63.74697000","longitude":"-68.51727000","population":7429,"timezone":"America/Iqaluit","type":"adm1","translations":{"es":"Iqaluit","en":"Iqaluit"}},{"name":"Kugluktuk","state_code":"NU","latitude":"67.82743000","longitude":"-115.09649000","population":1382,"timezone":"America/Cambridge_Bay","type":"locality","translations":{"es":"Kugluktuk","en":"Kugluktuk"}},{"name":"Pangnirtung","state_code":"NU","latitude":"66.14642000","longitude":"-65.69996000","population":1504,"timezone":"America/Iqaluit","type":"locality","translations":{"es":"Pangnirtung","en":"Pangnirtung"}},{"name":"Rankin Inlet","state_code":"NU","latitude":"62.80906000","longitude":"-92.08534000","population":2975,"timezone":"America/Rankin_Inlet","type":"locality","translations":{"es":"Entrada de Rankin","en":"Rankin Inlet"}},{"name":"Ajax","state_code":"ON","latitude":"43.85012000","longitude":"-79.03288000","population":126666,"timezone":"America/Toronto","type":"city","translations":{"es":"Áyax","en":"Ajax"}},{"name":"Algoma","state_code":"ON","latitude":"47.88364000","longitude":"-84.42406000","population":114094,"timezone":"America/Toronto","type":"city","translations":{"es":"Algoma","en":"Algoma"}},{"name":"Alliston","state_code":"ON","latitude":"44.15011000","longitude":"-79.86635000","population":18809,"timezone":"America/Toronto","type":"city","translations":{"es":"Alliston","en":"Alliston"}},{"name":"Amherstburg","state_code":"ON","latitude":"42.10009000","longitude":"-83.09985000","population":13910,"timezone":"America/Toronto","type":"city","translations":{"es":"Amherstburg","en":"Amherstburg"}},{"name":"Amigo Beach","state_code":"ON","latitude":"44.70011000","longitude":"-79.39963000","population":null,"timezone":"America/Toronto","type":"city","translations":{"es":"Playa Amigo","en":"Amigo Beach"}},{"name":"Ancaster","state_code":"ON","latitude":"43.21806000","longitude":"-79.98716000","population":40557,"timezone":"America/Toronto","type":"city","translations":{"es":"Ancaster","en":"Ancaster"}},{"name":"Angus","state_code":"ON","latitude":"44.31681000","longitude":"-79.88295000","population":10269,"timezone":"America/Toronto","type":"locality","translations":{"es":"Angus","en":"Angus"}},{"name":"Arnprior","state_code":"ON","latitude":"45.43341000","longitude":"-76.34939000","population":8795,"timezone":"America/Toronto","type":"city","translations":{"es":"Arnprior","en":"Arnprior"}},{"name":"Atikokan","state_code":"ON","latitude":"48.75667000","longitude":"-91.62409000","population":2753,"timezone":"America/Atikokan","type":"city","translations":{"es":"Atikokan","en":"Atikokan"}},{"name":"Attawapiskat","state_code":"ON","latitude":"52.92774000","longitude":"-82.41669000","population":1501,"timezone":"America/Toronto","type":"city","translations":{"es":"Attawapiskat","en":"Attawapiskat"}},{"name":"Aurora","state_code":"ON","latitude":"43.99973000","longitude":"-79.46754500","population":55445,"timezone":"America/Toronto","type":"city","translations":{"es":"Aurora","en":"Aurora"}},{"name":"Aylmer","state_code":"ON","latitude":"42.76679000","longitude":"-80.98302000","population":7492,"timezone":"America/Toronto","type":"city","translations":{"es":"Aylmer","en":"Aylmer"}},{"name":"Azilda","state_code":"ON","latitude":"46.55008000","longitude":"-81.09975000","population":4663,"timezone":"America/Toronto","type":"city","translations":{"es":"Azilda","en":"Azilda"}},{"name":"Ballantrae","state_code":"ON","latitude":"44.03342000","longitude":"-79.29960000","population":3223,"timezone":"America/Toronto","type":"city","translations":{"es":"Ballantrae","en":"Ballantrae"}},{"name":"Bancroft","state_code":"ON","latitude":"45.05752000","longitude":"-77.85702000","population":4065,"timezone":"America/Toronto","type":"city","translations":{"es":"Bancroft","en":"Bancroft"}},{"name":"Barrie","state_code":"ON","latitude":"44.40011000","longitude":"-79.66634000","population":147829,"timezone":"America/Toronto","type":"city","translations":{"es":"Barrie","en":"Barrie"}},{"name":"Bath","state_code":"ON","latitude":"44.18342000","longitude":"-76.78273000","population":1180,"timezone":"America/Toronto","type":"city","translations":{"es":"Baño","en":"Bath"}},{"name":"Belleville","state_code":"ON","latitude":"44.16682000","longitude":"-77.38277000","population":50716,"timezone":"America/Toronto","type":"city","translations":{"es":"Belleville","en":"Belleville"}},{"name":"Bells Corners","state_code":"ON","latitude":"45.31588000","longitude":"-75.83012000","population":9272,"timezone":"America/Toronto","type":"city","translations":{"es":"Bells Corners","en":"Bells Corners"}},{"name":"Belmont","state_code":"ON","latitude":"42.88339000","longitude":"-81.08303000","population":1140,"timezone":"America/Toronto","type":"city","translations":{"es":"Belmont","en":"Belmont"}},{"name":"Binbrook","state_code":"ON","latitude":"43.12135000","longitude":"-79.81104000","population":8796,"timezone":"America/Toronto","type":"section","translations":{"es":"Binbrook","en":"Binbrook"}},{"name":"Bluewater","state_code":"ON","latitude":"43.46679000","longitude":"-81.59977000","population":7044,"timezone":"America/Toronto","type":"city","translations":{"es":"Agua azul","en":"Bluewater"}},{"name":"Bourget","state_code":"ON","latitude":"45.43340000","longitude":"-75.14930000","population":1169,"timezone":"America/Toronto","type":"locality","translations":{"es":"Bourget","en":"Bourget"}},{"name":"Bracebridge","state_code":"ON","latitude":"45.03341000","longitude":"-79.31633000","population":15414,"timezone":"America/Toronto","type":"city","translations":{"es":"Bracebridge","en":"Bracebridge"}},{"name":"Brampton","state_code":"ON","latitude":"43.68341000","longitude":"-79.76633000","population":656480,"timezone":"America/Toronto","type":"city","translations":{"es":"Brampton","en":"Brampton"}},{"name":"Brant","state_code":"ON","latitude":"43.13340000","longitude":"-80.34967000","population":34415,"timezone":"America/Toronto","type":"city","translations":{"es":"Brant","en":"Brant"}},{"name":"Brantford","state_code":"ON","latitude":"43.13340000","longitude":"-80.26636000","population":104688,"timezone":"America/Toronto","type":"city","translations":{"es":"Brantford","en":"Brantford"}},{"name":"Brockville","state_code":"ON","latitude":"44.59132000","longitude":"-75.68705000","population":21957,"timezone":"America/Toronto","type":"city","translations":{"es":"Brockville","en":"Brockville"}},{"name":"Brussels","state_code":"ON","latitude":"43.73339000","longitude":"-81.24975000","population":1158,"timezone":"America/Toronto","type":"city","translations":{"es":"Bruselas","en":"Brussels"}},{"name":"Burford","state_code":"ON","latitude":"43.10292000","longitude":"-80.42869000","population":1615,"timezone":"America/Toronto","type":"city","translations":{"es":"Burford","en":"Burford"}},{"name":"Burlington","state_code":"ON","latitude":"43.38621000","longitude":"-79.83713000","population":186948,"timezone":"America/Toronto","type":"city","translations":{"es":"Burlington","en":"Burlington"}},{"name":"Cambridge","state_code":"ON","latitude":"43.36010000","longitude":"-80.31269000","population":138479,"timezone":"America/Toronto","type":"city","translations":{"es":"Cambridge","en":"Cambridge"}},{"name":"Camlachie","state_code":"ON","latitude":"43.03596000","longitude":"-82.16160000","population":7506,"timezone":"America/Toronto","type":"city","translations":{"es":"Camlachie","en":"Camlachie"}},{"name":"Capreol","state_code":"ON","latitude":"46.70626000","longitude":"-80.92109000","population":3260,"timezone":"America/Toronto","type":"city","translations":{"es":"Capreol","en":"Capreol"}},{"name":"Carleton Place","state_code":"ON","latitude":"45.13341000","longitude":"-76.14938000","population":11901,"timezone":"America/Toronto","type":"city","translations":{"es":"Carleton Place","en":"Carleton Place"}},{"name":"Casselman","state_code":"ON","latitude":"45.31680000","longitude":"-75.08260000","population":3074,"timezone":"America/Toronto","type":"city","translations":{"es":"Casselman","en":"Casselman"}},{"name":"Chatham","state_code":"ON","latitude":"42.41224000","longitude":"-82.18494000","population":43550,"timezone":"America/Toronto","type":"city","translations":{"es":"Chatham","en":"Chatham"}},{"name":"Chatham-Kent","state_code":"ON","latitude":"42.40009000","longitude":"-82.18310000","population":43550,"timezone":"America/Toronto","type":"city","translations":{"es":"Chatham-Kent","en":"Chatham-Kent"}},{"name":"Clarence-Rockland","state_code":"ON","latitude":"45.55010000","longitude":"-75.29101000","population":20790,"timezone":"America/Toronto","type":"city","translations":{"es":"Clarence-Rockland","en":"Clarence-Rockland"}},{"name":"Cobourg","state_code":"ON","latitude":"43.95977000","longitude":"-78.16515000","population":20519,"timezone":"America/Toronto","type":"city","translations":{"es":"Coburgo","en":"Cobourg"}},{"name":"Cochrane","state_code":"ON","latitude":"50.00022000","longitude":"-82.99979000","population":79682,"timezone":"America/Toronto","type":"district","translations":{"es":"Distrito de Cochrane","en":"Cochrane"}},{"name":"Collingwood","state_code":"ON","latitude":"44.48340000","longitude":"-80.21638000","population":21793,"timezone":"America/Toronto","type":"city","translations":{"es":"Collingwood","en":"Collingwood"}},{"name":"Concord","state_code":"ON","latitude":"43.80011000","longitude":"-79.48291000","population":8255,"timezone":"America/Toronto","type":"city","translations":{"es":"Concordia","en":"Concord"}},{"name":"Constance Bay","state_code":"ON","latitude":"45.50011000","longitude":"-76.08267000","population":2314,"timezone":"America/Toronto","type":"city","translations":{"es":"Bahía de Constanza","en":"Constance Bay"}},{"name":"Cookstown","state_code":"ON","latitude":"44.18341000","longitude":"-79.69964000","population":1214,"timezone":"America/Toronto","type":"city","translations":{"es":"Cookstown","en":"Cookstown"}},{"name":"Cornwall","state_code":"ON","latitude":"45.01809000","longitude":"-74.72815000","population":48821,"timezone":"America/Toronto","type":"city","translations":{"es":"Cornualles","en":"Cornwall"}},{"name":"Corunna","state_code":"ON","latitude":"42.88338000","longitude":"-82.43313000","population":5686,"timezone":"America/Toronto","type":"city","translations":{"es":"La Coruña","en":"Corunna"}},{"name":"Deep River","state_code":"ON","latitude":"46.10012000","longitude":"-77.49949000","population":4296,"timezone":"America/Toronto","type":"city","translations":{"es":"Río profundo","en":"Deep River"}},{"name":"Delaware","state_code":"ON","latitude":"42.91679000","longitude":"-81.41646000","population":2521,"timezone":"America/Toronto","type":"locality","translations":{"es":"Delaware","en":"Delaware"}},{"name":"Deseronto","state_code":"ON","latitude":"44.20012000","longitude":"-77.04944000","population":1897,"timezone":"America/Toronto","type":"city","translations":{"es":"Deseronto","en":"Deseronto"}},{"name":"Dorchester","state_code":"ON","latitude":"42.98339000","longitude":"-81.06643000","population":9329,"timezone":"America/Toronto","type":"city","translations":{"es":"Dorchester","en":"Dorchester"}},{"name":"Dowling","state_code":"ON","latitude":"46.59111000","longitude":"-81.33917000","population":1466,"timezone":"America/Toronto","type":"city","translations":{"es":"Dowling","en":"Dowling"}},{"name":"Dryden","state_code":"ON","latitude":"49.78334000","longitude":"-92.75032000","population":7388,"timezone":"America/Winnipeg","type":"city","translations":{"es":"Dryden","en":"Dryden"}},{"name":"Durham","state_code":"ON","latitude":"44.20012000","longitude":"-78.99957000","population":0,"timezone":"America/Toronto","type":"city","translations":{"es":"Durham","en":"Durham"}},{"name":"Ear Falls","state_code":"ON","latitude":"50.63955000","longitude":"-93.23526000","population":924,"timezone":"America/Winnipeg","type":"city","translations":{"es":"Caídas de orejas","en":"Ear Falls"}},{"name":"East Gwillimbury","state_code":"ON","latitude":"44.10087000","longitude":"-79.43785000","population":23991,"timezone":"America/Toronto","type":"city","translations":{"es":"Gwillimbury Oriental","en":"East Gwillimbury"}},{"name":"East York","state_code":"ON","latitude":"43.69053000","longitude":"-79.32794000","population":115365,"timezone":"America/Toronto","type":"section","translations":{"es":"East York","en":"East York"}},