[{"name":"Bamingui","state_code":"BB","latitude":"7.88897000","longitude":"20.04875000","population":0,"timezone":"Africa/Bangui","type":"city","translations":{"es":"Bamingui","en":"Bamingui"}},{"name":"Ndélé","state_code":"BB","latitude":"8.74287000","longitude":"20.89108000","population":13704,"timezone":"Africa/Bangui","type":"city","translations":{"es":"Ndélé","en":"Ndélé"}},{"name":"Bangui","state_code":"BGF","latitude":"4.36122000","longitude":"18.55496000","population":889231,"timezone":"Africa/Bangui","type":"capital","translations":{"es":"Bangui","en":"Bangui"}},{"name":"Alindao","state_code":"BK","latitude":"5.02667000","longitude":"21.20876000","population":32588,"timezone":"Africa/Bangui","type":"city","translations":{"es":"Alindao","en":"Alindao"}},{"name":"Kembé","state_code":"BK","latitude":"4.62275000","longitude":"21.88645000","population":7317,"timezone":"Africa/Bangui","type":"city","translations":{"es":"Kembé","en":"Kembé"}},{"name":"Mobaye","state_code":"BK","latitude":"4.31902000","longitude":"21.17861000","population":7179,"timezone":"Africa/Bangui","type":"adm1","translations":{"es":"Mobaye","en":"Mobaye"}},{"name":"Obo","state_code":"HM","latitude":"5.39586000","longitude":"26.49211000","population":14402,"timezone":"Africa/Bangui","type":"adm1","translations":{"es":"Obo","en":"Obo"}},{"name":"Zemio","state_code":"HM","latitude":"5.03144000","longitude":"25.13614000","population":17829,"timezone":"Africa/Bangui","type":"city","translations":{"es":"Zemio","en":"Zemio"}},{"name":"Bria","state_code":"HK","latitude":"6.54233000","longitude":"21.98633000","population":47226,"timezone":"Africa/Bangui","type":"adm1","translations":{"es":"Bria","en":"Bria"}},{"name":"Ouadda","state_code":"HK","latitude":"8.07771000","longitude":"22.40075000","population":5434,"timezone":"Africa/Bangui","type":"city","translations":{"es":"Ouadda","en":"Ouadda"}},{"name":"Sibut","state_code":"KG","latitude":"5.71801000","longitude":"19.07389000","population":31986,"timezone":"Africa/Bangui","type":"adm1","translations":{"es":"Sibut","en":"Sibut"}},{"name":"Boda","state_code":"LB","latitude":"4.31887000","longitude":"17.46953000","population":11688,"timezone":"Africa/Bangui","type":"city","translations":{"es":"Boda","en":"Boda"}},{"name":"Boganangone","state_code":"LB","latitude":"4.73558000","longitude":"17.14047000","population":1851,"timezone":"Africa/Bangui","type":"city","translations":{"es":"Boganangone","en":"Boganangone"}},{"name":"Mbaiki","state_code":"LB","latitude":"3.97145000","longitude":"17.93352000","population":22166,"timezone":"Africa/Bangui","type":"adm1","translations":{"es":"Mbaiki","en":"Mbaiki"}},{"name":"Mongoumba","state_code":"LB","latitude":"3.64153000","longitude":"18.59364000","population":11756,"timezone":"Africa/Bangui","type":"city","translations":{"es":"Mongoumba","en":"Mongoumba"}},{"name":"Berberati","state_code":"HS","latitude":"4.31211000","longitude":"15.88948000","population":76918,"timezone":"Africa/Bangui","type":"adm1","translations":{"es":"Berberati","en":"Berberati"}},{"name":"Carnot","state_code":"HS","latitude":"4.94273000","longitude":"15.87735000","population":129032,"timezone":"Africa/Bangui","type":"adm1","translations":{"es":"Carnot","en":"Carnot"}},{"name":"Gamboula","state_code":"HS","latitude":"4.11775000","longitude":"15.13926000","population":13048,"timezone":"Africa/Bangui","type":"city","translations":{"es":"Gamboula","en":"Gamboula"}},{"name":"Bangassou","state_code":"MB","latitude":"4.74132000","longitude":"22.81838000","population":54059,"timezone":"Africa/Bangui","type":"adm1","translations":{"es":"Bangassou","en":"Bangassou"}},{"name":"Gambo","state_code":"MB","latitude":"4.64816000","longitude":"22.26331000","population":4971,"timezone":"Africa/Bangui","type":"city","translations":{"es":"Gambo","en":"Gambo"}},{"name":"Ouango","state_code":"MB","latitude":"4.31325000","longitude":"22.55524000","population":4365,"timezone":"Africa/Bangui","type":"city","translations":{"es":"Ouango","en":"Ouango"}},{"name":"Rafai","state_code":"MB","latitude":"5.81012000","longitude":"24.20305000","population":null,"timezone":"Africa/Bangui","type":"city","translations":{"es":"Rafai","en":"Rafai"}},{"name":"Kaga Bandoro","state_code":"KB","latitude":"6.98961000","longitude":"19.18744000","population":55047,"timezone":"Africa/Bangui","type":"adm1","translations":{"es":"Kaga Bandoro","en":"Kaga Bandoro"}},{"name":"Baoro","state_code":"NM","latitude":"5.66667000","longitude":"15.96667000","population":18089,"timezone":"Africa/Bangui","type":"city","translations":{"es":"Baoro","en":"Baoro"}},{"name":"Bouar","state_code":"NM","latitude":"5.93404000","longitude":"15.59599000","population":71680,"timezone":"Africa/Bangui","type":"adm1","translations":{"es":"Bouar","en":"Bouar"}},{"name":"Bimbo","state_code":"MP","latitude":"4.25671000","longitude":"18.41583000","population":348802,"timezone":"Africa/Bangui","type":"adm1","translations":{"es":"Jai","en":"Bimbo"}},{"name":"Boali","state_code":"MP","latitude":"4.80048000","longitude":"18.12747000","population":18090,"timezone":"Africa/Bangui","type":"city","translations":{"es":"Boali","en":"Boali"}},{"name":"Damara","state_code":"MP","latitude":"4.96075000","longitude":"18.70350000","population":9117,"timezone":"Africa/Bangui","type":"city","translations":{"es":"Damara","en":"Damara"}},{"name":"Bambari","state_code":"UK","latitude":"5.76795000","longitude":"20.67565000","population":83029,"timezone":"Africa/Bangui","type":"adm1","translations":{"es":"Bambari","en":"Bambari"}},{"name":"Grimari","state_code":"UK","latitude":"5.73549000","longitude":"19.91209000","population":10824,"timezone":"Africa/Bangui","type":"city","translations":{"es":"Grimari","en":"Grimari"}},{"name":"Ippy","state_code":"UK","latitude":"6.26793000","longitude":"21.22468000","population":28319,"timezone":"Africa/Bangui","type":"city","translations":{"es":"Ippy","en":"Ippy"}},{"name":"Kouango","state_code":"UK","latitude":"4.99337000","longitude":"19.96186000","population":36575,"timezone":"Africa/Bangui","type":"city","translations":{"es":"Kouango","en":"Kouango"}},{"name":"Batangafo","state_code":"AC","latitude":"7.30082000","longitude":"18.28330000","population":24119,"timezone":"Africa/Bangui","type":"adm1","translations":{"es":"Batangafo","en":"Batangafo"}},{"name":"Bossangoa","state_code":"AC","latitude":"6.49263000","longitude":"17.45518000","population":55353,"timezone":"Africa/Bangui","type":"adm1","translations":{"es":"Bossangoa","en":"Bossangoa"}},{"name":"Bouca","state_code":"AC","latitude":"6.50734000","longitude":"18.27670000","population":19320,"timezone":"Africa/Bangui","type":"city","translations":{"es":"Bouca","en":"Bouca"}},{"name":"Kabo","state_code":"AC","latitude":"7.69937000","longitude":"18.62903000","population":16279,"timezone":"Africa/Bangui","type":"city","translations":{"es":"Kabo","en":"Kabo"}},{"name":"Bocaranga","state_code":"OP","latitude":"6.76546000","longitude":"15.77873000","population":15744,"timezone":"Africa/Bangui","type":"city","translations":{"es":"Bocaranga","en":"Bocaranga"}},{"name":"Bozoum","state_code":"OP","latitude":"6.31933000","longitude":"16.37992000","population":20665,"timezone":"Africa/Bangui","type":"adm1","translations":{"es":"Bozoum","en":"Bozoum"}},{"name":"Paoua","state_code":"OP","latitude":"7.24269000","longitude":"16.44059000","population":47703,"timezone":"Africa/Bangui","type":"adm1","translations":{"es":"Paoua","en":"Paoua"}},{"name":"Nola","state_code":"SE","latitude":"3.52494000","longitude":"16.04583000","population":31923,"timezone":"Africa/Bangui","type":"adm1","translations":{"es":"Nola","en":"Nola"}},{"name":"Birao","state_code":"VK","latitude":"10.28488000","longitude":"22.78818000","population":8457,"timezone":"Africa/Bangui","type":"adm1","translations":{"es":"Birao","en":"Birao"}},{"name":"Ouanda-Djallé","state_code":"VK","latitude":"9.05877000","longitude":"22.42741000","population":2839,"timezone":"Africa/Bangui","type":"city","translations":{"es":"Ouanda-Djallé","en":"Ouanda-Djallé"}}]