[{"name":"El Encanto","state_code":"AMA","latitude":"-1.56261000","longitude":"-73.25684000","population":2172,"timezone":"America/Bogota","type":"city","translations":{"es":"El Encanto","en":"El Encanto"}},{"name":"La Chorrera","state_code":"AMA","latitude":"-1.48894000","longitude":"-72.72935000","population":593,"timezone":"America/Bogota","type":"city","translations":{"es":"La Chorrera","en":"La Chorrera"}},{"name":"La Pedrera","state_code":"AMA","latitude":"-1.65596000","longitude":"-70.22186000","population":4307,"timezone":"America/Bogota","type":"city","translations":{"es":"La Pedrera","en":"La Pedrera"}},{"name":"La Victoria","state_code":"AMA","latitude":"-0.18311000","longitude":"-71.03760000","population":314,"timezone":"America/Bogota","type":"city","translations":{"es":"La Victoria","en":"La Victoria"}},{"name":"Leticia","state_code":"AMA","latitude":"-4.21528000","longitude":"-69.94056000","population":55691,"timezone":"America/Bogota","type":"adm1","translations":{"es":"Leticia","en":"Leticia"}},{"name":"Miriti - Paraná","state_code":"AMA","latitude":"-0.81858000","longitude":"-70.78925000","population":null,"timezone":"America/Bogota","type":"city","translations":{"es":"Miriti - Paraná","en":"Miriti - Paraná"}},{"name":"Puerto Alegría","state_code":"AMA","latitude":"-0.96886000","longitude":"-73.74962000","population":803,"timezone":"America/Bogota","type":"city","translations":{"es":"Puerto Alegría","en":"Puerto Alegría"}},{"name":"Puerto Arica","state_code":"AMA","latitude":"-1.90677000","longitude":"-71.14653000","population":1343,"timezone":"America/Bogota","type":"city","translations":{"es":"Puerto Arica","en":"Puerto Arica"}},{"name":"Puerto Nariño","state_code":"AMA","latitude":"-3.78889000","longitude":"-70.35584000","population":2113,"timezone":"America/Bogota","type":"city","translations":{"es":"Puerto Nariño","en":"Puerto Nariño"}},{"name":"Puerto Santander","state_code":"AMA","latitude":"-1.09870000","longitude":"-71.93911000","population":8720,"timezone":"America/Bogota","type":"city","translations":{"es":"Puerto Santander","en":"Puerto Santander"}},{"name":"Tarapacá","state_code":"AMA","latitude":"-2.88544000","longitude":"-69.77692000","population":3100,"timezone":"America/Bogota","type":"city","translations":{"es":"Tarapacá","en":"Tarapacá"}},{"name":"Abejorral","state_code":"ANT","latitude":"5.78928000","longitude":"-75.42725000","population":20287,"timezone":"America/Bogota","type":"adm2","translations":{"es":"Abejorral","en":"Abejorral"}},{"name":"Abriaquí","state_code":"ANT","latitude":"6.63148000","longitude":"-76.06444000","population":1281,"timezone":"America/Bogota","type":"adm2","translations":{"es":"Abriaquí","en":"Abriaquí"}},{"name":"Alejandría","state_code":"ANT","latitude":"6.36667000","longitude":"-75.08333000","population":3816,"timezone":"America/Bogota","type":"adm2","translations":{"es":"Alejandría","en":"Alejandría"}},{"name":"Amagá","state_code":"ANT","latitude":"6.04001000","longitude":"-75.70315000","population":12170,"timezone":"America/Bogota","type":"adm2","translations":{"es":"Amagá","en":"Amagá"}},{"name":"Amalfi","state_code":"ANT","latitude":"6.91016000","longitude":"-75.07764000","population":9733,"timezone":"America/Bogota","type":"adm2","translations":{"es":"Amalfi","en":"Amalfi"}},{"name":"Andes","state_code":"ANT","latitude":"5.66974000","longitude":"-75.89905000","population":43269,"timezone":"America/Bogota","type":"city","translations":{"es":"Andes","en":"Andes"}},{"name":"Angelópolis","state_code":"ANT","latitude":"6.12228000","longitude":"-75.71432000","population":1917,"timezone":"America/Bogota","type":"adm2","translations":{"es":"Angelópolis","en":"Angelópolis"}},{"name":"Angostura","state_code":"ANT","latitude":"6.87120000","longitude":"-75.35947000","population":10500,"timezone":"America/Bogota","type":"adm2","translations":{"es":"Angostura","en":"Angostura"}},{"name":"Anorí","state_code":"ANT","latitude":"7.07361111","longitude":"-75.14694444","population":0,"timezone":"America/Bogota","type":"adm2","translations":{"es":"Anorí","en":"Anorí"}},{"name":"Anza","state_code":"ANT","latitude":"6.33333000","longitude":"-75.91667000","population":7415,"timezone":"America/Bogota","type":"adm2","translations":{"es":"Anza","en":"Anza"}},{"name":"Apartadó","state_code":"ANT","latitude":"7.88299000","longitude":"-76.62587000","population":86438,"timezone":"America/Bogota","type":"adm2","translations":{"es":"Apartadó","en":"Apartadó"}},{"name":"Arboletes","state_code":"ANT","latitude":"8.85051000","longitude":"-76.42694000","population":8380,"timezone":"America/Bogota","type":"adm2","translations":{"es":"Arboletes","en":"Arboletes"}},{"name":"Argelia","state_code":"ANT","latitude":"5.73127000","longitude":"-75.14257000","population":3474,"timezone":"America/Bogota","type":"adm2","translations":{"es":"Argelia","en":"Argelia"}},{"name":"Armenia","state_code":"ANT","latitude":"6.17554000","longitude":"-75.81230000","population":301226,"timezone":"America/Bogota","type":"adm2","translations":{"es":"Armenia","en":"Armenia"}},{"name":"Barbosa","state_code":"ANT","latitude":"6.43809000","longitude":"-75.33136000","population":53943,"timezone":"America/Bogota","type":"adm2","translations":{"es":"Barbosa","en":"Barbosa"}},{"name":"Bello","state_code":"ANT","latitude":"6.36160000","longitude":"-75.58728000","population":392939,"timezone":"America/Bogota","type":"adm3","translations":{"es":"Bello","en":"Bello"}},{"name":"Belmira","state_code":"ANT","latitude":"6.60508000","longitude":"-75.66619000","population":1388,"timezone":"America/Bogota","type":"adm2","translations":{"es":"Belmira","en":"Belmira"}},{"name":"Betania","state_code":"ANT","latitude":"5.73571000","longitude":"-75.98964000","population":3800,"timezone":"America/Bogota","type":"adm2","translations":{"es":"Betania","en":"Betania"}},{"name":"Betulia","state_code":"ANT","latitude":"6.11284000","longitude":"-75.98378000","population":17317,"timezone":"America/Bogota","type":"adm2","translations":{"es":"Betulia","en":"Betulia"}},{"name":"Briceño","state_code":"ANT","latitude":"7.05001000","longitude":"-75.50903000","population":8783,"timezone":"America/Bogota","type":"adm2","translations":{"es":"Briceño","en":"Briceño"}},{"name":"Buriticá","state_code":"ANT","latitude":"6.80549000","longitude":"-75.92093000","population":6955,"timezone":"America/Bogota","type":"adm2","translations":{"es":"Buriticá","en":"Buriticá"}},{"name":"Cáceres","state_code":"ANT","latitude":"7.68252000","longitude":"-75.22481000","population":28945,"timezone":"America/Bogota","type":"adm2","translations":{"es":"Cáceres","en":"Cáceres"}},{"name":"Caicedo","state_code":"ANT","latitude":"6.42805000","longitude":"-75.99715000","population":7686,"timezone":"America/Bogota","type":"adm2","translations":{"es":"Caicedo","en":"Caicedo"}},{"name":"Caldas","state_code":"ANT","latitude":"6.09106000","longitude":"-75.63569000","population":82234,"timezone":"America/Bogota","type":"adm2","translations":{"es":"Caldas","en":"Caldas"}},{"name":"Campamento","state_code":"ANT","latitude":"7.03910000","longitude":"-75.28938000","population":1870,"timezone":"America/Bogota","type":"adm2","translations":{"es":"Campamento","en":"Campamento"}},{"name":"Cañasgordas","state_code":"ANT","latitude":"6.80951000","longitude":"-76.03954000","population":13595,"timezone":"America/Bogota","type":"adm2","translations":{"es":"Cañasgordas","en":"Cañasgordas"}},{"name":"Caracolí","state_code":"ANT","latitude":"6.40920000","longitude":"-74.75715000","population":3120,"timezone":"America/Bogota","type":"adm2","translations":{"es":"Caracolí","en":"Caracolí"}},{"name":"Caramanta","state_code":"ANT","latitude":"5.54144000","longitude":"-75.66961000","population":5410,"timezone":"America/Bogota","type":"adm2","translations":{"es":"Caramanta","en":"Caramanta"}},{"name":"Carepa","state_code":"ANT","latitude":"7.75849000","longitude":"-76.65255000","population":20627,"timezone":"America/Bogota","type":"adm2","translations":{"es":"Carepa","en":"Carepa"}},{"name":"Carolina","state_code":"ANT","latitude":"6.74807000","longitude":"-75.32131000","population":3160,"timezone":"America/Bogota","type":"adm2","translations":{"es":"Carolina","en":"Carolina"}},{"name":"Caucasia","state_code":"ANT","latitude":"7.98654000","longitude":"-75.19349000","population":58034,"timezone":"America/Bogota","type":"adm2","translations":{"es":"Cáucaso","en":"Caucasia"}},{"name":"Chigorodó","state_code":"ANT","latitude":"7.66638000","longitude":"-76.68106000","population":86239,"timezone":"America/Bogota","type":"adm2","translations":{"es":"Chigorodó","en":"Chigorodó"}},{"name":"Cisneros","state_code":"ANT","latitude":"6.54507000","longitude":"-75.09415000","population":8204,"timezone":"America/Bogota","type":"adm2","translations":{"es":"Cisneros","en":"Cisneros"}},{"name":"Ciudad Bolívar","state_code":"ANT","latitude":"5.85389000","longitude":"-76.02528000","population":27458,"timezone":"America/Bogota","type":"adm2","translations":{"es":"Ciudad Bolívar","en":"Ciudad Bolívar"}},{"name":"Cocorná","state_code":"ANT","latitude":"6.00579000","longitude":"-75.16984000","population":14743,"timezone":"America/Bogota","type":"adm2","translations":{"es":"Cocorná","en":"Cocorná"}},{"name":"Concepción","state_code":"ANT","latitude":"6.39408000","longitude":"-75.25830000","population":1513,"timezone":"America/Bogota","type":"adm2","translations":{"es":"Concepción","en":"Concepción"}},{"name":"Concordia","state_code":"ANT","latitude":"6.04639000","longitude":"-75.90705000","population":16095,"timezone":"America/Bogota","type":"adm2","translations":{"es":"Concordia","en":"Concordia"}},{"name":"Copacabana","state_code":"ANT","latitude":"6.36230000","longitude":"-75.49922000","population":49169,"timezone":"America/Bogota","type":"adm2","translations":{"es":"Copacabana","en":"Copacabana"}},{"name":"Dabeiba","state_code":"ANT","latitude":"7.03367000","longitude":"-76.34161000","population":22717,"timezone":"America/Bogota","type":"city","translations":{"es":"Dabeiba","en":"Dabeiba"}},{"name":"Donmatías","state_code":"ANT","latitude":"6.48569000","longitude":"-75.39496000","population":17701,"timezone":"America/Bogota","type":"adm2","translations":{"es":"Donmatías","en":"Donmatías"}},{"name":"Ebéjico","state_code":"ANT","latitude":"6.32598000","longitude":"-75.76835000","population":12158,"timezone":"America/Bogota","type":"adm2","translations":{"es":"Ebéjico","en":"Ebéjico"}},{"name":"El Bagre","state_code":"ANT","latitude":"7.60347000","longitude":"-74.80951000","population":51862,"timezone":"America/Bogota","type":"city","translations":{"es":"El Bagre","en":"El Bagre"}},{"name":"El Carmen de Viboral","state_code":"ANT","latitude":"6.08236000","longitude":"-75.33509000","population":59416,"timezone":"America/Bogota","type":"adm2","translations":{"es":"El Carmen de Viboral","en":"El Carmen de Viboral"}},{"name":"El Santuario","state_code":"ANT","latitude":"6.13833000","longitude":"-75.26417000","population":17722,"timezone":"America/Bogota","type":"adm2","translations":{"es":"El Santuario","en":"El Santuario"}},{"name":"Entrerrios","state_code":"ANT","latitude":"6.58333000","longitude":"-75.58333000","population":8447,"timezone":"America/Bogota","type":"adm2","translations":{"es":"Entrerríos","en":"Entrerrios"}},{"name":"Envigado","state_code":"ANT","latitude":"6.17591000","longitude":"-75.59174000","population":163007,"timezone":"America/Bogota","type":"adm2","translations":{"es":"Envigado","en":"Envigado"}},{"name":"Fredonia","state_code":"ANT","latitude":"5.89239000","longitude":"-75.68546000","population":18790,"timezone":"America/Bogota","type":"adm2","translations":{"es":"Fredonia","en":"Fredonia"}},{"name":"Frontino","state_code":"ANT","latitude":"6.77133000","longitude":"-76.13324000","population":20156,"timezone":"America/Bogota","type":"city","translations":{"es":"Frontino","en":"Frontino"}},{"name":"Giraldo","state_code":"ANT","latitude":"6.66667000","longitude":"-75.95346000","population":1464,"timezone":"America/Bogota","type":"adm2","translations":{"es":"Giraldo","en":"Giraldo"}},{"name":"Girardota","state_code":"ANT","latitude":"6.36789000","longitude":"-75.46231000","population":0,"timezone":"America/Bogota","type":"adm2","translations":{"es":"Girardota","en":"Girardota"}},{"name":"Gómez Plata","state_code":"ANT","latitude":"6.68178000","longitude":"-75.21907000","population":8235,"timezone":"America/Bogota","type":"adm2","translations":{"es":"Gómez Plata","en":"Gómez Plata"}},{"name":"Granada","state_code":"ANT","latitude":"6.14353000","longitude":"-75.18532000","population":9204,"timezone":"America/Bogota","type":"adm2","translations":{"es":"Granada","en":"Granada"}},{"name":"Guadalupe","state_code":"ANT","latitude":"6.81449000","longitude":"-75.24063000","population":1734,"timezone":"America/Bogota","type":"adm2","translations":{"es":"Guadalupe","en":"Guadalupe"}},{"name":"Guarne","state_code":"ANT","latitude":"6.28345000","longitude":"-75.44363000","population":14270,"timezone":"America/Bogota","type":"adm2","translations":{"es":"Guarne","en":"Guarne"}},{"name":"Guatapé","state_code":"ANT","latitude":"6.25548000","longitude":"-75.16432000","population":5389,"timezone":"America/Bogota","type":"city","translations":{"es":"Guatapé","en":"Guatapé"}},{"name":"Heliconia","state_code":"ANT","latitude":"6.20831000","longitude":"-75.73565000","population":2403,"timezone":"America/Bogota","type":"city","translations":{"es":"Heliconia","en":"Heliconia"}},{"name":"Hispania","state_code":"ANT","latitude":"5.79925000","longitude":"-75.90718000","population":2468,"timezone":"America/Bogota","type":"adm2","translations":{"es":"Hispania","en":"Hispania"}},{"name":"Itagui","state_code":"ANT","latitude":"6.17874000","longitude":"-75.63117000","population":299348,"timezone":"America/Bogota","type":"adm2","translations":{"es":"Itagüí","en":"Itagui"}},{"name":"Ituango","state_code":"ANT","latitude":"7.17117000","longitude":"-75.76404000","population":23784,"timezone":"America/Bogota","type":"adm2","translations":{"es":"Ituango","en":"Ituango"}},{"name":"Jardín","state_code":"ANT","latitude":"5.59038000","longitude":"-75.81846000","population":7747,"timezone":"America/Bogota","type":"adm2","translations":{"es":"Jardín","en":"Jardín"}},{"name":"Jericó","state_code":"ANT","latitude":"5.79211000","longitude":"-75.78601000","population":7750,"timezone":"America/Bogota","type":"adm2","translations":{"es":"Jericó","en":"Jericó"}},{"name":"La Ceja","state_code":"ANT","latitude":"6.00000000","longitude":"-75.43311000","population":36584,"timezone":"America/Bogota","type":"adm2","translations":{"es":"La Ceja","en":"La Ceja"}},{"name":"La Estrella","state_code":"ANT","latitude":"6.14239000","longitude":"-75.65257000","population":49386,"timezone":"America/Bogota","type":"adm2","translations":{"es":"La Estrella","en":"La Estrella"}},{"name":"La Pintada","state_code":"ANT","latitude":"5.74867000","longitude":"-75.60626000","population":5342,"timezone":"America/Bogota","type":"adm2","translations":{"es":"La Pintada","en":"La Pintada"}},{"name":"La Unión","state_code":"ANT","latitude":"5.94642000","longitude":"-75.35917000","population":19119,"timezone":"America/Bogota","type":"adm2","translations":{"es":"La Unión","en":"La Unión"}},{"name":"Liborina","state_code":"ANT","latitude":"6.67790000","longitude":"-75.81218000","population":9475,"timezone":"America/Bogota","type":"adm2","translations":{"es":"Liborina","en":"Liborina"}},{"name":"Maceo","state_code":"ANT","latitude":"6.55196000","longitude":"-74.78741000","population":3109,"timezone":"America/Bogota","type":"adm2","translations":{"es":"Maceo","en":"Maceo"}},{"name":"Marinilla","state_code":"ANT","latitude":"6.19609000","longitude":"-75.30313000","population":64645,"timezone":"America/Bogota","type":"adm2","translations":{"es":"Marinilla","en":"Marinilla"}},{"name":"Medellín","state_code":"ANT","latitude":"6.25184000","longitude":"-75.56359000","population":1999979,"timezone":"America/Bogota","type":"adm1","translations":{"es":"Medellín","en":"Medellín"}},{"name":"Montebello","state_code":"ANT","latitude":"5.93703000","longitude":"-75.52741000","population":2007,"timezone":"America/Bogota","type":"adm2","translations":{"es":"Montebello","en":"Montebello"}},{"name":"Murindó","state_code":"ANT","latitude":"6.84698000","longitude":"-76.71544000","population":3736,"timezone":"America/Bogota","type":"adm2","translations":{"es":"Murindó","en":"Murindó"}},{"name":"Mutatá","state_code":"ANT","latitude":"7.24407000","longitude":"-76.43564000","population":12607,"timezone":"America/Bogota","type":"adm2","translations":{"es":"Mutatá","en":"Mutatá"}},{"name":"Nariño","state_code":"ANT","latitude":"5.60893000","longitude":"-75.17656000","population":3186,"timezone":"America/Bogota","type":"adm2","translations":{"es":"Nariño","en":"Nariño"}},{"name":"Nechí","state_code":"ANT","latitude":"8.09419000","longitude":"-74.77573000","population":24066,"timezone":"America/Bogota","type":"adm2","translations":{"es":"Nechí","en":"Nechí"}},{"name":"Necoclí","state_code":"ANT","latitude":"8.42627000","longitude":"-76.78926000","population":10835,"timezone":"America/Bogota","type":"adm2","translations":{"es":"Necoclí","en":"Necoclí"}},{"name":"Olaya","state_code":"ANT","latitude":"6.62773000","longitude":"-75.81270000","population":710,"timezone":"America/Bogota","type":"adm2","translations":{"es":"Olaya","en":"Olaya"}},{"name":"Peñol","state_code":"ANT","latitude":"6.23434000","longitude":"-75.22573000","population":null,"timezone":"America/Bogota","type":"city","translations":{"es":"Peñol","en":"Peñol"}},{"name":"Peque","state_code":"ANT","latitude":"7.02123000","longitude":"-75.90926000","population":7155,"timezone":"America/Bogota","type":"adm2","translations":{"es":"Pequeño","en":"Peque"}},{"name":"Pueblorrico","state_code":"ANT","latitude":"5.80000000","longitude":"-75.85000000","population":5327,"timezone":"America/Bogota","type":"adm2","translations":{"es":"Pueblorrico","en":"Pueblorrico"}},{"name":"Puerto Berrío","state_code":"ANT","latitude":"6.50749000","longitude":"-74.52271000","population":39314,"timezone":"America/Bogota","type":"adm2","translations":{"es":"Puerto Berrío","en":"Puerto Berrío"}},{"name":"Puerto Nare","state_code":"ANT","latitude":"6.19167000","longitude":"-74.58670000","population":12161,"timezone":"America/Bogota","type":"adm2","translations":{"es":"Puerto Nare","en":"Puerto Nare"}},{"name":"Puerto Triunfo","state_code":"ANT","latitude":"5.87259000","longitude":"-74.64050000","population":16248,"timezone":"America/Bogota","type":"adm2","translations":{"es":"Puerto Triunfo","en":"Puerto Triunfo"}},{"name":"Remedios","state_code":"ANT","latitude":"7.02835000","longitude":"-74.69379000","population":6415,"timezone":"America/Bogota","type":"adm2","translations":{"es":"Remedios","en":"Remedios"}},{"name":"Retiro","state_code":"ANT","latitude":"6.05906000","longitude":"-75.51488000","population":16974,"timezone":"America/Bogota","type":"adm2","translations":{"es":"Retiro","en":"Retiro"}},{"name":"Rionegro","state_code":"ANT","latitude":"6.16667000","longitude":"-75.41667000","population":135465,"timezone":"America/Bogota","type":"adm2","translations":{"es":"Rionegro","en":"Rionegro"}},{"name":"Sabanalarga","state_code":"ANT","latitude":"6.84893000","longitude":"-75.81711000","population":2517,"timezone":"America/Bogota","type":"adm2","translations":{"es":"Sabanalarga","en":"Sabanalarga"}},{"name":"Sabaneta","state_code":"ANT","latitude":"6.15153000","longitude":"-75.61657000","population":82375,"timezone":"America/Bogota","type":"section","translations":{"es":"Sabaneta","en":"Sabaneta"}},{"name":"Salgar","state_code":"ANT","latitude":"5.96711000","longitude":"-75.98747000","population":17804,"timezone":"America/Bogota","type":"adm2","translations":{"es":"Salgar","en":"Salgar"}},{"name":"San Andrés de Cuerquía","state_code":"ANT","latitude":"6.90333000","longitude":"-75.68250000","population":3154,"timezone":"America/Bogota","type":"adm2","translations":{"es":"San Andrés de Cuerquía","en":"San Andrés de Cuerquía"}},{"name":"San Carlos","state_code":"ANT","latitude":"7.79177000","longitude":"-74.77316000","population":14480,"timezone":"America/Bogota","type":"city","translations":{"es":"San Carlos","en":"San Carlos"}},{"name":"San Francisco","state_code":"ANT","latitude":"6.11667000","longitude":"-75.98333000","population":2779,"timezone":"America/Bogota","type":"city","translations":{"es":"San Francisco","en":"San Francisco"}},{"name":"San Jerónimo","state_code":"ANT","latitude":"6.44139000","longitude":"-75.70783000","population":13158,"timezone":"America/Bogota","type":"adm2","translations":{"es":"San Jerónimo","en":"San Jerónimo"}},{"name":"San José de la Montaña","state_code":"ANT","latitude":"6.82205000","longitude":"-75.69757000","population":3103,"timezone":"America/Bogota","type":"adm2","translations":{"es":"San José de la Montaña","en":"San José de la Montaña"}},{"name":"San Juan de Urabá","state_code":"ANT","latitude":"8.75924000","longitude":"-76.52969000","population":20899,"timezone":"America/Bogota","type":"adm2","translations":{"es":"San Juan de Urabá","en":"San Juan de Urabá"}},{"name":"San Luis","state_code":"ANT","latitude":"6.04222222","longitude":"-74.99333333","population":0,"timezone":"America/Bogota","type":"adm2","translations":{"es":"San Luis","en":"San Luis"}},{"name":"San Pedro de los Milagros","state_code":"ANT","latitude":"6.45944444","longitude":"-75.55777888","population":17119,"timezone":"America/Bogota","type":"city","translations":{"es":"San Pedro de los Milagros","en":"San Pedro de los Milagros"}},{"name":"San Pedro de Uraba","state_code":"ANT","latitude":"8.42291000","longitude":"-76.31747000","population":28772,"timezone":"America/Bogota","type":"adm2","translations":{"es":"San Pedro de Urabá","en":"San Pedro de Uraba"}},{"name":"San Rafael","state_code":"ANT","latitude":"6.31234000","longitude":"-75.02426000","population":12578,"timezone":"America/Bogota","type":"adm2","translations":{"es":"San Rafael","en":"San Rafael"}},{"name":"San Roque","state_code":"ANT","latitude":"6.48511000","longitude":"-75.01960000","population":5576,"timezone":"America/Bogota","type":"adm2","translations":{"es":"San Roque","en":"San Roque"}},{"name":"San Vicente Ferrer","state_code":"ANT","latitude":"6.32237000","longitude":"-75.33020000","population":18051,"timezone":"America/Bogota","type":"adm2","translations":{"es":"San Vicente Ferrer","en":"San Vicente Ferrer"}},{"name":"Santa Bárbara","state_code":"ANT","latitude":"5.88937000","longitude":"-75.58255000","population":22030,"timezone":"America/Bogota","type":"adm2","translations":{"es":"Santa Bárbara","en":"Santa Bárbara"}},{"name":"Santa Fe de Antioquia","state_code":"ANT","latitude":"6.55687000","longitude":"-75.82806000","population":26164,"timezone":"America/Bogota","type":"adm2","translations":{"es":"Santa Fe de Antioquia","en":"Santa Fe de Antioquia"}},{"name":"Santa Rosa de Osos","state_code":"ANT","latitude":"6.64738000","longitude":"-75.46031000","population":31025,"timezone":"America/Bogota","type":"adm2","translations":{"es":"Santa Rosa de Osos","en":"Santa Rosa de Osos"}},{"name":"Santo Domingo","state_code":"ANT","latitude":"6.47282000","longitude":"-75.16547000","population":10759,"timezone":"America/Bogota","type":"city","translations":{"es":"Santo Domingo","en":"Santo Domingo"}},{"name":"Segovia","state_code":"ANT","latitude":"7.28132000","longitude":"-74.64273000","population":41000,"timezone":"America/Bogota","type":"adm2","translations":{"es":"Segovia","en":"Segovia"}},{"name":"Sonson","state_code":"ANT","latitude":"5.75000000","longitude":"-75.00000000","population":36445,"timezone":"America/Bogota","type":"adm2","translations":{"es":"Sonsón","en":"Sonson"}},{"name":"Sopetrán","state_code":"ANT","latitude":"6.52271000","longitude":"-75.74608000","population":0,"timezone":"America/Bogota","type":"adm2","translations":{"es":"Sopetrán","en":"Sopetrán"}},{"name":"Támesis","state_code":"ANT","latitude":"5.66462000","longitude":"-75.71339000","population":6406,"timezone":"America/Bogota","type":"adm2","translations":{"es":"Támesis","en":"Támesis"}},{"name":"Tarazá","state_code":"ANT","latitude":"7.58358000","longitude":"-75.40068000","population":0,"timezone":"America/Bogota","type":"adm2","translations":{"es":"Tarazá","en":"Tarazá"}},{"name":"Tarso","state_code":"ANT","latitude":"5.86467000","longitude":"-75.82192000","population":2700,"timezone":"America/Bogota","type":"adm2","translations":{"es":"Tarso","en":"Tarso"}},{"name":"Titiribí","state_code":"ANT","latitude":"6.06276000","longitude":"-75.79370000","population":8316,"timezone":"America/Bogota","type":"adm2","translations":{"es":"Titiribí","en":"Titiribí"}},{"name":"Toledo","state_code":"ANT","latitude":"7.01306000","longitude":"-75.69528000","population":0,"timezone":"America/Bogota","type":"adm2","translations":{"es":"Toledo","en":"Toledo"}},{"name":"Turbo","state_code":"ANT","latitude":"8.09263000","longitude":"-76.72822000","population":50508,"timezone":"America/Bogota","type":"adm2","translations":{"es":"Turbo","en":"Turbo"}},{"name":"Uramita","state_code":"ANT","latitude":"6.89944000","longitude":"-76.17417000","population":2292,"timezone":"America/Bogota","type":"adm2","translations":{"es":"Uramita","en":"Uramita"}},{"name":"Urrao","state_code":"ANT","latitude":"6.31696000","longitude":"-76.13420000","population":18846,"timezone":"America/Bogota","type":"city","translations":{"es":"Urrao","en":"Urrao"}},{"name":"Valdivia","state_code":"ANT","latitude":"7.29382000","longitude":"-75.39190000","population":11511,"timezone":"America/Bogota","type":"city","translations":{"es":"Valdivia","en":"Valdivia"}},{"name":"Valparaíso","state_code":"ANT","latitude":"5.61500000","longitude":"-75.62422000","population":3626,"timezone":"America/Bogota","type":"adm2","translations":{"es":"Valparaíso","en":"Valparaíso"}},{"name":"Vegachí","state_code":"ANT","latitude":"6.76141000","longitude":"-74.79473000","population":9966,"timezone":"America/Bogota","type":"adm2","translations":{"es":"Vegachí","en":"Vegachí"}},{"name":"Venecia","state_code":"ANT","latitude":"5.95417000","longitude":"-75.79904000","population":10280,"timezone":"America/Bogota","type":"adm2","translations":{"es":"Venecia","en":"Venecia"}},{"name":"Vigía del Fuerte","state_code":"ANT","latitude":"6.58933000","longitude":"-76.89599000","population":5624,"timezone":"America/Bogota","type":"adm2","translations":{"es":"Vigía del Fuerte","en":"Vigía del Fuerte"}},{"name":"Yalí","state_code":"ANT","latitude":"6.70257000","longitude":"-74.79018000","population":7734,"timezone":"America/Bogota","type":"adm2","translations":{"es":"Yalí","en":"Yalí"}},{"name":"Yarumal","state_code":"ANT","latitude":"6.98532000","longitude":"-75.45402000","population":41542,"timezone":"America/Bogota","type":"adm2","translations":{"es":"Yarumal","en":"Yarumal"}},{"name":"Yolombó","state_code":"ANT","latitude":"6.66569000","longitude":"-74.99120000","population":23958,"timezone":"America/Bogota","type":"adm2","translations":{"es":"Yolombó","en":"Yolombó"}},{"name":"Yondó","state_code":"ANT","latitude":"6.90738000","longitude":"-74.17686000","population":17597,"timezone":"America/Bogota","type":"adm2","translations":{"es":"Yondó","en":"Yondó"}},{"name":"Zaragoza","state_code":"ANT","latitude":"7.48971000","longitude":"-74.86919000","population":24067,"timezone":"America/Bogota","type":"adm2","translations":{"es":"Zaragoza","en":"Zaragoza"}},{"name":"Arauca","state_code":"ARA","latitude":"7.08471000","longitude":"-70.75908000","population":96814,"timezone":"America/Bogota","type":"adm1","translations":{"es":"Arauca","en":"Arauca"}},{"name":"Arauquita","state_code":"ARA","latitude":"7.02917000","longitude":"-71.42806000","population":9950,"timezone":"America/Bogota","type":"adm2","translations":{"es":"Arauquita","en":"Arauquita"}},{"name":"Cravo Norte","state_code":"ARA","latitude":"6.30173000","longitude":"-70.20415000","population":4787,"timezone":"America/Bogota","type":"adm2","translations":{"es":"Cravo Norte","en":"Cravo Norte"}},{"name":"Fortul","state_code":"ARA","latitude":"6.74611000","longitude":"-71.85667000","population":21851,"timezone":"America/Bogota","type":"adm2","translations":{"es":"Fortul","en":"Fortul"}},{"name":"Puerto Rondón","state_code":"ARA","latitude":"6.28048000","longitude":"-71.10000000","population":3962,"timezone":"America/Bogota","type":"adm2","translations":{"es":"Puerto Rondón","en":"Puerto Rondón"}},{"name":"Saravena","state_code":"ARA","latitude":"6.96319000","longitude":"-71.88230000","population":0,"timezone":"America/Bogota","type":"adm2","translations":{"es":"Saravena","en":"Saravena"}},{"name":"Tame","state_code":"ARA","latitude":"6.46065000","longitude":"-71.73618000","population":29099,"timezone":"America/Bogota","type":"adm2","translations":{"es":"Domar","en":"Tame"}},{"name":"Baranoa","state_code":"ATL","latitude":"10.79497000","longitude":"-74.92073000","population":68383,"timezone":"America/Bogota","type":"adm2","translations":{"es":"Baranoa","en":"Baranoa"}},{"name":"Barranquilla","state_code":"ATL","latitude":"10.96854000","longitude":"-74.78132000","population":1326588,"timezone":"America/Bogota","type":"adm1","translations":{"es":"Barranquilla","en":"Barranquilla"}},{"name":"Campo de la Cruz","state_code":"ATL","latitude":"10.37844000","longitude":"-74.90258000","population":18354,"timezone":"America/Bogota","type":"adm2","translations":{"es":"Campo de la Cruz","en":"Campo de la Cruz"}},{"name":"Candelaria","state_code":"ATL","latitude":"10.47387000","longitude":"-74.88581000","population":15631,"timezone":"America/Bogota","type":"adm2","translations":{"es":"Candelaria","en":"Candelaria"}},{"name":"Galapa","state_code":"ATL","latitude":"10.89790000","longitude":"-74.88700000","population":19732,"timezone":"America/Bogota","type":"adm2","translations":{"es":"Galapa","en":"Galapa"}},{"name":"Juan de Acosta","state_code":"ATL","latitude":"10.82930000","longitude":"-75.03346000","population":18828,"timezone":"America/Bogota","type":"adm2","translations":{"es":"Juan de Acosta","en":"Juan de Acosta"}},{"name":"Luruaco","state_code":"ATL","latitude":"10.61712000","longitude":"-75.15146000","population":27647,"timezone":"America/Bogota","type":"city","translations":{"es":"Luruaco","en":"Luruaco"}},{"name":"Malambo","state_code":"ATL","latitude":"10.85953000","longitude":"-74.77386000","population":129148,"timezone":"America/Bogota","type":"adm2","translations":{"es":"Malambo","en":"Malambo"}},{"name":"Manatí","state_code":"ATL","latitude":"10.46402000","longitude":"-74.98220000","population":13456,"timezone":"America/Bogota","type":"adm2","translations":{"es":"Manatí","en":"Manatí"}},{"name":"Palmar de Varela","state_code":"ATL","latitude":"10.74055000","longitude":"-74.75443000","population":23012,"timezone":"America/Bogota","type":"adm2","translations":{"es":"Palmar de Varela","en":"Palmar de Varela"}},{"name":"Piojó","state_code":"ATL","latitude":"10.74846000","longitude":"-75.10776000","population":3388,"timezone":"America/Bogota","type":"adm2","translations":{"es":"Piojó","en":"Piojó"}},{"name":"Polonuevo","state_code":"ATL","latitude":"10.77697000","longitude":"-74.85344000","population":19454,"timezone":"America/Bogota","type":"adm2","translations":{"es":"Polonuevo","en":"Polonuevo"}},{"name":"Ponedera","state_code":"ATL","latitude":"10.64297000","longitude":"-74.75393000","population":23420,"timezone":"America/Bogota","type":"adm2","translations":{"es":"Ponedera","en":"Ponedera"}},{"name":"Puerto Colombia","state_code":"ATL","latitude":"11.00854000","longitude":"-74.90887000","population":26932,"timezone":"America/Bogota","type":"adm2","translations":{"es":"Puerto Colombia","en":"Puerto Colombia"}},{"name":"Repelón","state_code":"ATL","latitude":"10.50937000","longitude":"-75.12830000","population":22196,"timezone":"America/Bogota","type":"adm2","translations":{"es":"Repelón","en":"Repelón"}},{"name":"Sabanagrande","state_code":"ATL","latitude":"10.80077000","longitude":"-74.77051000","population":24880,"timezone":"America/Bogota","type":"city","translations":{"es":"Sabanagrande","en":"Sabanagrande"}},{"name":"Sabanalarga","state_code":"ATL","latitude":"10.61636000","longitude":"-74.95717000","population":84410,"timezone":"America/Bogota","type":"adm2","translations":{"es":"Sabanalarga","en":"Sabanalarga"}},{"name":"Santa Lucía","state_code":"ATL","latitude":"10.32420000","longitude":"-74.96017000","population":15760,"timezone":"America/Bogota","type":"adm2","translations":{"es":"Santa Lucía","en":"Santa Lucía"}},{"name":"Santo Tomás","state_code":"ATL","latitude":"10.75773000","longitude":"-74.75451000","population":23188,"timezone":"America/Bogota","type":"adm2","translations":{"es":"Santo Tomás","en":"Santo Tomás"}},{"name":"Soledad","state_code":"ATL","latitude":"10.89986000","longitude":"-74.78787000","population":676014,"timezone":"America/Bogota","type":"adm2","translations":{"es":"Soledad","en":"Soledad"}},{"name":"Suan","state_code":"ATL","latitude":"10.30214000","longitude":"-74.91934000","population":9344,"timezone":"America/Bogota","type":"adm2","translations":{"es":"Suan","en":"Suan"}},{"name":"Tubará","state_code":"ATL","latitude":"10.87562000","longitude":"-74.97873000","population":8180,"timezone":"America/Bogota","type":"city","translations":{"es":"Tubará","en":"Tubará"}},{"name":"Usiacurí","state_code":"ATL","latitude":"10.74313000","longitude":"-74.97604000","population":9543,"timezone":"America/Bogota","type":"adm2","translations":{"es":"Usiacurí","en":"Usiacurí"}},{"name":"Bogotá D.C.","state_code":"DC","latitude":"4.61263889","longitude":"-74.07050000","population":7674366,"timezone":"America/Bogota","type":"capital","translations":{"es":"Bogotá D.C","en":"Bogotá D.C."}},{"name":"Achí","state_code":"BOL","latitude":"8.56950000","longitude":"-74.55715000","population":8434,"timezone":"America/Bogota","type":"adm2","translations":{"es":"Ahí","en":"Achí"}},{"name":"Altos del Rosario","state_code":"BOL","latitude":"8.79162000","longitude":"-74.16556000","population":5220,"timezone":"America/Bogota","type":"adm2","translations":{"es":"Altos del Rosario","en":"Altos del Rosario"}},{"name":"Arenal","state_code":"BOL","latitude":"8.45928000","longitude":"-73.94331000","population":5346,"timezone":"America/Bogota","type":"adm2","translations":{"es":"Arenal","en":"Arenal"}},{"name":"Arjona","state_code":"BOL","latitude":"10.17594000","longitude":"-75.35884000","population":73730,"timezone":"America/Bogota","type":"adm2","translations":{"es":"Arjona","en":"Arjona"}},{"name":"Arroyohondo","state_code":"BOL","latitude":"10.25220000","longitude":"-75.01980000","population":3622,"timezone":"America/Bogota","type":"adm2","translations":{"es":"Arroyohondo","en":"Arroyohondo"}},{"name":"Barranco de Loba","state_code":"BOL","latitude":"8.94597000","longitude":"-74.10647000","population":5933,"timezone":"America/Bogota","type":"adm2","translations":{"es":"Barranco de Loba","en":"Barranco de Loba"}},{"name":"Calamar","state_code":"BOL","latitude":"10.23377000","longitude":"-74.94240000","population":22202,"timezone":"America/Bogota","type":"adm2","translations":{"es":"Calamar","en":"Calamar"}},{"name":"Cantagallo","state_code":"BOL","latitude":"7.37926000","longitude":"-73.91550000","population":6874,"timezone":"America/Bogota","type":"adm2","translations":{"es":"Cantagallo","en":"Cantagallo"}},{"name":"Cartagena de Indias","state_code":"BOL","latitude":"10.39972000","longitude":"-75.51444000","population":null,"timezone":"America/Bogota","type":"city","translations":{"es":"Cartagena de Indias","en":"Cartagena de Indias"}},{"name":"Cicuco","state_code":"BOL","latitude":"9.27756000","longitude":"-74.64312000","population":7662,"timezone":"America/Bogota","type":"adm2","translations":{"es":"Cicuco","en":"Cicuco"}},{"name":"Clemencia","state_code":"BOL","latitude":"10.56645000","longitude":"-75.32499000","population":13821,"timezone":"America/Bogota","type":"adm2","translations":{"es":"Clemencia","en":"Clemencia"}},{"name":"Córdoba","state_code":"BOL","latitude":"9.55149000","longitude":"-74.89800000","population":15012,"timezone":"America/Bogota","type":"adm2","translations":{"es":"Córdoba","en":"Córdoba"}},{"name":"El Carmen de Bolívar","state_code":"BOL","latitude":"9.71740000","longitude":"-75.12023000","population":47957,"timezone":"America/Bogota","type":"adm2","translations":{"es":"El Carmen de Bolívar","en":"El Carmen de Bolívar"}},{"name":"El Guamo","state_code":"BOL","latitude":"10.01753000","longitude":"-74.93483000","population":4732,"timezone":"America/Bogota","type":"adm2","translations":{"es":"El Guamo","en":"El Guamo"}},{"name":"El Peñón","state_code":"BOL","latitude":"8.98691000","longitude":"-73.94697000","population":7234,"timezone":"America/Bogota","type":"adm2","translations":{"es":"El Peñón","en":"El Peñón"}},{"name":"Hatillo de Loba","state_code":"BOL","latitude":"8.95635000","longitude":"-74.07819000","population":3639,"timezone":"America/Bogota","type":"adm2","translations":{"es":"Hatillo de Loba","en":"Hatillo de Loba"}},{"name":"Magangué","state_code":"BOL","latitude":"9.24202000","longitude":"-74.75467000","population":123906,"timezone":"America/Bogota","type":"adm2","translations":{"es":"Magangué","en":"Magangué"}},{"name":"Mahates","state_code":"BOL","latitude":"10.23293000","longitude":"-75.18985000","population":22929,"timezone":"America/Bogota","type":"adm2","translations":{"es":"Mahates","en":"Mahates"}},{"name":"Margarita","state_code":"BOL","latitude":"9.06325000","longitude":"-74.28134000","population":9876,"timezone":"America/Bogota","type":"adm2","translations":{"es":"Margarita","en":"Margarita"}},{"name":"María la Baja","state_code":"BOL","latitude":"9.99228000","longitude":"-75.34364000","population":48079,"timezone":"America/Bogota","type":"adm2","translations":{"es":"María la Baja","en":"María la Baja"}},{"name":"Mompós","state_code":"BOL","latitude":"9.13990000","longitude":"-74.54513000","population":0,"timezone":"America/Bogota","type":"adm2","translations":{"es":"Mompós","en":"Mompós"}},{"name":"Montecristo","state_code":"BOL","latitude":"8.29710000","longitude":"-74.47330000","population":13470,"timezone":"America/Bogota","type":"adm2","translations":{"es":"Montecristo","en":"Montecristo"}},{"name":"Morales","state_code":"BOL","latitude":"8.27520000","longitude":"-73.86884000","population":18678,"timezone":"America/Bogota","type":"adm2","translations":{"es":"Morales","en":"Morales"}},{"name":"Norosí","state_code":"BOL","latitude":"8.52692000","longitude":"-74.03736000","population":0,"timezone":"America/Bogota","type":"adm2","translations":{"es":"Norosí","en":"Norosí"}},{"name":"Pinillos","state_code":"BOL","latitude":"8.91925000","longitude":"-74.46771000","population":24923,"timezone":"America/Bogota","type":"adm2","translations":{"es":"Pinillos","en":"Pinillos"}},{"name":"Regidor","state_code":"BOL","latitude":"8.72229000","longitude":"-73.84891000","population":10489,"timezone":"America/Bogota","type":"adm2","translations":{"es":"Regidor","en":"Regidor"}},{"name":"Río Viejo","state_code":"BOL","latitude":"8.58740000","longitude":"-73.83901000","population":8125,"timezone":"America/Bogota","type":"adm2","translations":{"es":"Río Viejo","en":"Río Viejo"}},{"name":"San Cristóbal","state_code":"BOL","latitude":"9.87809000","longitude":"-75.25248000","population":4737,"timezone":"America/Bogota","type":"city","translations":{"es":"San Cristóbal","en":"San Cristóbal"}},{"name":"San Estanislao","state_code":"BOL","latitude":"10.39833000","longitude":"-75.15111000","population":15312,"timezone":"America/Bogota","type":"adm2","translations":{"es":"San Estanislao","en":"San Estanislao"}},{"name":"San Fernando","state_code":"BOL","latitude":"9.27972000","longitude":"-74.53389000","population":1615,"timezone":"America/Bogota","type":"city","translations":{"es":"San Fernando","en":"San Fernando"}},{"name":"San Jacinto","state_code":"BOL","latitude":"9.83906000","longitude":"-75.11043000","population":23576,"timezone":"America/Bogota","type":"adm2","translations":{"es":"San Jacinto","en":"San Jacinto"}},{"name":"San Jacinto del Cauca","state_code":"BOL","latitude":"8.23729000","longitude":"-74.66782000","population":13426,"timezone":"America/Bogota","type":"adm2","translations":{"es":"San Jacinto del Cauca","en":"San Jacinto del Cauca"}},{"name":"San Juan Nepomuceno","state_code":"BOL","latitude":"9.94976000","longitude":"-75.07426000","population":32514,"timezone":"America/Bogota","type":"adm2","translations":{"es":"San Juan Nepomuceno","en":"San Juan Nepomuceno"}},{"name":"San Martín de Loba","state_code":"BOL","latitude":"8.88214000","longitude":"-74.00353000","population":14504,"timezone":"America/Bogota","type":"adm2","translations":{"es":"San Martín de Loba","en":"San Martín de Loba"}},{"name":"San Pablo","state_code":"BOL","latitude":"10.05154000","longitude":"-75.26775000","population":37160,"timezone":"America/Bogota","type":"city","translations":{"es":"San Pablo","en":"San Pablo"}},{"name":"Santa Catalina","state_code":"BOL","latitude":"10.60448000","longitude":"-75.29555000","population":14039,"timezone":"America/Bogota","type":"adm2","translations":{"es":"Santa Catalina","en":"Santa Catalina"}},{"name":"Santa Rosa","state_code":"BOL","latitude":"10.47312000","longitude":"-75.36160000","population":18375,"timezone":"America/Bogota","type":"adm2","translations":{"es":"Santa Rosa","en":"Santa Rosa"}},{"name":"Santa Rosa del Sur","state_code":"BOL","latitude":"7.96444000","longitude":"-74.05444000","population":8904,"timezone":"America/Bogota","type":"adm2","translations":{"es":"Santa Rosa del Sur","en":"Santa Rosa del Sur"}},{"name":"Simití","state_code":"BOL","latitude":"7.81632000","longitude":"-73.97922000","population":20271,"timezone":"America/Bogota","type":"adm2","translations":{"es":"Simití","en":"Simití"}},{"name":"Soplaviento","state_code":"BOL","latitude":"10.33176000","longitude":"-75.11853000","population":8281,"timezone":"America/Bogota","type":"adm2","translations":{"es":"Soplaviento","en":"Soplaviento"}},{"name":"Talaigua Nuevo","state_code":"BOL","latitude":"9.30347000","longitude":"-74.56477000","population":0,"timezone":"America/Bogota","type":"adm2","translations":{"es":"Talaigua Nuevo","en":"Talaigua Nuevo"}},{"name":"Tiquisio","state_code":"BOL","latitude":"8.55666000","longitude":"-74.26355000","population":22041,"timezone":"America/Bogota","type":"adm2","translations":{"es":"Tiquisio","en":"Tiquisio"}},{"name":"Turbaco","state_code":"BOL","latitude":"10.35707000","longitude":"-75.38044000","population":115000,"timezone":"America/Bogota","type":"adm2","translations":{"es":"Turbaco","en":"Turbaco"}},{"name":"Turbaná","state_code":"BOL","latitude":"10.27169000","longitude":"-75.44222000","population":10235,"timezone":"America/Bogota","type":"adm2","translations":{"es":"Turbaná","en":"Turbaná"}},{"name":"Villanueva","state_code":"BOL","latitude":"10.44759000","longitude":"-75.26574000","population":12791,"timezone":"America/Bogota","type":"adm2","translations":{"es":"Villanueva","en":"Villanueva"}},{"name":"Zambrano","state_code":"BOL","latitude":"9.74823000","longitude":"-74.88487000","population":11367,"timezone":"America/Bogota","type":"adm2","translations":{"es":"Zambrano","en":"Zambrano"}},{"name":"Almeida","state_code":"BOY","latitude":"4.97083000","longitude":"-73.37972000","population":754,"timezone":"America/Bogota","type":"adm2","translations":{"es":"Almeida","en":"Almeida"}},{"name":"Aquitania","state_code":"BOY","latitude":"5.40341000","longitude":"-72.90192000","population":16087,"timezone":"America/Bogota","type":"adm2","translations":{"es":"Aquitania","en":"Aquitania"}},{"name":"Arcabuco","state_code":"BOY","latitude":"5.75463000","longitude":"-73.43669000","population":1564,"timezone":"America/Bogota","type":"adm2","translations":{"es":"Arcabuco","en":"Arcabuco"}},{"name":"Belén","state_code":"BOY","latitude":"5.98892000","longitude":"-72.91254000","population":6587,"timezone":"America/Bogota","type":"adm2","translations":{"es":"Belén","en":"Belén"}},{"name":"Berbeo","state_code":"BOY","latitude":"5.22760000","longitude":"-73.12527000","population":266,"timezone":"America/Bogota","type":"adm2","translations":{"es":"Berbeo","en":"Berbeo"}},{"name":"Betéitiva","state_code":"BOY","latitude":"5.91102000","longitude":"-72.80926000","population":374,"timezone":"America/Bogota","type":"adm2","translations":{"es":"Betéitiva","en":"Betéitiva"}},{"name":"Boavita","state_code":"BOY","latitude":"6.33031000","longitude":"-72.58505000","population":3749,"timezone":"America/Bogota","type":"adm2","translations":{"es":"Boavita","en":"Boavita"}},{"name":"Boyacá","state_code":"BOY","latitude":"5.45371000","longitude":"-73.36250000","population":731,"timezone":"America/Bogota","type":"adm2","translations":{"es":"Boyacá","en":"Boyacá"}},{"name":"Briceño","state_code":"BOY","latitude":"5.68822000","longitude":"-73.91784000","population":632,"timezone":"America/Bogota","type":"adm2","translations":{"es":"Briceño","en":"Briceño"}},{"name":"Buenavista","state_code":"BOY","latitude":"5.50000000","longitude":"-73.96667000","population":5889,"timezone":"America/Bogota","type":"adm2","translations":{"es":"Buenavista","en":"Buenavista"}},{"name":"Busbanzá","state_code":"BOY","latitude":"5.83047000","longitude":"-72.88419000","population":164,"timezone":"America/Bogota","type":"adm2","translations":{"es":"Busbanzá","en":"Busbanzá"}},{"name":"Caldas","state_code":"BOY","latitude":"5.57830000","longitude":"-73.88066000","population":475,"timezone":"America/Bogota","type":"adm2","translations":{"es":"Caldas","en":"Caldas"}},{"name":"Campohermoso","state_code":"BOY","latitude":"4.97733000","longitude":"-73.16714000","population":4065,"timezone":"America/Bogota","type":"adm2","translations":{"es":"Campohermoso","en":"Campohermoso"}},{"name":"Cerinza","state_code":"BOY","latitude":"5.93649000","longitude":"-72.99127000","population":4312,"timezone":"America/Bogota","type":"adm2","translations":{"es":"Cerinza","en":"Cerinza"}},{"name":"Chinavita","state_code":"BOY","latitude":"5.17915000","longitude":"-73.37147000","population":1113,"timezone":"America/Bogota","type":"adm2","translations":{"es":"Chinavita","en":"Chinavita"}},{"name":"Chiquinquirá","state_code":"BOY","latitude":"5.61363000","longitude":"-73.83848000","population":85274,"timezone":"America/Bogota","type":"adm2","translations":{"es":"Chiquinquirá","en":"Chiquinquirá"}},{"name":"Chíquiza","state_code":"BOY","latitude":"5.60412000","longitude":"-73.48518000","population":730,"timezone":"America/Bogota","type":"adm2","translations":{"es":"Chíquiza","en":"Chíquiza"}},{"name":"Chiscas","state_code":"BOY","latitude":"6.55642000","longitude":"-72.50378000","population":1356,"timezone":"America/Bogota","type":"adm2","translations":{"es":"Chiscas","en":"Chiscas"}},{"name":"Chita","state_code":"BOY","latitude":"6.07788000","longitude":"-72.46774000","population":9542,"timezone":"America/Bogota","type":"adm2","translations":{"es":"Chita","en":"Chita"}},{"name":"Chitaraque","state_code":"BOY","latitude":"5.96167000","longitude":"-73.45761000","population":0,"timezone":"America/Bogota","type":"adm2","translations":{"es":"Chitaraque","en":"Chitaraque"}},{"name":"Chivatá","state_code":"BOY","latitude":"5.55823000","longitude":"-73.28198000","population":664,"timezone":"America/Bogota","type":"adm2","translations":{"es":"Chivatá","en":"Chivatá"}},{"name":"Chivor","state_code":"BOY","latitude":"4.88556000","longitude":"-73.36889000","population":1795,"timezone":"America/Bogota","type":"adm2","translations":{"es":"Chivor","en":"Chivor"}},{"name":"Ciénega","state_code":"BOY","latitude":"5.40867000","longitude":"-73.29572000","population":1172,"timezone":"America/Bogota","type":"adm2","translations":{"es":"Ciénega","en":"Ciénega"}},{"name":"Combita","state_code":"BOY","latitude":"5.63333000","longitude":"-73.31667000","population":1034,"timezone":"America/Bogota","type":"city","translations":{"es":"Combita","en":"Combita"}},{"name":"Coper","state_code":"BOY","latitude":"5.47681000","longitude":"-74.04416000","population":814,"timezone":"America/Bogota","type":"adm2","translations":{"es":"Barco con alcohol","en":"Coper"}},{"name":"Corrales","state_code":"BOY","latitude":"5.82497000","longitude":"-72.84539000","population":1561,"timezone":"America/Bogota","type":"adm2","translations":{"es":"Corrales","en":"Corrales"}},{"name":"Covarachía","state_code":"BOY","latitude":"6.50563000","longitude":"-72.73310000","population":590,"timezone":"America/Bogota","type":"adm2","translations":{"es":"Covarachía","en":"Covarachía"}},{"name":"Cubará","state_code":"BOY","latitude":"7.00578000","longitude":"-72.10568000","population":1466,"timezone":"America/Bogota","type":"adm2","translations":{"es":"Cubará","en":"Cubará"}},{"name":"Cucaita","state_code":"BOY","latitude":"5.54373000","longitude":"-73.45433000","population":1417,"timezone":"America/Bogota","type":"adm2","translations":{"es":"Cucaita","en":"Cucaita"}},{"name":"Cuítiva","state_code":"BOY","latitude":"5.58007000","longitude":"-72.96687000","population":233,"timezone":"America/Bogota","type":"adm2","translations":{"es":"Cuítiva","en":"Cuítiva"}},{"name":"Duitama","state_code":"BOY","latitude":"5.82450000","longitude":"-73.03408000","population":92040,"timezone":"America/Bogota","type":"adm2","translations":{"es":"Duitama","en":"Duitama"}},{"name":"El Cocuy","state_code":"BOY","latitude":"6.32839000","longitude":"-72.43577000","population":2706,"timezone":"America/Bogota","type":"adm2","translations":{"es":"El Cocuy","en":"El Cocuy"}},{"name":"El Espino","state_code":"BOY","latitude":"6.50812000","longitude":"-72.48036000","population":4195,"timezone":"America/Bogota","type":"adm2","translations":{"es":"El Espino","en":"El Espino"}},{"name":"Firavitoba","state_code":"BOY","latitude":"5.66885000","longitude":"-72.99289000","population":2136,"timezone":"America/Bogota","type":"adm2","translations":{"es":"Firavitoba","en":"Firavitoba"}},{"name":"Floresta","state_code":"BOY","latitude":"5.85903000","longitude":"-72.92511000","population":1127,"timezone":"America/Bogota","type":"adm2","translations":{"es":"Floresta","en":"Floresta"}},{"name":"Gachantivá","state_code":"BOY","latitude":"5.74417000","longitude":"-73.54253000","population":534,"timezone":"America/Bogota","type":"adm2","translations":{"es":"Gachantivá","en":"Gachantivá"}},{"name":"Gameza","state_code":"BOY","latitude":"5.80313000","longitude":"-72.73721000","population":5669,"timezone":"America/Bogota","type":"adm2","translations":{"es":"Gameza","en":"Gameza"}},{"name":"Garagoa","state_code":"BOY","latitude":"5.08236000","longitude":"-73.36334000","population":11102,"timezone":"America/Bogota","type":"adm2","translations":{"es":"Garagoa","en":"Garagoa"}},{"name":"Guacamayas","state_code":"BOY","latitude":"6.44599000","longitude":"-72.51676000","population":772,"timezone":"America/Bogota","type":"adm2","translations":{"es":"Guacamayas","en":"Guacamayas"}},{"name":"Guateque","state_code":"BOY","latitude":"5.00619000","longitude":"-73.47274000","population":7069,"timezone":"America/Bogota","type":"adm2","translations":{"es":"Guateque","en":"Guateque"}},{"name":"Guayatá","state_code":"BOY","latitude":"4.96417000","longitude":"-73.48750000","population":2857,"timezone":"America/Bogota","type":"adm2","translations":{"es":"Guayatá","en":"Guayatá"}},{"name":"Güicán","state_code":"BOY","latitude":"6.46554000","longitude":"-72.41539000","population":2101,"timezone":"America/Bogota","type":"adm2","translations":{"es":"Güicán","en":"Güicán"}},{"name":"Iza","state_code":"BOY","latitude":"5.61203000","longitude":"-72.97930000","population":748,"timezone":"America/Bogota","type":"adm2","translations":{"es":"Iza","en":"Iza"}},{"name":"Jenesano","state_code":"BOY","latitude":"5.38541000","longitude":"-73.36364000","population":1200,"timezone":"America/Bogota","type":"adm2","translations":{"es":"Jenesano","en":"Jenesano"}},{"name":"Jericó","state_code":"BOY","latitude":"6.14577000","longitude":"-72.58598000","population":4716,"timezone":"America/Bogota","type":"adm2","translations":{"es":"Jericó","en":"Jericó"}},{"name":"La Capilla","state_code":"BOY","latitude":"5.08076000","longitude":"-73.48076000","population":7069,"timezone":"America/Bogota","type":"adm2","translations":{"es":"La Capilla","en":"La Capilla"}},{"name":"La Uvita","state_code":"BOY","latitude":"6.24262000","longitude":"-72.56448000","population":1708,"timezone":"America/Bogota","type":"adm2","translations":{"es":"La Uvita","en":"La Uvita"}},{"name":"La Victoria","state_code":"BOY","latitude":"5.52278000","longitude":"-74.23280000","population":0,"timezone":"America/Bogota","type":"adm2","translations":{"es":"La Victoria","en":"La Victoria"}},{"name":"Labranzagrande","state_code":"BOY","latitude":"5.56223000","longitude":"-72.57499000","population":902,"timezone":"America/Bogota","type":"adm2","translations":{"es":"Labranzagrande","en":"Labranzagrande"}},{"name":"Macanal","state_code":"BOY","latitude":"4.95050000","longitude":"-73.32029000","population":734,"timezone":"America/Bogota","type":"adm2","translations":{"es":"Macanal","en":"Macanal"}},{"name":"Maripí","state_code":"BOY","latitude":"5.55194000","longitude":"-74.00861000","population":1143,"timezone":"America/Bogota","type":"adm2","translations":{"es":"Maripí","en":"Maripí"}},{"name":"Miraflores","state_code":"BOY","latitude":"5.12216000","longitude":"-73.21212000","population":8274,"timezone":"America/Bogota","type":"adm2","translations":{"es":"Miraflores","en":"Miraflores"}},{"name":"Mongua","state_code":"BOY","latitude":"5.75084000","longitude":"-72.80339000","population":2322,"timezone":"America/Bogota","type":"adm2","translations":{"es":"Mongua","en":"Mongua"}},{"name":"Monguí","state_code":"BOY","latitude":"5.69752000","longitude":"-72.83359000","population":2299,"timezone":"America/Bogota","type":"adm2","translations":{"es":"Monguí","en":"Monguí"}},{"name":"Moniquirá","state_code":"BOY","latitude":"5.84315000","longitude":"-73.57775000","population":20848,"timezone":"America/Bogota","type":"adm2","translations":{"es":"Moniquirá","en":"Moniquirá"}},{"name":"Motavita","state_code":"BOY","latitude":"5.57655000","longitude":"-73.36696000","population":392,"timezone":"America/Bogota","type":"adm2","translations":{"es":"Motavita","en":"Motavita"}},{"name":"Muzo","state_code":"BOY","latitude":"5.53528000","longitude":"-74.10778000","population":7977,"timezone":"America/Bogota","type":"adm2","translations":{"es":"Muzo","en":"Muzo"}},{"name":"Nobsa","state_code":"BOY","latitude":"5.76978000","longitude":"-72.94099000","population":3360,"timezone":"America/Bogota","type":"adm2","translations":{"es":"Nobsa","en":"Nobsa"}},{"name":"Nuevo Colón","state_code":"BOY","latitude":"5.35368000","longitude":"-73.45660000","population":863,"timezone":"America/Bogota","type":"adm2","translations":{"es":"Nuevo Colón","en":"Nuevo Colón"}},{"name":"Oicatá","state_code":"BOY","latitude":"5.59548000","longitude":"-73.30820000","population":327,"timezone":"America/Bogota","type":"adm2","translations":{"es":"Oicatá","en":"Oicatá"}},{"name":"Otanche","state_code":"BOY","latitude":"5.77534000","longitude":"-74.20315000","population":6997,"timezone":"America/Bogota","type":"adm2","translations":{"es":"Otanche","en":"Otanche"}},{"name":"Pachavita","state_code":"BOY","latitude":"5.13969000","longitude":"-73.39739000","population":959,"timezone":"America/Bogota","type":"adm2","translations":{"es":"Pachavita","en":"Pachavita"}},{"name":"Páez","state_code":"BOY","latitude":"5.10112000","longitude":"-73.05123000","population":1220,"timezone":"America/Bogota","type":"adm2","translations":{"es":"Páez","en":"Páez"}},{"name":"Paipa","state_code":"BOY","latitude":"5.78013000","longitude":"-73.11708000","population":13554,"timezone":"America/Bogota","type":"adm2","translations":{"es":"Paipa","en":"Paipa"}},{"name":"Pajarito","state_code":"BOY","latitude":"5.34751000","longitude":"-72.72075000","population":1719,"timezone":"America/Bogota","type":"adm2","translations":{"es":"Pajarito","en":"Pajarito"}},{"name":"Panqueba","state_code":"BOY","latitude":"6.44533000","longitude":"-72.46268000","population":668,"timezone":"America/Bogota","type":"adm2","translations":{"es":"Panqueba","en":"Panqueba"}},{"name":"Pauna","state_code":"BOY","latitude":"5.65861000","longitude":"-73.98250000","population":6355,"timezone":"America/Bogota","type":"adm2","translations":{"es":"Pauna","en":"Pauna"}},{"name":"Paya","state_code":"BOY","latitude":"5.62492000","longitude":"-72.42345000","population":336,"timezone":"America/Bogota","type":"adm2","translations":{"es":"Paya","en":"Paya"}},{"name":"Paz de Río","state_code":"BOY","latitude":"6.00219000","longitude":"-72.78857000","population":5258,"timezone":"America/Bogota","type":"adm2","translations":{"es":"Paz de Río","en":"Paz de Río"}},{"name":"Pesca","state_code":"BOY","latitude":"5.50213000","longitude":"-73.08794000","population":9322,"timezone":"America/Bogota","type":"adm2","translations":{"es":"Pesca","en":"Pesca"}},{"name":"Pisba","state_code":"BOY","latitude":"5.72396000","longitude":"-72.48646000","population":307,"timezone":"America/Bogota","type":"adm2","translations":{"es":"Pisba","en":"Pisba"}},{"name":"Puerto Boyacá","state_code":"BOY","latitude":"5.97214000","longitude":"-74.46349000","population":55286,"timezone":"America/Bogota","type":"adm2","translations":{"es":"Puerto Boyacá","en":"Puerto Boyacá"}},{"name":"Quípama","state_code":"BOY","latitude":"5.51940000","longitude":"-74.17765000","population":3571,"timezone":"America/Bogota","type":"adm2","translations":{"es":"Quípama","en":"Quípama"}},{"name":"Ramiriquí","state_code":"BOY","latitude":"5.40020000","longitude":"-73.33544000","population":5039,"timezone":"America/Bogota","type":"adm2","translations":{"es":"Ramiriquí","en":"Ramiriquí"}},{"name":"Ráquira","state_code":"BOY","latitude":"5.53793000","longitude":"-73.63201000","population":2120,"timezone":"America/Bogota","type":"adm2","translations":{"es":"Ráquira","en":"Ráquira"}},{"name":"Rondón","state_code":"BOY","latitude":"5.38173000","longitude":"-73.19683000","population":504,"timezone":"America/Bogota","type":"adm2","translations":{"es":"Rondón","en":"Rondón"}},{"name":"Saboyá","state_code":"BOY","latitude":"5.69636000","longitude":"-73.76932000","population":1375,"timezone":"America/Bogota","type":"adm2","translations":{"es":"Saboyá","en":"Saboyá"}},{"name":"Sáchica","state_code":"BOY","latitude":"5.58453000","longitude":"-73.54184000","population":1774,"timezone":"America/Bogota","type":"adm2","translations":{"es":"Sáchica","en":"Sáchica"}},{"name":"Samacá","state_code":"BOY","latitude":"5.49273000","longitude":"-73.48537000","population":3689,"timezone":"America/Bogota","type":"adm2","translations":{"es":"Samacá","en":"Samacá"}},{"name":"San Eduardo","state_code":"BOY","latitude":"5.22396000","longitude":"-73.07696000","population":524,"timezone":"America/Bogota","type":"adm2","translations":{"es":"San Eduardo","en":"San Eduardo"}},{"name":"San José de Pare","state_code":"BOY","latitude":"6.01746000","longitude":"-73.54703000","population":941,"timezone":"America/Bogota","type":"adm2","translations":{"es":"San José de Pare","en":"San José de Pare"}},{"name":"San Luis de Gaceno","state_code":"BOY","latitude":"4.82052000","longitude":"-73.16851000","population":2579,"timezone":"America/Bogota","type":"adm2","translations":{"es":"San Luis de Gaceno","en":"San Luis de Gaceno"}},{"name":"San Mateo","state_code":"BOY","latitude":"6.37704000","longitude":"-72.57797000","population":3682,"timezone":"America/Bogota","type":"adm2","translations":{"es":"San Mateo","en":"San Mateo"}},{"name":"San Miguel de Sema","state_code":"BOY","latitude":"5.51847000","longitude":"-73.72238000","population":647,"timezone":"America/Bogota","type":"adm2","translations":{"es":"San Miguel de Sema","en":"San Miguel de Sema"}},{"name":"San Pablo de Borbur","state_code":"BOY","latitude":"5.66638000","longitude":"-74.13723000","population":18865,"timezone":"America/Bogota","type":"adm2","translations":{"es":"San Pablo de Borbur","en":"San Pablo de Borbur"}},{"name":"Santa María","state_code":"BOY","latitude":"4.82282000","longitude":"-73.25373000","population":2238,"timezone":"America/Bogota","type":"adm2","translations":{"es":"Santa María","en":"Santa María"}},{"name":"Santa Rosa de Viterbo","state_code":"BOY","latitude":"5.87401000","longitude":"-72.98217000","population":13249,"timezone":"America/Bogota","type":"adm2","translations":{"es":"Santa Rosa de Viterbo","en":"Santa Rosa de Viterbo"}},{"name":"Santa Sofía","state_code":"BOY","latitude":"5.70213000","longitude":"-73.62976000","population":2704,"timezone":"America/Bogota","type":"adm2","translations":{"es":"Santa Sofía","en":"Santa Sofía"}},{"name":"Santana","state_code":"BOY","latitude":"6.04464000","longitude":"-73.51107000","population":7692,"timezone":"America/Bogota","type":"adm2","translations":{"es":"Santana","en":"Santana"}},{"name":"Sativanorte","state_code":"BOY","latitude":"6.13156000","longitude":"-72.70895000","population":792,"timezone":"America/Bogota","type":"adm2","translations":{"es":"Sativanorte","en":"Sativanorte"}},{"name":"Sativasur","state_code":"BOY","latitude":"6.08959000","longitude":"-72.72432000","population":579,"timezone":"America/Bogota","type":"adm2","translations":{"es":"Sativasur","en":"Sativasur"}},{"name":"Siachoque","state_code":"BOY","latitude":"5.51238000","longitude":"-73.24436000","population":1375,"timezone":"America/Bogota","type":"adm2","translations":{"es":"Siachoque","en":"Siachoque"}},{"name":"Soatá","state_code":"BOY","latitude":"6.29966000","longitude":"-72.72422000","population":7255,"timezone":"America/Bogota","type":"adm2","translations":{"es":"Soatá","en":"Soatá"}},{"name":"Socha","state_code":"BOY","latitude":"5.92926000","longitude":"-72.70072000","population":3353,"timezone":"America/Bogota","type":"city","translations":{"es":"Socha","en":"Socha"}},{"name":"Socotá","state_code":"BOY","latitude":"6.04028000","longitude":"-72.63509000","population":2193,"timezone":"America/Bogota","type":"adm2","translations":{"es":"Socotá","en":"Socotá"}},{"name":"Sogamoso","state_code":"BOY","latitude":"5.71434000","longitude":"-72.93391000","population":139021,"timezone":"America/Bogota","type":"adm2","translations":{"es":"Sogamoso","en":"Sogamoso"}},{"name":"Somondoco","state_code":"BOY","latitude":"4.98495000","longitude":"-73.43238000","population":1029,"timezone":"America/Bogota","type":"adm2","translations":{"es":"Somondoco","en":"Somondoco"}},{"name":"Sora","state_code":"BOY","latitude":"5.56514000","longitude":"-73.45017000","population":508,"timezone":"America/Bogota","type":"adm2","translations":{"es":"Sora","en":"Sora"}},{"name":"Soracá","state_code":"BOY","latitude":"5.50055000","longitude":"-73.33299000","population":827,"timezone":"America/Bogota","type":"adm2","translations":{"es":"Soracá","en":"Soracá"}},{"name":"Sotaquirá","state_code":"BOY","latitude":"5.76483000","longitude":"-73.24758000","population":1352,"timezone":"America/Bogota","type":"adm2","translations":{"es":"Sotaquirá","en":"Sotaquirá"}},{"name":"Susacón","state_code":"BOY","latitude":"6.22978000","longitude":"-72.69010000","population":1207,"timezone":"America/Bogota","type":"adm2","translations":{"es":"Susacón","en":"Susacón"}},{"name":"Sutamarchán","state_code":"BOY","latitude":"5.61538000","longitude":"-73.61701000","population":1432,"timezone":"America/Bogota","type":"adm2","translations":{"es":"Sutamarchán","en":"Sutamarchán"}},{"name":"Sutatenza","state_code":"BOY","latitude":"5.02311000","longitude":"-73.45230000","population":827,"timezone":"America/Bogota","type":"adm2","translations":{"es":"Sutatenza","en":"Sutatenza"}},{"name":"Tasco","state_code":"BOY","latitude":"5.91044000","longitude":"-72.78001000","population":1811,"timezone":"America/Bogota","type":"adm2","translations":{"es":"Tasco","en":"Tasco"}},{"name":"Tenza","state_code":"BOY","latitude":"5.07664000","longitude":"-73.42077000","population":1312,"timezone":"America/Bogota","type":"adm2","translations":{"es":"Tenza","en":"Tenza"}},{"name":"Tibaná","state_code":"BOY","latitude":"5.31728000","longitude":"-73.39655000","population":1802,"timezone":"America/Bogota","type":"adm2","translations":{"es":"Tibaná","en":"Tibaná"}},{"name":"Tibasosa","state_code":"BOY","latitude":"5.74722000","longitude":"-73.01091000","population":3535,"timezone":"America/Bogota","type":"adm2","translations":{"es":"Tibasosa","en":"Tibasosa"}},{"name":"Tinjacá","state_code":"BOY","latitude":"5.57916000","longitude":"-73.64486000","population":400,"timezone":"America/Bogota","type":"adm2","translations":{"es":"Tinjacá","en":"Tinjacá"}},{"name":"Tipacoque","state_code":"BOY","latitude":"6.42031000","longitude":"-72.69184000","population":1036,"timezone":"America/Bogota","type":"adm2","translations":{"es":"Tipacoque","en":"Tipacoque"}},{"name":"Toca","state_code":"BOY","latitude":"5.56393000","longitude":"-73.18398000","population":3946,"timezone":"America/Bogota","type":"adm2","translations":{"es":"Toca","en":"Toca"}},{"name":"Togüí","state_code":"BOY","latitude":"5.93462000","longitude":"-73.51297000","population":829,"timezone":"America/Bogota","type":"adm2","translations":{"es":"Togüí","en":"Togüí"}},{"name":"Tópaga","state_code":"BOY","latitude":"5.75979000","longitude":"-72.82583000","population":1014,"timezone":"America/Bogota","type":"adm2","translations":{"es":"Tópaga","en":"Tópaga"}},{"name":"Tota","state_code":"BOY","latitude":"5.55833000","longitude":"-72.98757000","population":774,"timezone":"America/Bogota","type":"adm2","translations":{"es":"Total","en":"Tota"}},{"name":"Tunja","state_code":"BOY","latitude":"5.53528000","longitude":"-73.36778000","population":180572,"timezone":"America/Bogota","type":"adm1","translations":{"es":"Tunja","en":"Tunja"}},{"name":"Tununguá","state_code":"BOY","latitude":"5.72967000","longitude":"-73.94137000","population":178,"timezone":"America/Bogota","type":"adm2","translations":{"es":"Tununguá","en":"Tununguá"}},{"name":"Turmequé","state_code":"BOY","latitude":"5.32360000","longitude":"-73.49067000","population":2901,"timezone":"America/Bogota","type":"adm2","translations":{"es":"Turmequé","en":"Turmequé"}},{"name":"Tuta","state_code":"BOY","latitude":"5.68966000","longitude":"-73.22779000","population":1639,"timezone":"America/Bogota","type":"adm2","translations":{"es":"Tuta","en":"Tuta"}},{"name":"Tutazá","state_code":"BOY","latitude":"6.03228000","longitude":"-72.85639000","population":292,"timezone":"America/Bogota","type":"adm2","translations":{"es":"Tutazá","en":"Tutazá"}},{"name":"Umbita","state_code":"BOY","latitude":"5.18411000","longitude":"-73.48341000","population":10105,"timezone":"America/Bogota","type":"adm2","translations":{"es":"Umbita","en":"Umbita"}},{"name":"Ventaquemada","state_code":"BOY","latitude":"5.35987000","longitude":"-73.55032000","population":14404,"timezone":"America/Bogota","type":"adm2","translations":{"es":"Ventaquemada","en":"Ventaquemada"}},{"name":"Villa de Leyva","state_code":"BOY","latitude":"5.67061000","longitude":"-73.51554000","population":5103,"timezone":"America/Bogota","type":"adm2","translations":{"es":"Villa de Leyva","en":"Villa de Leyva"}},{"name":"Viracachá","state_code":"BOY","latitude":"5.43637000","longitude":"-73.29606000","population":541,"timezone":"America/Bogota","type":"adm2","translations":{"es":"Viracachá","en":"Viracachá"}},{"name":"Zetaquira","state_code":"BOY","latitude":"5.25824000","longitude":"-73.18275000","population":1047,"timezone":"America/Bogota","type":"adm2","translations":{"es":"Zetaquirá","en":"Zetaquira"}},{"name":"Aguadas","state_code":"CAL","latitude":"5.61161000","longitude":"-75.45624000","population":20712,"timezone":"America/Bogota","type":"adm2","translations":{"es":"Aguadas","en":"Aguadas"}},{"name":"Anserma","state_code":"CAL","latitude":"5.20427000","longitude":"-75.79167000","population":0,"timezone":"America/Bogota","type":"adm2","translations":{"es":"Anserma","en":"Anserma"}},{"name":"Aranzazu","state_code":"CAL","latitude":"5.25519000","longitude":"-75.50984000","population":20495,"timezone":"America/Bogota","type":"adm2","translations":{"es":"Aránzazu","en":"Aranzazu"}},{"name":"Belalcázar","state_code":"CAL","latitude":"4.99528000","longitude":"-75.81278000","population":9690,"timezone":"America/Bogota","type":"adm2","translations":{"es":"Belalcázar","en":"Belalcázar"}},{"name":"Chinchiná","state_code":"CAL","latitude":"4.97522000","longitude":"-75.70416000","population":53496,"timezone":"America/Bogota","type":"adm2","translations":{"es":"Chinchiná","en":"Chinchiná"}},{"name":"Filadelfia","state_code":"CAL","latitude":"5.29606000","longitude":"-75.56120000","population":9630,"timezone":"America/Bogota","type":"adm2","translations":{"es":"Filadelfia","en":"Filadelfia"}},{"name":"La Dorada","state_code":"CAL","latitude":"5.53333000","longitude":"-74.70000000","population":72925,"timezone":"America/Bogota","type":"adm2","translations":{"es":"La Dorada","en":"La Dorada"}},{"name":"La Merced","state_code":"CAL","latitude":"5.38060000","longitude":"-75.58842000","population":3851,"timezone":"America/Bogota","type":"adm2","translations":{"es":"La Merced","en":"La Merced"}},{"name":"Manizales","state_code":"CAL","latitude":"5.06889000","longitude":"-75.51738000","population":454494,"timezone":"America/Bogota","type":"adm1","translations":{"es":"Manizales","en":"Manizales"}},{"name":"Manzanares","state_code":"CAL","latitude":"5.23305000","longitude":"-75.15168000","population":16532,"timezone":"America/Bogota","type":"adm2","translations":{"es":"Manzanares","en":"Manzanares"}},{"name":"Marmato","state_code":"CAL","latitude":"5.47554000","longitude":"-75.59710000","population":1456,"timezone":"America/Bogota","type":"adm2","translations":{"es":"Marmato","en":"Marmato"}},{"name":"Marquetalia","state_code":"CAL","latitude":"5.29069000","longitude":"-75.08028000","population":12146,"timezone":"America/Bogota","type":"adm2","translations":{"es":"Marquetalia","en":"Marquetalia"}},{"name":"Marulanda","state_code":"CAL","latitude":"5.28393000","longitude":"-75.26016000","population":1256,"timezone":"America/Bogota","type":"adm2","translations":{"es":"Marulanda","en":"Marulanda"}},{"name":"Neira","state_code":"CAL","latitude":"5.17534000","longitude":"-75.52405000","population":20495,"timezone":"America/Bogota","type":"adm2","translations":{"es":"Neira","en":"Neira"}},{"name":"Norcasia","state_code":"CAL","latitude":"5.57535000","longitude":"-74.88831000","population":6903,"timezone":"America/Bogota","type":"adm2","translations":{"es":"Norcasia","en":"Norcasia"}},{"name":"Pácora","state_code":"CAL","latitude":"5.50631000","longitude":"-75.49054000","population":13214,"timezone":"America/Bogota","type":"adm2","translations":{"es":"Pácora","en":"Pácora"}},{"name":"Palestina","state_code":"CAL","latitude":"5.04571000","longitude":"-75.69552000","population":13560,"timezone":"America/Bogota","type":"adm2","translations":{"es":"Palestina","en":"Palestina"}},{"name":"Pensilvania","state_code":"CAL","latitude":"5.38840000","longitude":"-75.20420000","population":26426,"timezone":"America/Bogota","type":"adm2","translations":{"es":"Pensilvania","en":"Pensilvania"}},{"name":"Riosucio","state_code":"CAL","latitude":"5.42164000","longitude":"-75.70318000","population":18950,"timezone":"America/Bogota","type":"adm2","translations":{"es":"Riosucio","en":"Riosucio"}},{"name":"Risaralda","state_code":"CAL","latitude":"5.11237000","longitude":"-75.75861000","population":5421,"timezone":"America/Bogota","type":"adm2","translations":{"es":"Risaralda","en":"Risaralda"}},{"name":"Salamina","state_code":"CAL","latitude":"5.37014000","longitude":"-75.41548000","population":20288,"timezone":"America/Bogota","type":"adm2","translations":{"es":"Salamina","en":"Salamina"}},{"name":"Samaná","state_code":"CAL","latitude":"5.54061000","longitude":"-74.99346000","population":17466,"timezone":"America/Bogota","type":"adm2","translations":{"es":"Samaná","en":"Samaná"}},{"name":"San José","state_code":"CAL","latitude":"5.08221000","longitude":"-75.79107000","population":1772,"timezone":"America/Bogota","type":"adm2","translations":{"es":"San José","en":"San José"}},{"name":"Supía","state_code":"CAL","latitude":"5.45303000","longitude":"-75.65072000","population":26571,"timezone":"America/Bogota","type":"adm2","translations":{"es":"Supía","en":"Supía"}},{"name":"Victoria","state_code":"CAL","latitude":"5.45666000","longitude":"-74.84061000","population":9165,"timezone":"America/Bogota","type":"adm2","translations":{"es":"Victoria","en":"Victoria"}},{"name":"Villamaría","state_code":"CAL","latitude":"4.95078000","longitude":"-75.43680000","population":46322,"timezone":"America/Bogota","type":"adm2","translations":{"es":"Villamaría","en":"Villamaría"}},{"name":"Viterbo","state_code":"CAL","latitude":"5.06242000","longitude":"-75.87159000","population":12432,"timezone":"America/Bogota","type":"adm2","translations":{"es":"Viterbo","en":"Viterbo"}},{"name":"Albania","state_code":"CAQ","latitude":"1.26325000","longitude":"-75.95366000","population":6429,"timezone":"America/Bogota","type":"adm2","translations":{"es":"Albania","en":"Albania"}},{"name":"Belén de Los Andaquies","state_code":"CAQ","latitude":"1.41667000","longitude":"-75.91667000","population":3937,"timezone":"America/Bogota","type":"adm2","translations":{"es":"Belén de Los Andaquíes","en":"Belén de Los Andaquies"}},{"name":"Cartagena del Chairá","state_code":"CAQ","latitude":"1.33488000","longitude":"-74.84289000","population":7586,"timezone":"America/Bogota","type":"adm2","translations":{"es":"Cartagena del Chairá","en":"Cartagena del Chairá"}},{"name":"Curillo","state_code":"CAQ","latitude":"1.03327000","longitude":"-75.91907000","population":11121,"timezone":"America/Bogota","type":"adm2","translations":{"es":"Curillo","en":"Curillo"}},{"name":"El Doncello","state_code":"CAQ","latitude":"1.67817000","longitude":"-75.28466000","population":21547,"timezone":"America/Bogota","type":"adm2","translations":{"es":"El Doncello","en":"El Doncello"}},{"name":"El Paujil","state_code":"CAQ","latitude":"1.57085000","longitude":"-75.31403000","population":7618,"timezone":"America/Bogota","type":"adm2","translations":{"es":"El Paujil","en":"El Paujil"}},{"name":"Florencia","state_code":"CAQ","latitude":"1.71619000","longitude":"-75.59624000","population":6028,"timezone":"America/Bogota","type":"adm1","translations":{"es":"Florencia","en":"Florencia"}},{"name":"La Montañita","state_code":"CAQ","latitude":"1.46389000","longitude":"-75.30363000","population":15725,"timezone":"America/Bogota","type":"adm2","translations":{"es":"La Montañita","en":"La Montañita"}},{"name":"Milán","state_code":"CAQ","latitude":"1.29034000","longitude":"-75.50757000","population":7507,"timezone":"America/Bogota","type":"adm2","translations":{"es":"Milán","en":"Milán"}},{"name":"Morelia","state_code":"CAQ","latitude":"1.48747000","longitude":"-75.72581000","population":2257,"timezone":"America/Bogota","type":"adm2","translations":{"es":"Morelia","en":"Morelia"}},{"name":"Puerto Rico","state_code":"CAQ","latitude":"1.90999000","longitude":"-75.15931000","population":33765,"timezone":"America/Bogota","type":"adm2","translations":{"es":"Puerto Rico","en":"Puerto Rico"}},{"name":"San José del Fragua","state_code":"CAQ","latitude":"1.30780000","longitude":"-76.16554000","population":13882,"timezone":"America/Bogota","type":"adm2","translations":{"es":"San José del Fragua","en":"San José del Fragua"}},{"name":"San Vicente del Caguán","state_code":"CAQ","latitude":"2.11527888","longitude":"-74.77777777","population":0,"timezone":"America/Bogota","type":"adm2","translations":{"es":"San Vicente del Caguán","en":"San Vicente del Caguán"}},{"name":"Solano","state_code":"CAQ","latitude":"0.22842000","longitude":"-73.27597000","population":19427,"timezone":"America/Bogota","type":"city","translations":{"es":"Solano","en":"Solano"}},{"name":"Solita","state_code":"CAQ","latitude":"0.87583333","longitude":"-75.61972222","population":0,"timezone":"America/Bogota","type":"adm2","translations":{"es":"Solita","en":"Solita"}},{"name":"Valparaíso","state_code":"CAQ","latitude":"1.19403000","longitude":"-75.70746000","population":6324,"timezone":"America/Bogota","type":"adm2","translations":{"es":"Valparaíso","en":"Valparaíso"}},{"name":"Aguazul","state_code":"CAS","latitude":"5.17282000","longitude":"-72.54706000","population":15669,"timezone":"America/Bogota","type":"adm2","translations":{"es":"Aguazul","en":"Aguazul"}},{"name":"Chameza","state_code":"CAS","latitude":"5.19237000","longitude":"-72.88952000","population":1820,"timezone":"America/Bogota","type":"adm2","translations":{"es":"Chameza","en":"Chameza"}},{"name":"Hato Corozal","state_code":"CAS","latitude":"6.15472222","longitude":"-71.76527888","population":10091,"timezone":"America/Bogota","type":"city","translations":{"es":"Hato Corozal","en":"Hato Corozal"}},{"name":"La Salina","state_code":"CAS","latitude":"6.12755555","longitude":"-72.33416777","population":0,"timezone":"America/Bogota","type":"adm2","translations":{"es":"La Salina","en":"La Salina"}},{"name":"Maní","state_code":"CAS","latitude":"4.81638000","longitude":"-72.27946000","population":11177,"timezone":"America/Bogota","type":"adm2","translations":{"es":"Maní","en":"Maní"}},{"name":"Monterrey","state_code":"CAS","latitude":"4.82015000","longitude":"-72.87901000","population":14828,"timezone":"America/Bogota","type":"adm2","translations":{"es":"Monterrey","en":"Monterrey"}},{"name":"Nunchía","state_code":"CAS","latitude":"5.63589000","longitude":"-72.19543000","population":1282,"timezone":"America/Bogota","type":"city","translations":{"es":"Nunchía","en":"Nunchía"}},{"name":"Orocué","state_code":"CAS","latitude":"4.79035000","longitude":"-71.33917000","population":2835,"timezone":"America/Bogota","type":"adm2","translations":{"es":"Orocué","en":"Orocué"}},{"name":"Paz de Ariporo","state_code":"CAS","latitude":"5.88111111","longitude":"-71.89166777","population":34446,"timezone":"America/Bogota","type":"adm2","translations":{"es":"Paz de Ariporo","en":"Paz de Ariporo"}},{"name":"Pore","state_code":"CAS","latitude":"5.72792000","longitude":"-71.99266000","population":4133,"timezone":"America/Bogota","type":"adm2","translations":{"es":"Poro","en":"Pore"}},{"name":"Recetor","state_code":"CAS","latitude":"5.22947000","longitude":"-72.76099000","population":205,"timezone":"America/Bogota","type":"adm2","translations":{"es":"Rector","en":"Recetor"}},{"name":"Sabanalarga","state_code":"CAS","latitude":"4.85430000","longitude":"-73.04003000","population":1419,"timezone":"America/Bogota","type":"adm2","translations":{"es":"Sabanalarga","en":"Sabanalarga"}},{"name":"Sácama","state_code":"CAS","latitude":"6.09908000","longitude":"-72.24880000","population":743,"timezone":"America/Bogota","type":"adm2","translations":{"es":"Sácama","en":"Sácama"}},{"name":"San Luis de Palenque","state_code":"CAS","latitude":"5.42139000","longitude":"-71.73167000","population":2032,"timezone":"America/Bogota","type":"adm2","translations":{"es":"San Luis de Palenque","en":"San Luis de Palenque"}},{"name":"Támara","state_code":"CAS","latitude":"5.82998000","longitude":"-72.16286000","population":2007,"timezone":"America/Bogota","type":"adm2","translations":{"es":"Támara","en":"Támara"}},{"name":"Tauramena","state_code":"CAS","latitude":"5.01789000","longitude":"-72.74675000","population":21709,"timezone":"America/Bogota","type":"adm2","translations":{"es":"Tauramena","en":"Tauramena"}},{"name":"Trinidad","state_code":"CAS","latitude":"5.34778000","longitude":"-71.20194000","population":11478,"timezone":"America/Bogota","type":"city","translations":{"es":"Trinidad","en":"Trinidad"}},{"name":"Villanueva","state_code":"CAS","latitude":"5.28333000","longitude":"-71.96667000","population":31727,"timezone":"America/Bogota","type":"city","translations":{"es":"Villanueva","en":"Villanueva"}},{"name":"Yopal","state_code":"CAS","latitude":"5.33775000","longitude":"-72.39586000","population":179355,"timezone":"America/Bogota","type":"adm1","translations":{"es":"Yopal","en":"Yopal"}},{"name":"Almaguer","state_code":"CAU","latitude":"1.91472000","longitude":"-76.85482000","population":3120,"timezone":"America/Bogota","type":"adm2","translations":{"es":"Almaguer","en":"Almaguer"}},{"name":"Argelia","state_code":"CAU","latitude":"2.31728000","longitude":"-77.25700000","population":4262,"timezone":"America/Bogota","type":"adm2","translations":{"es":"Argelia","en":"Argelia"}},{"name":"Balboa","state_code":"CAU","latitude":"2.08436000","longitude":"-77.20781000","population":18910,"timezone":"America/Bogota","type":"adm2","translations":{"es":"Balboa","en":"Balboa"}},{"name":"Bolívar","state_code":"CAU","latitude":"1.84670000","longitude":"-76.98292000","population":0,"timezone":"America/Bogota","type":"adm2","translations":{"es":"Bolívar","en":"Bolívar"}},{"name":"Buenos Aires","state_code":"CAU","latitude":"3.04825000","longitude":"-76.63066000","population":2144,"timezone":"America/Bogota","type":"city","translations":{"es":"Buenos Aires","en":"Buenos Aires"}},{"name":"Cajibío","state_code":"CAU","latitude":"2.62271000","longitude":"-76.57039000","population":3365,"timezone":"America/Bogota","type":"adm2","translations":{"es":"Cajibío","en":"Cajibío"}},{"name":"Caldono","state_code":"CAU","latitude":"2.79739000","longitude":"-76.48316000","population":3517,"timezone":"America/Bogota","type":"adm2","translations":{"es":"Caldono","en":"Caldono"}},{"name":"Caloto","state_code":"CAU","latitude":"3.03586000","longitude":"-76.40788000","population":6478,"timezone":"America/Bogota","type":"adm2","translations":{"es":"Caloto","en":"Caloto"}},{"name":"Corinto","state_code":"CAU","latitude":"3.13598000","longitude":"-76.20646000","population":33846,"timezone":"America/Bogota","type":"adm2","translations":{"es":"Corinto","en":"Corinto"}},{"name":"El Tambo","state_code":"CAU","latitude":"2.45199000","longitude":"-76.81029000","population":6355,"timezone":"America/Bogota","type":"adm2","translations":{"es":"El Tambo","en":"El Tambo"}},{"name":"Florencia","state_code":"CAU","latitude":"1.68318000","longitude":"-77.07331000","population":1467,"timezone":"America/Bogota","type":"adm2","translations":{"es":"Florencia","en":"Florencia"}},{"name":"Guachené","state_code":"CAU","latitude":"3.13361111","longitude":"-76.39255555","population":0,"timezone":"America/Bogota","type":"adm2","translations":{"es":"Guachené","en":"Guachené"}},{"name":"Guapi","state_code":"CAU","latitude":"2.55210000","longitude":"-77.87865000","population":13853,"timezone":"America/Bogota","type":"adm2","translations":{"es":"Guapi","en":"Guapi"}},{"name":"Inzá","state_code":"CAU","latitude":"2.55452000","longitude":"-76.06722000","population":2972,"timezone":"America/Bogota","type":"adm2","translations":{"es":"Inzá","en":"Inzá"}},{"name":"Jambaló","state_code":"CAU","latitude":"2.85065000","longitude":"-76.32506000","population":1972,"timezone":"America/Bogota","type":"adm2","translations":{"es":"Jambaló","en":"Jambaló"}},{"name":"La Sierra","state_code":"CAU","latitude":"2.19665000","longitude":"-76.78590000","population":9935,"timezone":"America/Bogota","type":"adm2","translations":{"es":"La Sierra","en":"La Sierra"}},{"name":"La Vega","state_code":"CAU","latitude":"2.06201000","longitude":"-76.76808000","population":3469,"timezone":"America/Bogota","type":"adm2","translations":{"es":"La Vega","en":"La Vega"}},{"name":"López de Micay","state_code":"CAU","latitude":"3.00000000","longitude":"-77.25000000","population":15154,"timezone":"America/Bogota","type":"adm2","translations":{"es":"López de Micay","en":"López de Micay"}},{"name":"Mercaderes","state_code":"CAU","latitude":"1.80175000","longitude":"-77.17032000","population":14824,"timezone":"America/Bogota","type":"city","translations":{"es":"Mercaderes","en":"Mercaderes"}},{"name":"Miranda","state_code":"CAU","latitude":"3.23773000","longitude":"-76.22093000","population":43333,"timezone":"America/Bogota","type":"adm2","translations":{"es":"Miranda","en":"Miranda"}},{"name":"Morales","state_code":"CAU","latitude":"2.75446000","longitude":"-76.62791000","population":29737,"timezone":"America/Bogota","type":"adm2","translations":{"es":"Morales","en":"Morales"}},{"name":"Padilla","state_code":"CAU","latitude":"3.22038000","longitude":"-76.31385000","population":4472,"timezone":"America/Bogota","type":"adm2","translations":{"es":"Padilla","en":"Padilla"}},{"name":"Páez","state_code":"CAU","latitude":"2.64644000","longitude":"-75.97269000","population":31800,"timezone":"America/Bogota","type":"adm2","translations":{"es":"Páez","en":"Páez"}},{"name":"Patía","state_code":"CAU","latitude":"2.14018000","longitude":"-77.01744000","population":12072,"timezone":"America/Bogota","type":"adm2","translations":{"es":"Patía","en":"Patía"}},{"name":"Piamonte","state_code":"CAU","latitude":"1.11583333","longitude":"-76.32611111","population":0,"timezone":"America/Bogota","type":"adm2","translations":{"es":"Piamonte","en":"Piamonte"}},{"name":"Piendamo","state_code":"CAU","latitude":"2.63918000","longitude":"-76.53055000","population":44535,"timezone":"America/Bogota","type":"city","translations":{"es":"Piendamo","en":"Piendamo"}},{"name":"Popayán","state_code":"CAU","latitude":"2.43823000","longitude":"-76.61316000","population":300837,"timezone":"America/Bogota","type":"adm1","translations":{"es":"Popayán","en":"Popayán"}},{"name":"Puerto Tejada","state_code":"CAU","latitude":"3.23393000","longitude":"-76.41935000","population":46215,"timezone":"America/Bogota","type":"adm2","translations":{"es":"Puerto Tejada","en":"Puerto Tejada"}},{"name":"Puracé","state_code":"CAU","latitude":"2.33851000","longitude":"-76.38759000","population":14952,"timezone":"America/Bogota","type":"adm2","translations":{"es":"Puracé","en":"Puracé"}},{"name":"Rosas","state_code":"CAU","latitude":"2.26093000","longitude":"-76.73986000","population":9336,"timezone":"America/Bogota","type":"adm2","translations":{"es":"Rosas","en":"Rosas"}},{"name":"San Sebastián","state_code":"CAU","latitude":"1.91667000","longitude":"-76.66667000","population":12820,"timezone":"America/Bogota","type":"adm2","translations":{"es":"San Sebastián","en":"San Sebastián"}},{"name":"Santa Rosa","state_code":"CAU","latitude":"1.70055666","longitude":"-76.57277888","population":0,"timezone":"America/Bogota","type":"adm2","translations":{"es":"Santa Rosa","en":"Santa Rosa"}},{"name":"Santander de Quilichao","state_code":"CAU","latitude":"3.00945000","longitude":"-76.48494000","population":116535,"timezone":"America/Bogota","type":"adm2","translations":{"es":"Santander de Quilichao","en":"Santander de Quilichao"}},{"name":"Silvia","state_code":"CAU","latitude":"2.61557000","longitude":"-76.38261000","population":7474,"timezone":"America/Bogota","type":"adm2","translations":{"es":"Silvia","en":"Silvia"}},{"name":"Sotará","state_code":"CAU","latitude":"2.25000000","longitude":"-76.58333000","population":1390,"timezone":"America/Bogota","type":"adm2","translations":{"es":"Sotará","en":"Sotará"}},{"name":"Suárez","state_code":"CAU","latitude":"2.95395000","longitude":"-76.69644000","population":19690,"timezone":"America/Bogota","type":"adm2","translations":{"es":"Suárez","en":"Suárez"}},{"name":"Sucre","state_code":"CAU","latitude":"2.06182000","longitude":"-76.91438000","population":2552,"timezone":"America/Bogota","type":"adm2","translations":{"es":"Sucre","en":"Sucre"}},{"name":"Timbío","state_code":"CAU","latitude":"2.35277888","longitude":"-76.68194444","population":0,"timezone":"America/Bogota","type":"adm2","translations":{"es":"Timbío","en":"Timbío"}},{"name":"Timbiquí","state_code":"CAU","latitude":"2.77170000","longitude":"-77.66536000","population":21618,"timezone":"America/Bogota","type":"adm2","translations":{"es":"Timbiquí","en":"Timbiquí"}},{"name":"Toribio","state_code":"CAU","latitude":"3.00000000","longitude":"-76.16667000","population":26616,"timezone":"America/Bogota","type":"adm2","translations":{"es":"Toribio","en":"Toribio"}},{"name":"Totoró","state_code":"CAU","latitude":"2.50518000","longitude":"-76.39254000","population":1888,"timezone":"America/Bogota","type":"adm2","translations":{"es":"Totoró","en":"Totoró"}},{"name":"Villa Rica","state_code":"CAU","latitude":"2.51420000","longitude":"-76.84939000","population":18761,"timezone":"America/Bogota","type":"city","translations":{"es":"Villa Rica","en":"Villa Rica"}},{"name":"Aguachica","state_code":"CES","latitude":"8.30844000","longitude":"-73.61660000","population":109621,"timezone":"America/Bogota","type":"adm2","translations":{"es":"Aguachica","en":"Aguachica"}},{"name":"Agustín Codazzi","state_code":"CES","latitude":"10.03672000","longitude":"-73.23558000","population":50828,"timezone":"America/Bogota","type":"adm2","translations":{"es":"Agustín Codazzi","en":"Agustín Codazzi"}},{"name":"Astrea","state_code":"CES","latitude":"9.49828000","longitude":"-73.97591000","population":18434,"timezone":"America/Bogota","type":"adm2","translations":{"es":"Astrea","en":"Astrea"}},{"name":"Becerril","state_code":"CES","latitude":"9.70413000","longitude":"-73.27930000","population":20477,"timezone":"America/Bogota","type":"adm2","translations":{"es":"Becerril","en":"Becerril"}},{"name":"Bosconia","state_code":"CES","latitude":"9.97611111","longitude":"-73.89033333","population":40315,"timezone":"America/Bogota","type":"adm2","translations":{"es":"Bosconia","en":"Bosconia"}},{"name":"Chimichagua","state_code":"CES","latitude":"9.25778000","longitude":"-73.81228000","population":30289,"timezone":"America/Bogota","type":"adm2","translations":{"es":"Chimichagua","en":"Chimichagua"}},{"name":"Chiriguaná","state_code":"CES","latitude":"9.36238000","longitude":"-73.60313000","population":27006,"timezone":"America/Bogota","type":"adm2","translations":{"es":"Chiriguaná","en":"Chiriguaná"}},{"name":"Curumaní","state_code":"CES","latitude":"9.19992000","longitude":"-73.54274000","population":34838,"timezone":"America/Bogota","type":"adm2","translations":{"es":"Curumaní","en":"Curumaní"}},{"name":"El Copey","state_code":"CES","latitude":"10.15031000","longitude":"-73.96140000","population":24971,"timezone":"America/Bogota","type":"adm2","translations":{"es":"El Copey","en":"El Copey"}},{"name":"El Paso","state_code":"CES","latitude":"9.65724000","longitude":"-73.74685000","population":6367,"timezone":"America/Bogota","type":"adm2","translations":{"es":"El Paso","en":"El Paso"}},{"name":"Gamarra","state_code":"CES","latitude":"8.32969000","longitude":"-73.71773000","population":12444,"timezone":"America/Bogota","type":"adm2","translations":{"es":"Gamarra","en":"Gamarra"}},{"name":"González","state_code":"CES","latitude":"8.36735000","longitude":"-73.40032000","population":9252,"timezone":"America/Bogota","type":"adm2","translations":{"es":"González","en":"González"}},{"name":"La Gloria","state_code":"CES","latitude":"8.61160000","longitude":"-73.63045000","population":14989,"timezone":"America/Bogota","type":"adm2","translations":{"es":"La Gloria","en":"La Gloria"}},{"name":"La Jagua de Ibirico","state_code":"CES","latitude":"9.56228000","longitude":"-73.33405000","population":22082,"timezone":"America/Bogota","type":"adm2","translations":{"es":"La Jagua de Ibirico","en":"La Jagua de Ibirico"}},{"name":"La Paz","state_code":"CES","latitude":"10.10487000","longitude":"-73.22056000","population":13249,"timezone":"America/Bogota","type":"adm2","translations":{"es":"La Paz","en":"La Paz"}},{"name":"Manaure Balcón del Cesar","state_code":"CES","latitude":"10.39278000","longitude":"-73.03250000","population":9313,"timezone":"America/Bogota","type":"adm2","translations":{"es":"Manaure Balcón del Cesar","en":"Manaure Balcón del Cesar"}},{"name":"Pailitas","state_code":"CES","latitude":"8.95652000","longitude":"-73.62548000","population":16800,"timezone":"America/Bogota","type":"adm2","translations":{"es":"Pailitas","en":"Pailitas"}},{"name":"Pelaya","state_code":"CES","latitude":"8.68819000","longitude":"-73.66451000","population":11306,"timezone":"America/Bogota","type":"adm2","translations":{"es":"Pelaya","en":"Pelaya"}},{"name":"Pueblo Bello","state_code":"CES","latitude":"10.41638999","longitude":"-73.58666777","population":0,"timezone":"America/Bogota","type":"adm2","translations":{"es":"Pueblo Bello","en":"Pueblo Bello"}},{"name":"Río de Oro","state_code":"CES","latitude":"8.17879000","longitude":"-73.51218000","population":14041,"timezone":"America/Bogota","type":"adm2","translations":{"es":"Río de Oro","en":"Río de Oro"}},{"name":"San Alberto","state_code":"CES","latitude":"7.76107000","longitude":"-73.39220000","population":10627,"timezone":"America/Bogota","type":"adm2","translations":{"es":"San Alberto","en":"San Alberto"}},{"name":"San Diego","state_code":"CES","latitude":"10.33623000","longitude":"-73.18203000","population":18531,"timezone":"America/Bogota","type":"adm2","translations":{"es":"San Diego","en":"San Diego"}},{"name":"San Martín","state_code":"CES","latitude":"8.00151000","longitude":"-73.51126000","population":21350,"timezone":"America/Bogota","type":"adm2","translations":{"es":"San Martín","en":"San Martín"}},{"name":"Tamalameque","state_code":"CES","latitude":"8.86422000","longitude":"-73.78106000","population":14046,"timezone":"America/Bogota","type":"adm2","translations":{"es":"Tamalameque","en":"Tamalameque"}},{"name":"Valledupar","state_code":"CES","latitude":"10.46314000","longitude":"-73.25322000","population":544134,"timezone":"America/Bogota","type":"adm1","translations":{"es":"Valledupar","en":"Valledupar"}},{"name":"Acandí","state_code":"CHO","latitude":"8.51158000","longitude":"-77.27719000","population":4840,"timezone":"America/Bogota","type":"adm2","translations":{"es":"Acandí","en":"Acandí"}},{"name":"Alto Baudó","state_code":"CHO","latitude":"5.51604000","longitude":"-76.97449000","population":3242,"timezone":"America/Bogota","type":"adm2","translations":{"es":"Alto Baudó","en":"Alto Baudó"}},{"name":"Atrato","state_code":"CHO","latitude":"5.57362000","longitude":"-76.64063000","population":0,"timezone":"America/Bogota","type":"adm2","translations":{"es":"Atrato","en":"Atrato"}},{"name":"Bagadó","state_code":"CHO","latitude":"5.41164000","longitude":"-76.41520000","population":4561,"timezone":"America/Bogota","type":"adm2","translations":{"es":"Bagadó","en":"Bagadó"}},{"name":"Bahía Solano","state_code":"CHO","latitude":"6.22520000","longitude":"-77.39147000","population":9400,"timezone":"America/Bogota","type":"city","translations":{"es":"Bahía Solano","en":"Bahía Solano"}},{"name":"Bajo Baudó","state_code":"CHO","latitude":"4.95334000","longitude":"-77.36598000","population":18561,"timezone":"America/Bogota","type":"adm2","translations":{"es":"Bajo Baudó","en":"Bajo Baudó"}},{"name":"Bojayá","state_code":"CHO","latitude":"6.55645000","longitude":"-76.88389000","population":5624,"timezone":"America/Bogota","type":"adm2","translations":{"es":"Bojayá","en":"Bojayá"}},{"name":"Carmen del Darien","state_code":"CHO","latitude":"7.15777888","longitude":"-76.97083333","population":0,"timezone":"America/Bogota","type":"adm2","translations":{"es":"Carmen del Darién","en":"Carmen del Darien"}},{"name":"Cértegui","state_code":"CHO","latitude":"5.37073000","longitude":"-76.60440000","population":2854,"timezone":"America/Bogota","type":"adm2","translations":{"es":"Cértegui","en":"Cértegui"}},{"name":"Condoto","state_code":"CHO","latitude":"5.09351000","longitude":"-76.64973000","population":9897,"timezone":"America/Bogota","type":"adm2","translations":{"es":"Condominio","en":"Condoto"}},{"name":"El Cantón de San Pablo","state_code":"CHO","latitude":"5.33889000","longitude":"-76.73139000","population":3271,"timezone":"America/Bogota","type":"city","translations":{"es":"El Cantón de San Pablo","en":"El Cantón de San Pablo"}},{"name":"El Carmen de Atrato","state_code":"CHO","latitude":"5.83333000","longitude":"-76.25000000","population":14049,"timezone":"America/Bogota","type":"adm2","translations":{"es":"El Carmen de Atrato","en":"El Carmen de Atrato"}},{"name":"Istmina","state_code":"CHO","latitude":"5.16054000","longitude":"-76.68397000","population":13788,"timezone":"America/Bogota","type":"adm2","translations":{"es":"Istmina","en":"Istmina"}},{"name":"Juradó","state_code":"CHO","latitude":"7.10421000","longitude":"-77.76200000","population":2351,"timezone":"America/Bogota","type":"city","translations":{"es":"Juradó","en":"Juradó"}},{"name":"Litoral del San Juan","state_code":"CHO","latitude":"4.25875000","longitude":"-77.36516000","population":1448,"timezone":"America/Bogota","type":"adm2","translations":{"es":"Litoral del San Juan","en":"Litoral del San Juan"}},{"name":"Lloró","state_code":"CHO","latitude":"5.49605000","longitude":"-76.54945000","population":2651,"timezone":"America/Bogota","type":"adm2","translations":{"es":"Lloró","en":"Lloró"}},{"name":"Medio Atrato","state_code":"CHO","latitude":"5.99500000","longitude":"-76.78250000","population":0,"timezone":"America/Bogota","type":"adm2","translations":{"es":"Medio Atrato","en":"Medio Atrato"}},{"name":"Medio Baudó","state_code":"CHO","latitude":"5.05000000","longitude":"-77.05000000","population":13423,"timezone":"America/Bogota","type":"adm2","translations":{"es":"Medio Baudó","en":"Medio Baudó"}},{"name":"Medio San Juan","state_code":"CHO","latitude":"5.09278000","longitude":"-76.69528000","population":13788,"timezone":"America/Bogota","type":"adm2","translations":{"es":"Medio San Juan","en":"Medio San Juan"}},{"name":"Nóvita","state_code":"CHO","latitude":"4.95511000","longitude":"-76.60526000","population":1898,"timezone":"America/Bogota","type":"adm2","translations":{"es":"Nóvita","en":"Nóvita"}},{"name":"Nuquí","state_code":"CHO","latitude":"5.71250000","longitude":"-77.27083000","population":2741,"timezone":"America/Bogota","type":"adm2","translations":{"es":"Nuquí","en":"Nuquí"}},{"name":"Quibdó","state_code":"CHO","latitude":"5.76075000","longitude":"-76.83701000","population":130825,"timezone":"America/Bogota","type":"adm2","translations":{"es":"Quibdó","en":"Quibdó"}},{"name":"Río Iro","state_code":"CHO","latitude":"5.18333000","longitude":"-76.48330000","population":4525,"timezone":"America/Bogota","type":"adm2","translations":{"es":"Río Iro","en":"Río Iro"}},{"name":"Río Quito","state_code":"CHO","latitude":"5.51667000","longitude":"-76.75000000","population":0,"timezone":"America/Bogota","type":"adm2","translations":{"es":"Río Quito","en":"Río Quito"}},{"name":"Riosucio","state_code":"CHO","latitude":"7.41667000","longitude":"-77.16667000","population":14323,"timezone":"America/Bogota","type":"adm2","translations":{"es":"Riosucio","en":"Riosucio"}},{"name":"San José del Palmar","state_code":"CHO","latitude":"4.89616000","longitude":"-76.23422000","population":2392,"timezone":"America/Bogota","type":"adm2","translations":{"es":"San José del Palmar","en":"San José del Palmar"}},{"name":"Sipí","state_code":"CHO","latitude":"4.65374000","longitude":"-76.64442000","population":408,"timezone":"America/Bogota","type":"adm2","translations":{"es":"Sipí","en":"Sipí"}},{"name":"Tadó","state_code":"CHO","latitude":"5.26598000","longitude":"-76.56487000","population":18906,"timezone":"America/Bogota","type":"adm2","translations":{"es":"Tadó","en":"Tadó"}},{"name":"Unguía","state_code":"CHO","latitude":"8.04364000","longitude":"-77.09137000","population":14544,"timezone":"America/Bogota","type":"adm2","translations":{"es":"Unguía","en":"Unguía"}},