[{"name":"Alquízar","state_code":"15","latitude":"22.80517000","longitude":"-82.58392000","population":15275,"timezone":"America/Havana","type":"adm2","translations":{"es":"Alquízar","en":"Alquízar"}},{"name":"Artemisa","state_code":"15","latitude":"22.81667000","longitude":"-82.75944000","population":59130,"timezone":"America/Havana","type":"adm1","translations":{"es":"Artemisa","en":"Artemisa"}},{"name":"Bahía Honda","state_code":"15","latitude":"22.90332000","longitude":"-83.15994000","population":19834,"timezone":"America/Havana","type":"adm2","translations":{"es":"Bahía Honda","en":"Bahía Honda"}},{"name":"Bauta","state_code":"15","latitude":"22.98226000","longitude":"-82.54719000","population":45768,"timezone":"America/Havana","type":"adm2","translations":{"es":"Bauta","en":"Bauta"}},{"name":"Cabañas","state_code":"15","latitude":"22.97944000","longitude":"-82.92214000","population":5894,"timezone":"America/Havana","type":"city","translations":{"es":"Cabañas","en":"Cabañas"}},{"name":"Candelaria","state_code":"15","latitude":"22.74057000","longitude":"-82.95912000","population":12675,"timezone":"America/Havana","type":"adm2","translations":{"es":"Candelaria","en":"Candelaria"}},{"name":"Guanajay","state_code":"15","latitude":"22.92639000","longitude":"-82.68750000","population":22839,"timezone":"America/Havana","type":"adm2","translations":{"es":"Guanajay","en":"Guanajay"}},{"name":"Güira de Melena","state_code":"15","latitude":"22.79613000","longitude":"-82.50667000","population":69879,"timezone":"America/Havana","type":"adm2","translations":{"es":"Güira de Melena","en":"Güira de Melena"}},{"name":"Mariel","state_code":"15","latitude":"22.98931000","longitude":"-82.75376000","population":28987,"timezone":"America/Havana","type":"adm2","translations":{"es":"Mariel","en":"Mariel"}},{"name":"Municipio de Artemisa","state_code":"15","latitude":"22.77383000","longitude":"-82.80419000","population":null,"timezone":"America/Havana","type":"city","translations":{"es":"Municipio de Artemisa","en":"Municipio de Artemisa"}},{"name":"Municipio de Bauta","state_code":"15","latitude":"22.96957000","longitude":"-82.49997000","population":null,"timezone":"America/Havana","type":"adm2","translations":{"es":"Municipio de Bauta","en":"Municipio de Bauta"}},{"name":"Municipio de Guanajay","state_code":"15","latitude":"22.89215000","longitude":"-82.70873000","population":null,"timezone":"America/Havana","type":"adm2","translations":{"es":"Municipio de Guanajay","en":"Municipio de Guanajay"}},{"name":"Municipio de Mariel","state_code":"15","latitude":"22.96515000","longitude":"-82.80324000","population":null,"timezone":"America/Havana","type":"city","translations":{"es":"Municipio de Mariel","en":"Municipio de Mariel"}},{"name":"Municipio de San Cristóbal","state_code":"15","latitude":"22.71446000","longitude":"-83.04561000","population":null,"timezone":"America/Havana","type":"city","translations":{"es":"Municipio de San Cristóbal","en":"Municipio de San Cristóbal"}},{"name":"San Antonio de los Baños","state_code":"15","latitude":"22.89018000","longitude":"-82.50099000","population":42724,"timezone":"America/Havana","type":"adm2","translations":{"es":"San Antonio de los Baños","en":"San Antonio de los Baños"}},{"name":"San Cristobal","state_code":"15","latitude":"22.71658000","longitude":"-83.05647000","population":59579,"timezone":"America/Havana","type":"city","translations":{"es":"San Cristóbal","en":"San Cristobal"}},{"name":"Soroa","state_code":"15","latitude":"22.80000000","longitude":"-83.01667000","population":7205,"timezone":"America/Havana","type":"city","translations":{"es":"Soroa","en":"Soroa"}},{"name":"Camagüey","state_code":"09","latitude":"21.38083000","longitude":"-77.91694000","population":321992,"timezone":"America/Havana","type":"adm1","translations":{"es":"Camagüey","en":"Camagüey"}},{"name":"El Caney","state_code":"09","latitude":"21.30000000","longitude":"-78.48333000","population":4597,"timezone":"America/Havana","type":"locality","translations":{"es":"El Caney","en":"El Caney"}},{"name":"Esmeralda","state_code":"09","latitude":"21.85139000","longitude":"-78.11725000","population":20274,"timezone":"America/Havana","type":"adm2","translations":{"es":"Esmeralda","en":"Esmeralda"}},{"name":"Florida","state_code":"09","latitude":"21.52536000","longitude":"-78.22579000","population":71676,"timezone":"America/Havana","type":"adm2","translations":{"es":"Florida","en":"Florida"}},{"name":"Guáimaro","state_code":"09","latitude":"21.05222000","longitude":"-77.34990000","population":39358,"timezone":"America/Havana","type":"adm2","translations":{"es":"Guáimaro","en":"Guáimaro"}},{"name":"Jimaguayú","state_code":"09","latitude":"21.24224000","longitude":"-77.82625000","population":21169,"timezone":"America/Havana","type":"adm2","translations":{"es":"Jimaguayú","en":"Jimaguayú"}},{"name":"Minas","state_code":"09","latitude":"21.48802000","longitude":"-77.61033000","population":20863,"timezone":"America/Havana","type":"adm2","translations":{"es":"Minas","en":"Minas"}},{"name":"Municipio de Florida","state_code":"09","latitude":"21.46582000","longitude":"-78.34848000","population":null,"timezone":"America/Havana","type":"city","translations":{"es":"Municipio de Florida","en":"Municipio de Florida"}},{"name":"Municipio de Nuevitas","state_code":"09","latitude":"21.55000000","longitude":"-77.26667000","population":54022,"timezone":"America/Havana","type":"city","translations":{"es":"Municipio de Nuevitas","en":"Municipio de Nuevitas"}},{"name":"Nuevitas","state_code":"09","latitude":"21.54585000","longitude":"-77.26504000","population":54022,"timezone":"America/Havana","type":"city","translations":{"es":"Nuevitas","en":"Nuevitas"}},{"name":"Santa Cruz del Sur","state_code":"09","latitude":"20.71633000","longitude":"-77.99816000","population":34601,"timezone":"America/Havana","type":"adm2","translations":{"es":"Santa Cruz del Sur","en":"Santa Cruz del Sur"}},{"name":"Sibanicú","state_code":"09","latitude":"21.23631000","longitude":"-77.52561000","population":16856,"timezone":"America/Havana","type":"adm2","translations":{"es":"Sibanicú","en":"Sibanicú"}},{"name":"Vertientes","state_code":"09","latitude":"21.25817000","longitude":"-78.14979000","population":29704,"timezone":"America/Havana","type":"adm2","translations":{"es":"Vertientes","en":"Vertientes"}},{"name":"Baraguá","state_code":"08","latitude":"21.68216000","longitude":"-78.62567000","population":15268,"timezone":"America/Havana","type":"adm2","translations":{"es":"Baraguá","en":"Baraguá"}},{"name":"Chambas","state_code":"08","latitude":"22.19534000","longitude":"-78.91230000","population":24114,"timezone":"America/Havana","type":"adm2","translations":{"es":"Chambas","en":"Chambas"}},{"name":"Ciego de Ávila","state_code":"08","latitude":"21.84000000","longitude":"-78.76194000","population":143449,"timezone":"America/Havana","type":"adm1","translations":{"es":"Ciego de Ávila","en":"Ciego de Ávila"}},{"name":"Ciro Redondo","state_code":"08","latitude":"22.01921000","longitude":"-78.70365000","population":29560,"timezone":"America/Havana","type":"adm2","translations":{"es":"Ciro Redondo","en":"Ciro Redondo"}},{"name":"Florencia","state_code":"08","latitude":"22.14610000","longitude":"-78.97328000","population":19811,"timezone":"America/Havana","type":"adm2","translations":{"es":"Florencia","en":"Florencia"}},{"name":"Morón","state_code":"08","latitude":"22.10774000","longitude":"-78.62667000","population":59371,"timezone":"America/Havana","type":"adm2","translations":{"es":"Imbécil","en":"Morón"}},{"name":"Municipio de Ciego de Ávila","state_code":"08","latitude":"21.85000000","longitude":"-78.76667000","population":null,"timezone":"America/Havana","type":"adm1","translations":{"es":"Municipio de Ciego de Ávila","en":"Municipio de Ciego de Ávila"}},{"name":"Municipio de Morón","state_code":"08","latitude":"22.29980000","longitude":"-78.56875000","population":null,"timezone":"America/Havana","type":"city","translations":{"es":"Municipio de Morón","en":"Municipio de Morón"}},{"name":"Primero de Enero","state_code":"08","latitude":"21.94501000","longitude":"-78.43130000","population":17934,"timezone":"America/Havana","type":"adm2","translations":{"es":"Primero de enero","en":"Primero de Enero"}},{"name":"Venezuela","state_code":"08","latitude":"21.73748000","longitude":"-78.79336000","population":16601,"timezone":"America/Havana","type":"adm2","translations":{"es":"Venezuela","en":"Venezuela"}},{"name":"Abreus","state_code":"06","latitude":"22.27797000","longitude":"-80.56931000","population":16711,"timezone":"America/Havana","type":"city","translations":{"es":"Abreus","en":"Abreus"}},{"name":"Aguada de Pasajeros","state_code":"06","latitude":"22.38520000","longitude":"-80.84792000","population":23606,"timezone":"America/Havana","type":"city","translations":{"es":"Aguada de Pasajeros","en":"Aguada de Pasajeros"}},{"name":"Cienfuegos","state_code":"06","latitude":"22.14957000","longitude":"-80.44662000","population":164924,"timezone":"America/Havana","type":"adm1","translations":{"es":"Cienfuegos","en":"Cienfuegos"}},{"name":"Cruces","state_code":"06","latitude":"22.34203000","longitude":"-80.27021000","population":24906,"timezone":"America/Havana","type":"adm2","translations":{"es":"Cruces","en":"Cruces"}},{"name":"Cumanayagua","state_code":"06","latitude":"22.15247000","longitude":"-80.20354000","population":38687,"timezone":"America/Havana","type":"adm2","translations":{"es":"Cumanayagua","en":"Cumanayagua"}},{"name":"Lajas","state_code":"06","latitude":"22.41479000","longitude":"-80.29310000","population":22602,"timezone":"America/Havana","type":"adm2","translations":{"es":"Lajas","en":"Lajas"}},{"name":"Municipio de Abreus","state_code":"06","latitude":"22.19229000","longitude":"-80.71465000","population":null,"timezone":"America/Havana","type":"city","translations":{"es":"Municipio de Abreus","en":"Municipio de Abreus"}},{"name":"Municipio de Cienfuegos","state_code":"06","latitude":"22.15000000","longitude":"-80.45000000","population":186644,"timezone":"America/Havana","type":"adm1","translations":{"es":"Municipio de Cienfuegos","en":"Municipio de Cienfuegos"}},{"name":"Palmira","state_code":"06","latitude":"22.24126000","longitude":"-80.39110000","population":23078,"timezone":"America/Havana","type":"adm2","translations":{"es":"Palmira","en":"Palmira"}},{"name":"Rodas","state_code":"06","latitude":"22.34184000","longitude":"-80.55596000","population":19212,"timezone":"America/Havana","type":"adm2","translations":{"es":"Rodas","en":"Rodas"}},{"name":"Bartolomé Masó","state_code":"12","latitude":"20.16635000","longitude":"-76.94291000","population":53024,"timezone":"America/Havana","type":"adm2","translations":{"es":"Bartolomé Masó","en":"Bartolomé Masó"}},{"name":"Bayamo","state_code":"12","latitude":"20.37417000","longitude":"-76.64361000","population":235107,"timezone":"America/Havana","type":"adm1","translations":{"es":"Bayamo","en":"Bayamo"}},{"name":"Campechuela","state_code":"12","latitude":"20.23329000","longitude":"-77.27990000","population":25069,"timezone":"America/Havana","type":"adm2","translations":{"es":"Campechuela","en":"Campechuela"}},{"name":"Cauto Cristo","state_code":"12","latitude":"20.55709000","longitude":"-76.47270000","population":21159,"timezone":"America/Havana","type":"city","translations":{"es":"Cauto Cristo","en":"Cauto Cristo"}},{"name":"Guisa","state_code":"12","latitude":"20.25494000","longitude":"-76.53930000","population":18408,"timezone":"America/Havana","type":"adm2","translations":{"es":"Guisa","en":"Guisa"}},{"name":"Jiguaní","state_code":"12","latitude":"20.36785000","longitude":"-76.42741000","population":41106,"timezone":"America/Havana","type":"adm2","translations":{"es":"Jiguaní","en":"Jiguaní"}},{"name":"Manzanillo","state_code":"12","latitude":"20.34173000","longitude":"-77.12126000","population":150999,"timezone":"America/Havana","type":"adm2","translations":{"es":"Manzanillo","en":"Manzanillo"}},{"name":"Media Luna","state_code":"12","latitude":"20.14298000","longitude":"-77.43532000","population":16713,"timezone":"America/Havana","type":"adm2","translations":{"es":"Media Luna","en":"Media Luna"}},{"name":"Municipio de Bayamo","state_code":"12","latitude":"20.42511000","longitude":"-76.68614000","population":null,"timezone":"America/Havana","type":"adm1","translations":{"es":"Municipio de Bayamo","en":"Municipio de Bayamo"}},{"name":"Municipio de Manzanillo","state_code":"12","latitude":"20.24732000","longitude":"-77.10273000","population":null,"timezone":"America/Havana","type":"adm2","translations":{"es":"Municipio de Manzanillo","en":"Municipio de Manzanillo"}},{"name":"Municipio de Niquero","state_code":"12","latitude":"19.93912000","longitude":"-77.57085000","population":null,"timezone":"America/Havana","type":"adm2","translations":{"es":"Municipio de Niquero","en":"Municipio de Niquero"}},{"name":"Niquero","state_code":"12","latitude":"20.04698000","longitude":"-77.58089000","population":18771,"timezone":"America/Havana","type":"adm2","translations":{"es":"Niquero","en":"Niquero"}},{"name":"Río Cauto","state_code":"12","latitude":"20.55971000","longitude":"-76.91673000","population":23737,"timezone":"America/Havana","type":"adm2","translations":{"es":"Río Cauto","en":"Río Cauto"}},{"name":"Yara","state_code":"12","latitude":"20.27465000","longitude":"-76.95132000","population":28944,"timezone":"America/Havana","type":"adm2","translations":{"es":"Yara","en":"Yara"}},{"name":"Baracoa","state_code":"14","latitude":"20.34711000","longitude":"-74.49624000","population":48362,"timezone":"America/Havana","type":"adm2","translations":{"es":"Baracoa","en":"Baracoa"}},{"name":"Guantánamo","state_code":"14","latitude":"20.14444000","longitude":"-75.20917000","population":228436,"timezone":"America/Havana","type":"adm1","translations":{"es":"Guantánamo","en":"Guantánamo"}},{"name":"Maisí","state_code":"14","latitude":"20.24673000","longitude":"-74.15181000","population":28276,"timezone":"America/Havana","type":"city","translations":{"es":"Más","en":"Maisí"}},{"name":"Municipio de Guantánamo","state_code":"14","latitude":"20.26723000","longitude":"-75.15546000","population":null,"timezone":"America/Havana","type":"city","translations":{"es":"Municipio de Guantánamo","en":"Municipio de Guantánamo"}},{"name":"Río Guayabal de Yateras","state_code":"14","latitude":"20.36667000","longitude":"-75.01667000","population":25753,"timezone":"America/Havana","type":"locality","translations":{"es":"Río Guayabal de Yateras","en":"Río Guayabal de Yateras"}},{"name":"San Antonio del Sur","state_code":"14","latitude":"20.05564000","longitude":"-74.80750000","population":0,"timezone":"America/Havana","type":"adm2","translations":{"es":"San Antonio del Sur","en":"San Antonio del Sur"}},{"name":"Alamar","state_code":"03","latitude":"23.15794000","longitude":"-82.27837000","population":100000,"timezone":"America/Havana","type":"section","translations":{"es":"Alamar","en":"Alamar"}},{"name":"Arroyo Naranjo","state_code":"03","latitude":"23.03677000","longitude":"-82.36937000","population":23118,"timezone":"America/Havana","type":"section","translations":{"es":"Arroyo Naranjo","en":"Arroyo Naranjo"}},{"name":"Boyeros","state_code":"03","latitude":"23.00720000","longitude":"-82.40170000","population":188593,"timezone":"America/Havana","type":"section","translations":{"es":"Boyeros","en":"Boyeros"}},{"name":"Centro Habana","state_code":"03","latitude":"23.13833000","longitude":"-82.36417000","population":132451,"timezone":"America/Havana","type":"section","translations":{"es":"Centro Habana","en":"Centro Habana"}},{"name":"Cerro","state_code":"03","latitude":"23.10861000","longitude":"-82.37778000","population":27209,"timezone":"America/Havana","type":"section","translations":{"es":"Cerro","en":"Cerro"}},{"name":"Diez de Octubre","state_code":"03","latitude":"23.08810000","longitude":"-82.35970000","population":227293,"timezone":"America/Havana","type":"section","translations":{"es":"Diez de Octubre","en":"Diez de Octubre"}},{"name":"Guanabacoa","state_code":"03","latitude":"23.12360000","longitude":"-82.30082000","population":112964,"timezone":"America/Havana","type":"city","translations":{"es":"Guanabacoa","en":"Guanabacoa"}},{"name":"Habana del Este","state_code":"03","latitude":"23.15917000","longitude":"-82.33056000","population":178041,"timezone":"America/Havana","type":"section","translations":{"es":"Habana del Este","en":"Habana del Este"}},{"name":"Havana","state_code":"03","latitude":"23.13302000","longitude":"-82.38304000","population":2492618,"timezone":"America/Havana","type":"capital","translations":{"es":"la Habana","en":"Havana"}},{"name":"La Habana Vieja","state_code":"03","latitude":"23.13028000","longitude":"-82.35306000","population":95383,"timezone":"America/Havana","type":"section","translations":{"es":"La Habana Vieja","en":"La Habana Vieja"}},{"name":"Regla","state_code":"03","latitude":"23.12500000","longitude":"-82.33194000","population":44431,"timezone":"America/Havana","type":"city","translations":{"es":"Regla","en":"Regla"}},{"name":"San Miguel del Padrón","state_code":"03","latitude":"23.06639000","longitude":"-82.29472000","population":0,"timezone":"America/Havana","type":"city","translations":{"es":"San Miguel del Padrón","en":"San Miguel del Padrón"}},{"name":"Santiago de las Vegas","state_code":"03","latitude":"22.97000000","longitude":"-82.38694000","population":35241,"timezone":"America/Havana","type":"city","translations":{"es":"Santiago de las Vegas","en":"Santiago de las Vegas"}},{"name":"Banes","state_code":"11","latitude":"20.96116000","longitude":"-75.72200000","population":53104,"timezone":"America/Havana","type":"adm2","translations":{"es":"Banes","en":"Banes"}},{"name":"Cacocum","state_code":"11","latitude":"20.73775000","longitude":"-76.32574000","population":42623,"timezone":"America/Havana","type":"adm2","translations":{"es":"Cacocum","en":"Cacocum"}},{"name":"Cueto","state_code":"11","latitude":"20.64855000","longitude":"-75.92967000","population":26527,"timezone":"America/Havana","type":"city","translations":{"es":"Cueto","en":"Cueto"}},{"name":"Gibara","state_code":"11","latitude":"21.10988000","longitude":"-76.13145000","population":27603,"timezone":"America/Havana","type":"adm2","translations":{"es":"Gibara","en":"Gibara"}},{"name":"Holguín","state_code":"11","latitude":"20.88722000","longitude":"-76.26306000","population":319102,"timezone":"America/Havana","type":"adm1","translations":{"es":"Holguín","en":"Holguín"}},{"name":"Jobabo","state_code":"11","latitude":"20.96917000","longitude":"-76.29944000","population":17804,"timezone":"America/Havana","type":"locality","translations":{"es":"Jobabo","en":"Jobabo"}},{"name":"Moa","state_code":"11","latitude":"20.65776000","longitude":"-74.95075000","population":92852,"timezone":"America/Havana","type":"adm2","translations":{"es":"Moa","en":"Moa"}},{"name":"Municipio de Banes","state_code":"11","latitude":"20.98008000","longitude":"-75.74933000","population":null,"timezone":"America/Havana","type":"adm2","translations":{"es":"Municipio de Banes","en":"Municipio de Banes"}},{"name":"Municipio de Holguín","state_code":"11","latitude":"20.91192000","longitude":"-76.27057000","population":null,"timezone":"America/Havana","type":"adm1","translations":{"es":"Municipio de Holguín","en":"Municipio de Holguín"}},{"name":"Sagua de Tánamo","state_code":"11","latitude":"20.58269000","longitude":"-75.24116000","population":18282,"timezone":"America/Havana","type":"adm2","translations":{"es":"Sagua de Tánamo","en":"Sagua de Tánamo"}},{"name":"San Germán","state_code":"11","latitude":"20.60009000","longitude":"-76.13364000","population":43892,"timezone":"America/Havana","type":"adm2","translations":{"es":"San Germán","en":"San Germán"}},{"name":"Nueva Gerona","state_code":"99","latitude":"21.88667000","longitude":"-82.80556000","population":20264,"timezone":"America/Havana","type":"adm1","translations":{"es":"Nueva Gerona","en":"Nueva Gerona"}},{"name":"Amancio","state_code":"10","latitude":"20.81914000","longitude":"-77.57958000","population":41523,"timezone":"America/Havana","type":"adm2","translations":{"es":"Amancio","en":"Amancio"}},{"name":"Colombia","state_code":"10","latitude":"20.98812000","longitude":"-77.42598000","population":20096,"timezone":"America/Havana","type":"adm2","translations":{"es":"Colombia","en":"Colombia"}},{"name":"Jesús Menéndez","state_code":"10","latitude":"21.16139000","longitude":"-76.47919000","population":51002,"timezone":"America/Havana","type":"adm2","translations":{"es":"Jesús Menéndez","en":"Jesús Menéndez"}},{"name":"Jobabo","state_code":"10","latitude":"20.90748000","longitude":"-77.28194000","population":49403,"timezone":"America/Havana","type":"adm2","translations":{"es":"Jobabo","en":"Jobabo"}},{"name":"Las Tunas","state_code":"10","latitude":"20.96167000","longitude":"-76.95111000","population":202105,"timezone":"America/Havana","type":"adm1","translations":{"es":"Las Tunas","en":"Las Tunas"}},{"name":"Manatí","state_code":"10","latitude":"21.31070000","longitude":"-76.93403000","population":13278,"timezone":"America/Havana","type":"adm2","translations":{"es":"Manatí","en":"Manatí"}},{"name":"Puerto Padre","state_code":"10","latitude":"21.19517000","longitude":"-76.60358000","population":76838,"timezone":"America/Havana","type":"adm2","translations":{"es":"Puerto Padre","en":"Puerto Padre"}},{"name":"Alacranes","state_code":"04","latitude":"22.76719000","longitude":"-81.56803000","population":5843,"timezone":"America/Havana","type":"city","translations":{"es":"Alacranes","en":"Alacranes"}},{"name":"Bolondrón","state_code":"04","latitude":"22.76307000","longitude":"-81.44780000","population":6778,"timezone":"America/Havana","type":"city","translations":{"es":"Bolondrón","en":"Bolondrón"}},{"name":"Calimete","state_code":"04","latitude":"22.53420000","longitude":"-80.91105000","population":23255,"timezone":"America/Havana","type":"adm2","translations":{"es":"Calimete","en":"Calimete"}},{"name":"Cárdenas","state_code":"04","latitude":"23.03661000","longitude":"-81.20596000","population":86700,"timezone":"America/Havana","type":"adm2","translations":{"es":"Cárdenas","en":"Cárdenas"}},{"name":"Colón","state_code":"04","latitude":"22.72064000","longitude":"-80.90492000","population":63882,"timezone":"America/Havana","type":"adm2","translations":{"es":"Colon","en":"Colón"}},{"name":"Jagüey Grande","state_code":"04","latitude":"22.52694000","longitude":"-81.12861000","population":54363,"timezone":"America/Havana","type":"adm2","translations":{"es":"Jagüey Grande","en":"Jagüey Grande"}},{"name":"Jovellanos","state_code":"04","latitude":"22.80375000","longitude":"-81.19127000","population":47164,"timezone":"America/Havana","type":"adm2","translations":{"es":"Jovellanos","en":"Jovellanos"}},{"name":"Limonar","state_code":"04","latitude":"22.95035000","longitude":"-81.41059000","population":25421,"timezone":"America/Havana","type":"adm2","translations":{"es":"Limonar","en":"Limonar"}},{"name":"Los Arabos","state_code":"04","latitude":"22.72969000","longitude":"-80.72081000","population":12504,"timezone":"America/Havana","type":"adm2","translations":{"es":"Los Arabos","en":"Los Arabos"}},{"name":"Manguito","state_code":"04","latitude":"22.58733000","longitude":"-80.91451000","population":3155,"timezone":"America/Havana","type":"city","translations":{"es":"Manguito","en":"Manguito"}},{"name":"Martí","state_code":"04","latitude":"22.94714000","longitude":"-80.91902000","population":13439,"timezone":"America/Havana","type":"adm2","translations":{"es":"Martí","en":"Martí"}},{"name":"Matanzas","state_code":"04","latitude":"23.04111000","longitude":"-81.57750000","population":151624,"timezone":"America/Havana","type":"adm1","translations":{"es":"Matanzas","en":"Matanzas"}},{"name":"Municipio de Cárdenas","state_code":"04","latitude":"22.98978000","longitude":"-81.23520000","population":null,"timezone":"America/Havana","type":"adm2","translations":{"es":"Municipio de Cárdenas","en":"Municipio de Cárdenas"}},{"name":"Municipio de Matanzas","state_code":"04","latitude":"23.05000000","longitude":"-81.58333000","population":146733,"timezone":"America/Havana","type":"adm1","translations":{"es":"Municipio de Matanzas","en":"Municipio de Matanzas"}},{"name":"Pedro Betancourt","state_code":"04","latitude":"22.72709000","longitude":"-81.28963000","population":26761,"timezone":"America/Havana","type":"adm2","translations":{"es":"Pedro Betancourt","en":"Pedro Betancourt"}},{"name":"Perico","state_code":"04","latitude":"22.76987000","longitude":"-81.01830000","population":24073,"timezone":"America/Havana","type":"adm2","translations":{"es":"Perico","en":"Perico"}},{"name":"Unión de Reyes","state_code":"04","latitude":"22.79505000","longitude":"-81.53617000","population":33646,"timezone":"America/Havana","type":"adm2","translations":{"es":"Unión de Reyes","en":"Unión de Reyes"}},{"name":"Varadero","state_code":"04","latitude":"23.15678000","longitude":"-81.24441000","population":21170,"timezone":"America/Havana","type":"city","translations":{"es":"Varadero","en":"Varadero"}},{"name":"Batabanó","state_code":"16","latitude":"22.71794000","longitude":"-82.28965000","population":13832,"timezone":"America/Havana","type":"adm2","translations":{"es":"Batabanó","en":"Batabanó"}},{"name":"Bejucal","state_code":"16","latitude":"22.92861000","longitude":"-82.38861000","population":18123,"timezone":"America/Havana","type":"adm2","translations":{"es":"Bejucal","en":"Bejucal"}},{"name":"Güines","state_code":"16","latitude":"22.83727000","longitude":"-82.02641000","population":66892,"timezone":"America/Havana","type":"adm2","translations":{"es":"Güines","en":"Güines"}},{"name":"Jamaica","state_code":"16","latitude":"22.97559000","longitude":"-82.16852000","population":15000,"timezone":"America/Havana","type":"city","translations":{"es":"Jamaica","en":"Jamaica"}},{"name":"Jaruco","state_code":"16","latitude":"23.04419000","longitude":"-82.00919000","population":20207,"timezone":"America/Havana","type":"adm2","translations":{"es":"Jaruco","en":"Jaruco"}},{"name":"La Salud","state_code":"16","latitude":"22.87199000","longitude":"-82.42328000","population":28796,"timezone":"America/Havana","type":"city","translations":{"es":"La Salud","en":"La Salud"}},{"name":"Madruga","state_code":"16","latitude":"22.91000000","longitude":"-81.85639000","population":33798,"timezone":"America/Havana","type":"adm2","translations":{"es":"Madruga","en":"Madruga"}},{"name":"Municipio de Güines","state_code":"16","latitude":"22.78712000","longitude":"-82.01602000","population":null,"timezone":"America/Havana","type":"adm2","translations":{"es":"Municipio de Güines","en":"Municipio de Güines"}},{"name":"Municipio de Melena del Sur","state_code":"16","latitude":"22.78821000","longitude":"-82.15113000","population":0,"timezone":"America/Havana","type":"adm2","translations":{"es":"Municipio de Melena del Sur","en":"Municipio de Melena del Sur"}},{"name":"Quivicán","state_code":"16","latitude":"22.82313000","longitude":"-82.35558000","population":12919,"timezone":"America/Havana","type":"adm2","translations":{"es":"Quivicán","en":"Quivicán"}},{"name":"San José de las Lajas","state_code":"16","latitude":"22.96139000","longitude":"-82.15111000","population":54847,"timezone":"America/Havana","type":"adm1","translations":{"es":"San José de las Lajas","en":"San José de las Lajas"}},{"name":"San Nicolás de Bari","state_code":"16","latitude":"22.78444000","longitude":"-81.91333000","population":14914,"timezone":"America/Havana","type":"city","translations":{"es":"San Nicolás de Bari","en":"San Nicolás de Bari"}},{"name":"Santa Cruz del Norte","state_code":"16","latitude":"23.15424000","longitude":"-81.92556000","population":18402,"timezone":"America/Havana","type":"adm2","translations":{"es":"Santa Cruz del Norte","en":"Santa Cruz del Norte"}},{"name":"Consolación del Sur","state_code":"01","latitude":"22.50419000","longitude":"-83.51442000","population":69857,"timezone":"America/Havana","type":"adm2","translations":{"es":"Consolación del Sur","en":"Consolación del Sur"}},{"name":"Guane","state_code":"01","latitude":"22.20179000","longitude":"-84.08484000","population":16548,"timezone":"America/Havana","type":"city","translations":{"es":"Guane","en":"Guane"}},{"name":"Los Palacios","state_code":"01","latitude":"22.58882000","longitude":"-83.24671000","population":25703,"timezone":"America/Havana","type":"adm2","translations":{"es":"Los Palacios","en":"Los Palacios"}},{"name":"Mantua","state_code":"01","latitude":"22.29058000","longitude":"-84.28599000","population":10797,"timezone":"America/Havana","type":"city","translations":{"es":"Mantua","en":"Mantua"}},{"name":"Minas de Matahambre","state_code":"01","latitude":"22.58691000","longitude":"-83.94551000","population":34419,"timezone":"America/Havana","type":"adm2","translations":{"es":"Minas de Matahambre","en":"Minas de Matahambre"}},{"name":"Municipio de Consolación del Sur","state_code":"01","latitude":"22.44095000","longitude":"-83.41985000","population":null,"timezone":"America/Havana","type":"city","translations":{"es":"Municipio de Consolación del Sur","en":"Municipio de Consolación del Sur"}},{"name":"Municipio de Guane","state_code":"01","latitude":"22.24591000","longitude":"-84.03660000","population":null,"timezone":"America/Havana","type":"city","translations":{"es":"Municipio de Guane","en":"Municipio de Guane"}},{"name":"Municipio de La Palma","state_code":"01","latitude":"22.75000000","longitude":"-83.55000000","population":null,"timezone":"America/Havana","type":"adm2","translations":{"es":"Municipio de La Palma","en":"Municipio de La Palma"}},{"name":"Municipio de Los Palacios","state_code":"01","latitude":"22.58333000","longitude":"-83.25000000","population":25703,"timezone":"America/Havana","type":"adm2","translations":{"es":"Municipio de Los Palacios","en":"Municipio de Los Palacios"}},{"name":"Pinar del Río","state_code":"01","latitude":"22.41667000","longitude":"-83.69667000","population":188614,"timezone":"America/Havana","type":"adm1","translations":{"es":"Pinar del Río","en":"Pinar del Río"}},{"name":"Puerto Esperanza","state_code":"01","latitude":"22.77041000","longitude":"-83.73138000","population":3331,"timezone":"America/Havana","type":"city","translations":{"es":"Puerto Esperanza","en":"Puerto Esperanza"}},{"name":"San Diego de Los Baños","state_code":"01","latitude":"22.64667000","longitude":"-83.36972000","population":1643,"timezone":"America/Havana","type":"city","translations":{"es":"San Diego de Los Baños","en":"San Diego de Los Baños"}},{"name":"San Luis","state_code":"01","latitude":"22.27898000","longitude":"-83.75956000","population":6690,"timezone":"America/Havana","type":"adm2","translations":{"es":"San Luis","en":"San Luis"}},{"name":"Viñales","state_code":"01","latitude":"22.61892000","longitude":"-83.70694000","population":27129,"timezone":"America/Havana","type":"adm2","translations":{"es":"Viñales","en":"Viñales"}},{"name":"Cabaiguán","state_code":"07","latitude":"22.07874000","longitude":"-79.49726000","population":44515,"timezone":"America/Havana","type":"adm2","translations":{"es":"Cabaiguán","en":"Cabaiguán"}},{"name":"Condado","state_code":"07","latitude":"21.87670000","longitude":"-79.84014000","population":38248,"timezone":"America/Havana","type":"city","translations":{"es":"Condado","en":"Condado"}},{"name":"Fomento","state_code":"07","latitude":"22.10475000","longitude":"-79.72141000","population":19991,"timezone":"America/Havana","type":"adm2","translations":{"es":"Fomento","en":"Fomento"}},{"name":"Guayos","state_code":"07","latitude":"22.04956000","longitude":"-79.46106000","population":15000,"timezone":"America/Havana","type":"city","translations":{"es":"Guayos","en":"Guayos"}},{"name":"Jatibonico","state_code":"07","latitude":"21.94333000","longitude":"-79.16906000","population":19644,"timezone":"America/Havana","type":"adm2","translations":{"es":"Jatibonico","en":"Jatibonico"}},{"name":"La Sierpe","state_code":"07","latitude":"21.77241000","longitude":"-79.26832000","population":16937,"timezone":"America/Havana","type":"adm2","translations":{"es":"La Sierpe","en":"La Sierpe"}},{"name":"Municipio de Cabaiguán","state_code":"07","latitude":"22.08333000","longitude":"-79.50000000","population":44515,"timezone":"America/Havana","type":"adm2","translations":{"es":"Municipio de Cabaiguán","en":"Municipio de Cabaiguán"}},{"name":"Municipio de Jatibonico","state_code":"07","latitude":"21.93333000","longitude":"-79.16667000","population":19644,"timezone":"America/Havana","type":"adm2","translations":{"es":"Municipio de Jatibonico","en":"Municipio de Jatibonico"}},{"name":"Municipio de Sancti Spíritus","state_code":"07","latitude":"21.82176000","longitude":"-79.51036000","population":null,"timezone":"America/Havana","type":"city","translations":{"es":"Municipio de Sancti Spíritus","en":"Municipio de Sancti Spíritus"}},{"name":"Municipio de Trinidad","state_code":"07","latitude":"21.83195000","longitude":"-79.88362000","population":null,"timezone":"America/Havana","type":"city","translations":{"es":"Municipio de Trinidad","en":"Municipio de Trinidad"}},{"name":"Sancti Spíritus","state_code":"07","latitude":"21.92972000","longitude":"-79.44250000","population":138504,"timezone":"America/Havana","type":"adm1","translations":{"es":"Sancti Spíritus","en":"Sancti Spíritus"}},{"name":"Topes de Collantes","state_code":"07","latitude":"21.91524000","longitude":"-80.01929000","population":9729,"timezone":"America/Havana","type":"city","translations":{"es":"Topes de Collantes","en":"Topes de Collantes"}},{"name":"Trinidad","state_code":"07","latitude":"21.80224000","longitude":"-79.98467000","population":60206,"timezone":"America/Havana","type":"adm2","translations":{"es":"Trinidad","en":"Trinidad"}},{"name":"Yaguajay","state_code":"07","latitude":"22.32691000","longitude":"-79.23567000","population":42218,"timezone":"America/Havana","type":"adm2","translations":{"es":"Yaguajay","en":"Yaguajay"}},{"name":"Zaza del Medio","state_code":"07","latitude":"21.99712000","longitude":"-79.36678000","population":8667,"timezone":"America/Havana","type":"city","translations":{"es":"Zaza del Medio","en":"Zaza del Medio"}},{"name":"Contramaestre","state_code":"13","latitude":"20.29879000","longitude":"-76.24511000","population":70438,"timezone":"America/Havana","type":"adm2","translations":{"es":"Contramaestre","en":"Contramaestre"}},{"name":"El Cobre","state_code":"13","latitude":"20.04850000","longitude":"-75.94579000","population":4768,"timezone":"America/Havana","type":"city","translations":{"es":"El Cobre","en":"El Cobre"}},{"name":"Municipio de Palma Soriano","state_code":"13","latitude":"20.20897000","longitude":"-76.05776000","population":null,"timezone":"America/Havana","type":"city","translations":{"es":"Municipio de Palma Soriano","en":"Municipio de Palma Soriano"}},{"name":"Municipio de Santiago de Cuba","state_code":"13","latitude":"20.00617000","longitude":"-75.70816000","population":null,"timezone":"America/Havana","type":"city","translations":{"es":"Municipio de Santiago de Cuba","en":"Municipio de Santiago de Cuba"}},{"name":"Palma Soriano","state_code":"13","latitude":"20.21130000","longitude":"-75.99362000","population":102826,"timezone":"America/Havana","type":"adm2","translations":{"es":"Palma Soriano","en":"Palma Soriano"}},{"name":"San Luis","state_code":"13","latitude":"20.18809000","longitude":"-75.85031000","population":67293,"timezone":"America/Havana","type":"adm2","translations":{"es":"San Luis","en":"San Luis"}},{"name":"Santiago de Cuba","state_code":"13","latitude":"20.02083000","longitude":"-75.82667000","population":444851,"timezone":"America/Havana","type":"adm1","translations":{"es":"Santiago de Cuba","en":"Santiago de Cuba"}},{"name":"Caibarién","state_code":"05","latitude":"22.51996000","longitude":"-79.46599000","population":38479,"timezone":"America/Havana","type":"adm2","translations":{"es":"Caibarién","en":"Caibarién"}},{"name":"Calabazar de Sagua","state_code":"05","latitude":"22.64515000","longitude":"-79.89510000","population":10455,"timezone":"America/Havana","type":"city","translations":{"es":"Calabazar de Sagua","en":"Calabazar de Sagua"}},{"name":"Camajuaní","state_code":"05","latitude":"22.48333000","longitude":"-79.75000000","population":35515,"timezone":"America/Havana","type":"locality","translations":{"es":"Camajuaní","en":"Camajuaní"}},{"name":"Cifuentes","state_code":"05","latitude":"22.64930000","longitude":"-80.04935000","population":40142,"timezone":"America/Havana","type":"city","translations":{"es":"Cifuentes","en":"Cifuentes"}},{"name":"Corralillo","state_code":"05","latitude":"22.98212000","longitude":"-80.58556000","population":51881,"timezone":"America/Havana","type":"adm2","translations":{"es":"Corralillo","en":"Corralillo"}},{"name":"Encrucijada","state_code":"05","latitude":"22.61802000","longitude":"-79.86603000","population":26155,"timezone":"America/Havana","type":"adm2","translations":{"es":"Encrucijada","en":"Encrucijada"}},{"name":"Esperanza","state_code":"05","latitude":"22.44680000","longitude":"-80.09711000","population":10462,"timezone":"America/Havana","type":"city","translations":{"es":"Esperanza","en":"Esperanza"}},{"name":"Isabela de Sagua","state_code":"05","latitude":"22.93924000","longitude":"-80.01185000","population":3187,"timezone":"America/Havana","type":"city","translations":{"es":"Isabela de Sagua","en":"Isabela de Sagua"}},{"name":"Manicaragua","state_code":"05","latitude":"22.15021000","longitude":"-79.97867000","population":41532,"timezone":"America/Havana","type":"adm2","translations":{"es":"Manicaragua","en":"Manicaragua"}},{"name":"Municipio de Placetas","state_code":"05","latitude":"22.22248000","longitude":"-79.74268000","population":null,"timezone":"America/Havana","type":"city","translations":{"es":"Municipio de Placetas","en":"Municipio de Placetas"}},{"name":"Municipio de Santa Clara","state_code":"05","latitude":"22.40000000","longitude":"-79.96667000","population":250512,"timezone":"America/Havana","type":"adm1","translations":{"es":"Municipio de Santa Clara","en":"Municipio de Santa Clara"}},{"name":"Placetas","state_code":"05","latitude":"22.31184000","longitude":"-79.65440000","population":55408,"timezone":"America/Havana","type":"adm2","translations":{"es":"Placetas","en":"Placetas"}},{"name":"Quemado de Güines","state_code":"05","latitude":"22.78816000","longitude":"-80.25226000","population":12736,"timezone":"America/Havana","type":"adm2","translations":{"es":"Quemado de Güines","en":"Quemado de Güines"}},{"name":"Rancho Veloz","state_code":"05","latitude":"22.88042000","longitude":"-80.39098000","population":4549,"timezone":"America/Havana","type":"city","translations":{"es":"Rancho Veloz","en":"Rancho Veloz"}},{"name":"Ranchuelo","state_code":"05","latitude":"22.37266000","longitude":"-80.15046000","population":43695,"timezone":"America/Havana","type":"city","translations":{"es":"Ranchuelo","en":"Ranchuelo"}},{"name":"Sagua la Grande","state_code":"05","latitude":"22.80667000","longitude":"-80.07556000","population":62073,"timezone":"America/Havana","type":"adm2","translations":{"es":"Sagua la Grande","en":"Sagua la Grande"}},{"name":"Santa Clara","state_code":"05","latitude":"22.40694000","longitude":"-79.96472000","population":247436,"timezone":"America/Havana","type":"adm1","translations":{"es":"Santa Clara","en":"Santa Clara"}},{"name":"Santo Domingo","state_code":"05","latitude":"22.58677000","longitude":"-80.24261000","population":45476,"timezone":"America/Havana","type":"adm2","translations":{"es":"Santo Domingo","en":"Santo Domingo"}}]