[{"name":"Bavorov","state_code":"31","latitude":"49.12184000","longitude":"14.07893000","population":1683,"timezone":"Europe/Prague","type":"city","translations":{"es":"Bavórov","en":"Bavorov"}},{"name":"Bechyně","state_code":"31","latitude":"49.29523000","longitude":"14.46810000","population":4815,"timezone":"Europe/Prague","type":"city","translations":{"es":"Bechyně","en":"Bechyně"}},{"name":"Benešov nad Černou","state_code":"31","latitude":"48.72940000","longitude":"14.62737000","population":1259,"timezone":"Europe/Prague","type":"city","translations":{"es":"Benešov nad Černou","en":"Benešov nad Černou"}},{"name":"Bernartice","state_code":"31","latitude":"49.36889000","longitude":"14.38101000","population":1405,"timezone":"Europe/Prague","type":"city","translations":{"es":"Bernartice","en":"Bernartice"}},{"name":"Blatná","state_code":"31","latitude":"49.42489000","longitude":"13.88176000","population":6669,"timezone":"Europe/Prague","type":"city","translations":{"es":"Blatná","en":"Blatná"}},{"name":"Borek","state_code":"31","latitude":"49.02339000","longitude":"14.50088000","population":1157,"timezone":"Europe/Prague","type":"city","translations":{"es":"Borek","en":"Borek"}},{"name":"Borová Lada","state_code":"31","latitude":"48.98983000","longitude":"13.65986000","population":276,"timezone":"Europe/Prague","type":"adm3","translations":{"es":"Borová Lada","en":"Borová Lada"}},{"name":"Borovany","state_code":"31","latitude":"48.89860000","longitude":"14.64227000","population":4184,"timezone":"Europe/Prague","type":"city","translations":{"es":"Borovany","en":"Borovany"}},{"name":"Brloh","state_code":"31","latitude":"48.92987000","longitude":"14.21857000","population":1039,"timezone":"Europe/Prague","type":"city","translations":{"es":"Brloh","en":"Brloh"}},{"name":"České Budějovice","state_code":"31","latitude":"48.97447000","longitude":"14.47434000","population":97231,"timezone":"Europe/Prague","type":"adm1","translations":{"es":"České Budějovice","en":"České Budějovice"}},{"name":"České Velenice","state_code":"31","latitude":"48.76851000","longitude":"14.96368000","population":3607,"timezone":"Europe/Prague","type":"city","translations":{"es":"České Velenice","en":"České Velenice"}},{"name":"Český Krumlov","state_code":"31","latitude":"48.81091000","longitude":"14.31521000","population":12797,"timezone":"Europe/Prague","type":"city","translations":{"es":"Český Krumlov","en":"Český Krumlov"}},{"name":"Český Rudolec","state_code":"31","latitude":"49.06835000","longitude":"15.32437000","population":1004,"timezone":"Europe/Prague","type":"city","translations":{"es":"Český Rudolec","en":"Český Rudolec"}},{"name":"Chlum u Třeboně","state_code":"31","latitude":"48.96235000","longitude":"14.92799000","population":1816,"timezone":"Europe/Prague","type":"city","translations":{"es":"Chlum u Třeboně","en":"Chlum u Třeboně"}},{"name":"Chotoviny","state_code":"31","latitude":"49.47803000","longitude":"14.67695000","population":1783,"timezone":"Europe/Prague","type":"city","translations":{"es":"Chotoviny","en":"Chotoviny"}},{"name":"Chvalšiny","state_code":"31","latitude":"48.85401000","longitude":"14.21114000","population":1244,"timezone":"Europe/Prague","type":"city","translations":{"es":"Chvalšiny","en":"Chvalšiny"}},{"name":"Chýnov","state_code":"31","latitude":"49.40677000","longitude":"14.81122000","population":2568,"timezone":"Europe/Prague","type":"city","translations":{"es":"Chýnov","en":"Chýnov"}},{"name":"Chyšky","state_code":"31","latitude":"49.52346000","longitude":"14.42757000","population":1066,"timezone":"Europe/Prague","type":"city","translations":{"es":"Chyšky","en":"Chyšky"}},{"name":"Čimelice","state_code":"31","latitude":"49.46557000","longitude":"14.06922000","population":1045,"timezone":"Europe/Prague","type":"city","translations":{"es":"Čimelice","en":"Čimelice"}},{"name":"Čkyně","state_code":"31","latitude":"49.11503000","longitude":"13.82906000","population":1616,"timezone":"Europe/Prague","type":"city","translations":{"es":"Čkyně","en":"Čkyně"}},{"name":"Dačice","state_code":"31","latitude":"49.08154000","longitude":"15.43727000","population":7157,"timezone":"Europe/Prague","type":"city","translations":{"es":"Dačice","en":"Dačice"}},{"name":"Dolní Bukovsko","state_code":"31","latitude":"49.17086000","longitude":"14.58127000","population":1712,"timezone":"Europe/Prague","type":"city","translations":{"es":"Dolní Bukovsko","en":"Dolní Bukovsko"}},{"name":"Dolní Dvořiště","state_code":"31","latitude":"48.65642000","longitude":"14.45221000","population":1388,"timezone":"Europe/Prague","type":"city","translations":{"es":"Dolní Dvořiště","en":"Dolní Dvořiště"}},{"name":"Dřiteň","state_code":"31","latitude":"49.14280000","longitude":"14.34596000","population":1392,"timezone":"Europe/Prague","type":"city","translations":{"es":"Dřiteň","en":"Dřiteň"}},{"name":"Dubné","state_code":"31","latitude":"48.97619000","longitude":"14.36038000","population":1141,"timezone":"Europe/Prague","type":"city","translations":{"es":"Dubné","en":"Dubné"}},{"name":"Frymburk","state_code":"31","latitude":"48.66094000","longitude":"14.16564000","population":1355,"timezone":"Europe/Prague","type":"city","translations":{"es":"Frymburk","en":"Frymburk"}},{"name":"Hluboká nad Vltavou","state_code":"31","latitude":"49.05225000","longitude":"14.43427000","population":5626,"timezone":"Europe/Prague","type":"city","translations":{"es":"Hluboká nad Vltavou","en":"Hluboká nad Vltavou"}},{"name":"Horní Planá","state_code":"31","latitude":"48.76736000","longitude":"14.03257000","population":1943,"timezone":"Europe/Prague","type":"city","translations":{"es":"Horní Planá","en":"Horní Planá"}},{"name":"Horní Stropnice","state_code":"31","latitude":"48.76124000","longitude":"14.73502000","population":1560,"timezone":"Europe/Prague","type":"city","translations":{"es":"Horní Stropnice","en":"Horní Stropnice"}},{"name":"Hrdějovice","state_code":"31","latitude":"49.01893000","longitude":"14.47857000","population":1560,"timezone":"Europe/Prague","type":"city","translations":{"es":"Hrdějovice","en":"Hrdějovice"}},{"name":"Husinec","state_code":"31","latitude":"49.05496000","longitude":"13.98697000","population":1405,"timezone":"Europe/Prague","type":"city","translations":{"es":"Husinec","en":"Husinec"}},{"name":"Jarošov nad Nežárkou","state_code":"31","latitude":"49.18989000","longitude":"15.06734000","population":1067,"timezone":"Europe/Prague","type":"city","translations":{"es":"Jarošov nad Nežárkou","en":"Jarošov nad Nežárkou"}},{"name":"Jindřichův Hradec","state_code":"31","latitude":"49.14404000","longitude":"15.00301000","population":20540,"timezone":"Europe/Prague","type":"city","translations":{"es":"Jindřichův Hradec","en":"Jindřichův Hradec"}},{"name":"Jistebnice","state_code":"31","latitude":"49.48553000","longitude":"14.52760000","population":2132,"timezone":"Europe/Prague","type":"city","translations":{"es":"Jistebnice","en":"Jistebnice"}},{"name":"Kájov","state_code":"31","latitude":"48.81082000","longitude":"14.25859000","population":1870,"timezone":"Europe/Prague","type":"city","translations":{"es":"Kájov","en":"Kájov"}},{"name":"Kamenný Újezd","state_code":"31","latitude":"48.89753000","longitude":"14.44638000","population":2002,"timezone":"Europe/Prague","type":"city","translations":{"es":"Kamenný Újezd","en":"Kamenný Újezd"}},{"name":"Kaplice","state_code":"31","latitude":"48.73881000","longitude":"14.49449000","population":7531,"timezone":"Europe/Prague","type":"city","translations":{"es":"Kaplice","en":"Kaplice"}},{"name":"Kardašova Řečice","state_code":"31","latitude":"49.18478000","longitude":"14.85315000","population":2221,"timezone":"Europe/Prague","type":"city","translations":{"es":"Kardašova Řečice","en":"Kardašova Řečice"}},{"name":"Katovice","state_code":"31","latitude":"49.27348000","longitude":"13.83035000","population":1331,"timezone":"Europe/Prague","type":"city","translations":{"es":"Katovice","en":"Katovice"}},{"name":"Kovářov","state_code":"31","latitude":"49.51760000","longitude":"14.27809000","population":1465,"timezone":"Europe/Prague","type":"city","translations":{"es":"Kovářov","en":"Kovářov"}},{"name":"Křemže","state_code":"31","latitude":"48.90497000","longitude":"14.30568000","population":2989,"timezone":"Europe/Prague","type":"city","translations":{"es":"Křemže","en":"Křemže"}},{"name":"Kunžak","state_code":"31","latitude":"49.12119000","longitude":"15.19028000","population":1484,"timezone":"Europe/Prague","type":"city","translations":{"es":"Kunžak","en":"Kunžak"}},{"name":"Ledenice","state_code":"31","latitude":"48.93329000","longitude":"14.61886000","population":2544,"timezone":"Europe/Prague","type":"city","translations":{"es":"Ledenice","en":"Ledenice"}},{"name":"Lhenice","state_code":"31","latitude":"48.99479000","longitude":"14.14980000","population":2052,"timezone":"Europe/Prague","type":"city","translations":{"es":"Lhenice","en":"Lhenice"}},{"name":"Lišov","state_code":"31","latitude":"49.01597000","longitude":"14.60838000","population":4679,"timezone":"Europe/Prague","type":"city","translations":{"es":"Lišov","en":"Lišov"}},{"name":"Litvínovice","state_code":"31","latitude":"48.96207000","longitude":"14.45146000","population":1483,"timezone":"Europe/Prague","type":"city","translations":{"es":"Litvínovice","en":"Litvínovice"}},{"name":"Lomnice nad Lužnicí","state_code":"31","latitude":"49.08468000","longitude":"14.71727000","population":1778,"timezone":"Europe/Prague","type":"city","translations":{"es":"Lomnice nad Lužnicí","en":"Lomnice nad Lužnicí"}},{"name":"Loučovice","state_code":"31","latitude":"48.62019000","longitude":"14.25747000","population":1955,"timezone":"Europe/Prague","type":"city","translations":{"es":"Loučovice","en":"Loučovice"}},{"name":"Malonty","state_code":"31","latitude":"48.68611000","longitude":"14.57678000","population":1135,"timezone":"Europe/Prague","type":"city","translations":{"es":"Malonty","en":"Malonty"}},{"name":"Malšice","state_code":"31","latitude":"49.36391000","longitude":"14.57868000","population":1893,"timezone":"Europe/Prague","type":"city","translations":{"es":"Malicia","en":"Malšice"}},{"name":"Milevsko","state_code":"31","latitude":"49.45089000","longitude":"14.36000000","population":7950,"timezone":"Europe/Prague","type":"city","translations":{"es":"Milevsko","en":"Milevsko"}},{"name":"Mirotice","state_code":"31","latitude":"49.42908000","longitude":"14.03697000","population":1232,"timezone":"Europe/Prague","type":"city","translations":{"es":"Mirotice","en":"Mirotice"}},{"name":"Mirovice","state_code":"31","latitude":"49.51555000","longitude":"14.03582000","population":1623,"timezone":"Europe/Prague","type":"city","translations":{"es":"Mirovice","en":"Mirovice"}},{"name":"Mladá Vožice","state_code":"31","latitude":"49.53313000","longitude":"14.80857000","population":2705,"timezone":"Europe/Prague","type":"city","translations":{"es":"Mladá Vožice","en":"Mladá Vožice"}},{"name":"Netolice","state_code":"31","latitude":"49.04930000","longitude":"14.19700000","population":2467,"timezone":"Europe/Prague","type":"city","translations":{"es":"Netolice","en":"Netolice"}},{"name":"Nová Bystřice","state_code":"31","latitude":"49.01926000","longitude":"15.10316000","population":3199,"timezone":"Europe/Prague","type":"city","translations":{"es":"Nueva Bystřice","en":"Nová Bystřice"}},{"name":"Nová Včelnice","state_code":"31","latitude":"49.23935000","longitude":"15.07260000","population":2176,"timezone":"Europe/Prague","type":"city","translations":{"es":"Nueva Včelnice","en":"Nová Včelnice"}},{"name":"Nové Hrady","state_code":"31","latitude":"48.78963000","longitude":"14.77839000","population":2469,"timezone":"Europe/Prague","type":"city","translations":{"es":"Nové Hrady","en":"Nové Hrady"}},{"name":"Okres České Budějovice","state_code":"31","latitude":"49.00000000","longitude":"14.50000000","population":202172,"timezone":"Europe/Prague","type":"city","translations":{"es":"Okres České Budějovice","en":"Okres České Budějovice"}},{"name":"Okres Český Krumlov","state_code":"31","latitude":"48.75000000","longitude":"14.33333000","population":61655,"timezone":"Europe/Prague","type":"city","translations":{"es":"Distrito de Český Krumlov","en":"Okres Český Krumlov"}},{"name":"Okres Jindřichův Hradec","state_code":"31","latitude":"49.08333000","longitude":"15.16667000","population":89564,"timezone":"Europe/Prague","type":"city","translations":{"es":"Okres Jindřichův Hradec","en":"Okres Jindřichův Hradec"}},{"name":"Okres Písek","state_code":"31","latitude":"49.40000000","longitude":"14.20000000","population":72912,"timezone":"Europe/Prague","type":"city","translations":{"es":"Okres Písek","en":"Okres Písek"}},{"name":"Okres Prachatice","state_code":"31","latitude":"49.00000000","longitude":"13.86667000","population":51061,"timezone":"Europe/Prague","type":"city","translations":{"es":"Okres Prachatice","en":"Okres Prachatice"}},{"name":"Okres Strakonice","state_code":"31","latitude":"49.26667000","longitude":"13.90000000","population":71602,"timezone":"Europe/Prague","type":"city","translations":{"es":"Okres Strakonice","en":"Okres Strakonice"}},{"name":"Okres Tábor","state_code":"31","latitude":"49.41667000","longitude":"14.66667000","population":104261,"timezone":"Europe/Prague","type":"city","translations":{"es":"Okres Tábor","en":"Okres Tábor"}},{"name":"Opařany","state_code":"31","latitude":"49.39678000","longitude":"14.48137000","population":1365,"timezone":"Europe/Prague","type":"city","translations":{"es":"Opařany","en":"Opařany"}},{"name":"Písek","state_code":"31","latitude":"49.30880000","longitude":"14.14750000","population":31121,"timezone":"Europe/Prague","type":"city","translations":{"es":"Písek","en":"Písek"}},{"name":"Planá nad Lužnicí","state_code":"31","latitude":"49.35444000","longitude":"14.70147000","population":3128,"timezone":"Europe/Prague","type":"city","translations":{"es":"Planá nad Lužnicí","en":"Planá nad Lužnicí"}},{"name":"Prachatice","state_code":"31","latitude":"49.01292000","longitude":"13.99752000","population":11119,"timezone":"Europe/Prague","type":"city","translations":{"es":"Prachatice","en":"Prachatice"}},{"name":"Protivín","state_code":"31","latitude":"49.19949000","longitude":"14.21717000","population":4764,"timezone":"Europe/Prague","type":"city","translations":{"es":"Protivín","en":"Protivín"}},{"name":"Radomyšl","state_code":"31","latitude":"49.31634000","longitude":"13.93024000","population":1366,"timezone":"Europe/Prague","type":"city","translations":{"es":"Radomyšl","en":"Radomyšl"}},{"name":"Rudolfov","state_code":"31","latitude":"48.99339000","longitude":"14.54179000","population":2587,"timezone":"Europe/Prague","type":"city","translations":{"es":"Rodolfov","en":"Rudolfov"}},{"name":"Sedlice","state_code":"31","latitude":"48.77401000","longitude":"14.39115000","population":1276,"timezone":"Europe/Prague","type":"city","translations":{"es":"Sedlice","en":"Sedlice"}},{"name":"Sepekov","state_code":"31","latitude":"49.42865000","longitude":"14.41815000","population":1356,"timezone":"Europe/Prague","type":"city","translations":{"es":"Sepekov","en":"Sepekov"}},{"name":"Ševětín","state_code":"31","latitude":"49.10005000","longitude":"14.57220000","population":1367,"timezone":"Europe/Prague","type":"city","translations":{"es":"Ševětín","en":"Ševětín"}},{"name":"Sezimovo Ústí","state_code":"31","latitude":"49.38519000","longitude":"14.68480000","population":7097,"timezone":"Europe/Prague","type":"city","translations":{"es":"Sezimovo Ústí","en":"Sezimovo Ústí"}},{"name":"Slavonice","state_code":"31","latitude":"48.99753000","longitude":"15.35154000","population":2229,"timezone":"Europe/Prague","type":"city","translations":{"es":"Eslavonia","en":"Slavonice"}},{"name":"Soběslav","state_code":"31","latitude":"49.25993000","longitude":"14.71861000","population":7070,"timezone":"Europe/Prague","type":"city","translations":{"es":"Sobeslav","en":"Soběslav"}},{"name":"Srubec","state_code":"31","latitude":"48.94806000","longitude":"14.54131000","population":1107,"timezone":"Europe/Prague","type":"city","translations":{"es":"Srubec","en":"Srubec"}},{"name":"Stachy","state_code":"31","latitude":"49.10179000","longitude":"13.66659000","population":1222,"timezone":"Europe/Prague","type":"city","translations":{"es":"Stachy","en":"Stachy"}},{"name":"Strakonice","state_code":"31","latitude":"49.26141000","longitude":"13.90237000","population":22355,"timezone":"Europe/Prague","type":"city","translations":{"es":"Strakonice","en":"Strakonice"}},{"name":"Strmilov","state_code":"31","latitude":"49.15846000","longitude":"15.19934000","population":1403,"timezone":"Europe/Prague","type":"city","translations":{"es":"Strmilov","en":"Strmilov"}},{"name":"Strunkovice nad Blanicí","state_code":"31","latitude":"49.08402000","longitude":"14.05522000","population":1317,"timezone":"Europe/Prague","type":"city","translations":{"es":"Strunkovice nad Blanicí","en":"Strunkovice nad Blanicí"}},{"name":"Studená","state_code":"31","latitude":"49.18516000","longitude":"15.28688000","population":2464,"timezone":"Europe/Prague","type":"city","translations":{"es":"Estudiante","en":"Studená"}},{"name":"Suchdol nad Lužnicí","state_code":"31","latitude":"48.89000000","longitude":"14.87720000","population":3597,"timezone":"Europe/Prague","type":"city","translations":{"es":"Suchdol nad Lužnicí","en":"Suchdol nad Lužnicí"}},{"name":"Tábor","state_code":"31","latitude":"49.41441000","longitude":"14.65780000","population":34356,"timezone":"Europe/Prague","type":"city","translations":{"es":"Tabor","en":"Tábor"}},{"name":"Třeboň","state_code":"31","latitude":"49.00364000","longitude":"14.77065000","population":8270,"timezone":"Europe/Prague","type":"city","translations":{"es":"Třeboň","en":"Třeboň"}},{"name":"Trhové Sviny","state_code":"31","latitude":"48.84231000","longitude":"14.63924000","population":5262,"timezone":"Europe/Prague","type":"city","translations":{"es":"Trhové Sviny","en":"Trhové Sviny"}},{"name":"Týn nad Vltavou","state_code":"31","latitude":"49.22340000","longitude":"14.42057000","population":7774,"timezone":"Europe/Prague","type":"city","translations":{"es":"Týn nad Vltavou","en":"Týn nad Vltavou"}},{"name":"Vacov","state_code":"31","latitude":"49.13686000","longitude":"13.72911000","population":1372,"timezone":"Europe/Prague","type":"city","translations":{"es":"Vacov","en":"Vacov"}},{"name":"Včelná","state_code":"31","latitude":"48.92373000","longitude":"14.45383000","population":1504,"timezone":"Europe/Prague","type":"city","translations":{"es":"Včelná","en":"Včelná"}},{"name":"Velešín","state_code":"31","latitude":"48.82949000","longitude":"14.46252000","population":3861,"timezone":"Europe/Prague","type":"city","translations":{"es":"Velešín","en":"Velešín"}},{"name":"Veselí nad Lužnicí","state_code":"31","latitude":"49.18430000","longitude":"14.69734000","population":6515,"timezone":"Europe/Prague","type":"city","translations":{"es":"Veselí nad Lužnicí","en":"Veselí nad Lužnicí"}},{"name":"Větřní","state_code":"31","latitude":"48.77425000","longitude":"14.28616000","population":3761,"timezone":"Europe/Prague","type":"city","translations":{"es":"Větřní","en":"Větřní"}},{"name":"Vimperk","state_code":"31","latitude":"49.05857000","longitude":"13.78286000","population":7289,"timezone":"Europe/Prague","type":"city","translations":{"es":"Vimperk","en":"Vimperk"}},{"name":"Vlachovo Březí","state_code":"31","latitude":"49.08135000","longitude":"13.95842000","population":1750,"timezone":"Europe/Prague","type":"city","translations":{"es":"Vlachovo Březí","en":"Vlachovo Březí"}},{"name":"Vodňany","state_code":"31","latitude":"49.14789000","longitude":"14.17513000","population":7383,"timezone":"Europe/Prague","type":"city","translations":{"es":"Vodňany","en":"Vodňany"}},{"name":"Volary","state_code":"31","latitude":"48.90881000","longitude":"13.88657000","population":3692,"timezone":"Europe/Prague","type":"city","translations":{"es":"Volario","en":"Volary"}},{"name":"Volyně","state_code":"31","latitude":"49.16578000","longitude":"13.88624000","population":3036,"timezone":"Europe/Prague","type":"city","translations":{"es":"Volyně","en":"Volyně"}},{"name":"Vyšší Brod","state_code":"31","latitude":"48.61598000","longitude":"14.31183000","population":2597,"timezone":"Europe/Prague","type":"city","translations":{"es":"Vyšší Brod","en":"Vyšší Brod"}},{"name":"Zdíkov","state_code":"31","latitude":"49.08456000","longitude":"13.69738000","population":1616,"timezone":"Europe/Prague","type":"city","translations":{"es":"Zdíkov","en":"Zdíkov"}},{"name":"Zliv","state_code":"31","latitude":"49.06608000","longitude":"14.36613000","population":3453,"timezone":"Europe/Prague","type":"city","translations":{"es":"Zliv","en":"Zliv"}},{"name":"Adamov","state_code":"64","latitude":"49.30162000","longitude":"16.65253000","population":4616,"timezone":"Europe/Prague","type":"city","translations":{"es":"Adamov","en":"Adamov"}},{"name":"Bílovice nad Svitavou","state_code":"64","latitude":"49.24708000","longitude":"16.67247000","population":2600,"timezone":"Europe/Prague","type":"city","translations":{"es":"Bílovice nad Svitavou","en":"Bílovice nad Svitavou"}},{"name":"Blansko","state_code":"64","latitude":"49.36304000","longitude":"16.64446000","population":20002,"timezone":"Europe/Prague","type":"city","translations":{"es":"Blansko","en":"Blansko"}},{"name":"Blažovice","state_code":"64","latitude":"49.16569000","longitude":"16.78611000","population":1076,"timezone":"Europe/Prague","type":"city","translations":{"es":"Blažovice","en":"Blažovice"}},{"name":"Blížkovice","state_code":"64","latitude":"48.99976000","longitude":"15.83482000","population":1215,"timezone":"Europe/Prague","type":"city","translations":{"es":"Blížkovice","en":"Blížkovice"}},{"name":"Blučina","state_code":"64","latitude":"49.05497000","longitude":"16.64450000","population":2040,"timezone":"Europe/Prague","type":"city","translations":{"es":"Blučina","en":"Blučina"}},{"name":"Bořetice","state_code":"64","latitude":"48.91302000","longitude":"16.85306000","population":1297,"timezone":"Europe/Prague","type":"city","translations":{"es":"Boretice","en":"Bořetice"}},{"name":"Bořitov","state_code":"64","latitude":"49.42504000","longitude":"16.59119000","population":1234,"timezone":"Europe/Prague","type":"city","translations":{"es":"Boritov","en":"Bořitov"}},{"name":"Boskovice","state_code":"64","latitude":"49.48751000","longitude":"16.65997000","population":12508,"timezone":"Europe/Prague","type":"city","translations":{"es":"Boskovice","en":"Boskovice"}},{"name":"Bošovice","state_code":"64","latitude":"49.05351000","longitude":"16.83676000","population":1071,"timezone":"Europe/Prague","type":"city","translations":{"es":"Bošovice","en":"Bošovice"}},{"name":"Božice","state_code":"64","latitude":"48.83687000","longitude":"16.28875000","population":1436,"timezone":"Europe/Prague","type":"city","translations":{"es":"Božice","en":"Božice"}},{"name":"Břeclav","state_code":"64","latitude":"48.75897000","longitude":"16.88203000","population":24538,"timezone":"Europe/Prague","type":"adm2","translations":{"es":"Breclav","en":"Břeclav"}},{"name":"Březí","state_code":"64","latitude":"48.81928000","longitude":"16.56748000","population":1539,"timezone":"Europe/Prague","type":"city","translations":{"es":"Březí","en":"Březí"}},{"name":"Brno","state_code":"64","latitude":"49.19522000","longitude":"16.60796000","population":402739,"timezone":"Europe/Prague","type":"adm1","translations":{"es":"Brno","en":"Brno"}},{"name":"Bučovice","state_code":"64","latitude":"49.14896000","longitude":"17.00191000","population":6891,"timezone":"Europe/Prague","type":"city","translations":{"es":"Bučovice","en":"Bučovice"}},{"name":"Bzenec","state_code":"64","latitude":"48.97336000","longitude":"17.26685000","population":4561,"timezone":"Europe/Prague","type":"city","translations":{"es":"Bzenec","en":"Bzenec"}},{"name":"Čebín","state_code":"64","latitude":"49.31324000","longitude":"16.47791000","population":1632,"timezone":"Europe/Prague","type":"city","translations":{"es":"Čebín","en":"Čebín"}},{"name":"Čejč","state_code":"64","latitude":"48.94653000","longitude":"16.96511000","population":1232,"timezone":"Europe/Prague","type":"city","translations":{"es":"Čejč","en":"Čejč"}},{"name":"Čejkovice","state_code":"64","latitude":"48.90592000","longitude":"16.94230000","population":2527,"timezone":"Europe/Prague","type":"city","translations":{"es":"Čejkovice","en":"Čejkovice"}},{"name":"Černá Hora","state_code":"64","latitude":"49.41361000","longitude":"16.58140000","population":2110,"timezone":"Europe/Prague","type":"city","translations":{"es":"Černá Hora","en":"Černá Hora"}},{"name":"Dambořice","state_code":"64","latitude":"49.03828000","longitude":"16.91757000","population":1485,"timezone":"Europe/Prague","type":"city","translations":{"es":"Dambořice","en":"Dambořice"}},{"name":"Dobšice","state_code":"64","latitude":"48.84834000","longitude":"16.08218000","population":2418,"timezone":"Europe/Prague","type":"city","translations":{"es":"Dobšice","en":"Dobšice"}},{"name":"Dolní Bojanovice","state_code":"64","latitude":"48.85861000","longitude":"17.02859000","population":2859,"timezone":"Europe/Prague","type":"city","translations":{"es":"Dolní Bojanovice","en":"Dolní Bojanovice"}},{"name":"Dolní Dunajovice","state_code":"64","latitude":"48.85447000","longitude":"16.59283000","population":1717,"timezone":"Europe/Prague","type":"city","translations":{"es":"Dolní Dunajovice","en":"Dolní Dunajovice"}},{"name":"Dolní Kounice","state_code":"64","latitude":"49.07011000","longitude":"16.46492000","population":2571,"timezone":"Europe/Prague","type":"city","translations":{"es":"Dolní Kounice","en":"Dolní Kounice"}},{"name":"Dolní Loućky","state_code":"64","latitude":"49.36099000","longitude":"16.35871000","population":1111,"timezone":"Europe/Prague","type":"city","translations":{"es":"Dolní Loućky","en":"Dolní Loućky"}},{"name":"Domanín","state_code":"64","latitude":"49.00167000","longitude":"17.28476000","population":1020,"timezone":"Europe/Prague","type":"city","translations":{"es":"Domanín","en":"Domanín"}},{"name":"Doubravice nad Svitavou","state_code":"64","latitude":"49.43664000","longitude":"16.62937000","population":1333,"timezone":"Europe/Prague","type":"city","translations":{"es":"Doubravice nad Svitavou","en":"Doubravice nad Svitavou"}},{"name":"Drásov","state_code":"64","latitude":"49.33183000","longitude":"16.47798000","population":1138,"timezone":"Europe/Prague","type":"city","translations":{"es":"Drásov","en":"Drásov"}},{"name":"Drnholec","state_code":"64","latitude":"48.85746000","longitude":"16.48586000","population":1826,"timezone":"Europe/Prague","type":"city","translations":{"es":"Drnholec","en":"Drnholec"}},{"name":"Drnovice","state_code":"64","latitude":"49.27630000","longitude":"16.95146000","population":2225,"timezone":"Europe/Prague","type":"city","translations":{"es":"Drnovice","en":"Drnovice"}},{"name":"Dubňany","state_code":"64","latitude":"48.91694000","longitude":"17.09004000","population":6202,"timezone":"Europe/Prague","type":"city","translations":{"es":"Dubňany","en":"Dubňany"}},{"name":"Hevlín","state_code":"64","latitude":"48.75209000","longitude":"16.38131000","population":1366,"timezone":"Europe/Prague","type":"city","translations":{"es":"Hevlín","en":"Hevlín"}},{"name":"Hlohovec","state_code":"64","latitude":"48.77399000","longitude":"16.76230000","population":1315,"timezone":"Europe/Prague","type":"city","translations":{"es":"Hlohovec","en":"Hlohovec"}},{"name":"Hodonice","state_code":"64","latitude":"48.83680000","longitude":"16.16337000","population":1648,"timezone":"Europe/Prague","type":"city","translations":{"es":"Hodonice","en":"Hodonice"}},{"name":"Hodonín","state_code":"64","latitude":"48.84893000","longitude":"17.13244000","population":23517,"timezone":"Europe/Prague","type":"city","translations":{"es":"Hodonín","en":"Hodonín"}},{"name":"Hostěradice","state_code":"64","latitude":"48.95006000","longitude":"16.25931000","population":1488,"timezone":"Europe/Prague","type":"city","translations":{"es":"Hostěradice","en":"Hostěradice"}},{"name":"Hovorany","state_code":"64","latitude":"48.95493000","longitude":"16.99346000","population":2232,"timezone":"Europe/Prague","type":"city","translations":{"es":"Hovorany","en":"Hovorany"}},{"name":"Hroznová Lhota","state_code":"64","latitude":"48.90784000","longitude":"17.41697000","population":1168,"timezone":"Europe/Prague","type":"city","translations":{"es":"Hroznová Lhota","en":"Hroznová Lhota"}},{"name":"Hrušky","state_code":"64","latitude":"48.79272000","longitude":"16.97404000","population":1633,"timezone":"Europe/Prague","type":"city","translations":{"es":"Hrušky","en":"Hrušky"}},{"name":"Hrušovany nad Jevišovkou","state_code":"64","latitude":"48.82991000","longitude":"16.40271000","population":3377,"timezone":"Europe/Prague","type":"city","translations":{"es":"Hrušovany nad Jevišovkou","en":"Hrušovany nad Jevišovkou"}},{"name":"Hrušovany u Brna","state_code":"64","latitude":"49.03863000","longitude":"16.59429000","population":3528,"timezone":"Europe/Prague","type":"city","translations":{"es":"Hrušovany u Brna","en":"Hrušovany u Brna"}},{"name":"Hustopeče","state_code":"64","latitude":"48.94085000","longitude":"16.73762000","population":6388,"timezone":"Europe/Prague","type":"city","translations":{"es":"Hustopeče","en":"Hustopeče"}},{"name":"Ivančice","state_code":"64","latitude":"49.10144000","longitude":"16.37752000","population":9898,"timezone":"Europe/Prague","type":"city","translations":{"es":"Ivančice","en":"Ivančice"}},{"name":"Ivanovice na Hané","state_code":"64","latitude":"49.30542000","longitude":"17.09343000","population":2978,"timezone":"Europe/Prague","type":"city","translations":{"es":"Ivanovice na Hané","en":"Ivanovice na Hané"}},{"name":"Jaroslavice","state_code":"64","latitude":"48.75657000","longitude":"16.23351000","population":1267,"timezone":"Europe/Prague","type":"city","translations":{"es":"Jaroslavice","en":"Jaroslavice"}},{"name":"Jedovnice","state_code":"64","latitude":"49.34453000","longitude":"16.75595000","population":2999,"timezone":"Europe/Prague","type":"city","translations":{"es":"Jedovnice","en":"Jedovnice"}},{"name":"Jevišovice","state_code":"64","latitude":"48.98736000","longitude":"15.98992000","population":1159,"timezone":"Europe/Prague","type":"city","translations":{"es":"Jevišovice","en":"Jevišovice"}},{"name":"Klobouky","state_code":"64","latitude":"48.99609000","longitude":"16.86298000","population":2476,"timezone":"Europe/Prague","type":"city","translations":{"es":"Klobouky","en":"Klobouky"}},{"name":"Kněždub","state_code":"64","latitude":"48.88666000","longitude":"17.39546000","population":1050,"timezone":"Europe/Prague","type":"city","translations":{"es":"Kněždub","en":"Kněždub"}},{"name":"Kobylí","state_code":"64","latitude":"48.93286000","longitude":"16.89159000","population":1966,"timezone":"Europe/Prague","type":"city","translations":{"es":"Kobylí","en":"Kobylí"}},{"name":"Kostice","state_code":"64","latitude":"48.74685000","longitude":"16.97869000","population":1864,"timezone":"Europe/Prague","type":"city","translations":{"es":"Kostice","en":"Kostice"}},{"name":"Křenovice","state_code":"64","latitude":"49.14216000","longitude":"16.82932000","population":1738,"timezone":"Europe/Prague","type":"city","translations":{"es":"Křenovice","en":"Křenovice"}},{"name":"Křepice","state_code":"64","latitude":"48.99986000","longitude":"16.71989000","population":1305,"timezone":"Europe/Prague","type":"city","translations":{"es":"Křepice","en":"Křepice"}},{"name":"Krumvíř","state_code":"64","latitude":"48.98901000","longitude":"16.91027000","population":1230,"timezone":"Europe/Prague","type":"city","translations":{"es":"Krumvíř","en":"Krumvíř"}},{"name":"Kunštát","state_code":"64","latitude":"49.50645000","longitude":"16.51722000","population":2891,"timezone":"Europe/Prague","type":"city","translations":{"es":"Kunštát","en":"Kunštát"}},{"name":"Kuřim","state_code":"64","latitude":"49.29852000","longitude":"16.53144000","population":9283,"timezone":"Europe/Prague","type":"city","translations":{"es":"Kuřim","en":"Kuřim"}},{"name":"Kyjov","state_code":"64","latitude":"49.01018000","longitude":"17.12253000","population":10645,"timezone":"Europe/Prague","type":"city","translations":{"es":"Kyjov","en":"Kyjov"}},{"name":"Lanžhot","state_code":"64","latitude":"48.72443000","longitude":"16.96695000","population":3637,"timezone":"Europe/Prague","type":"city","translations":{"es":"Lanžhot","en":"Lanžhot"}},{"name":"Lednice","state_code":"64","latitude":"48.79992000","longitude":"16.80339000","population":2355,"timezone":"Europe/Prague","type":"city","translations":{"es":"Lednice","en":"Lednice"}},{"name":"Lelekovice","state_code":"64","latitude":"49.29144000","longitude":"16.57874000","population":1476,"timezone":"Europe/Prague","type":"city","translations":{"es":"Lelekovice","en":"Lelekovice"}},{"name":"Letonice","state_code":"64","latitude":"49.17726000","longitude":"16.95913000","population":1377,"timezone":"Europe/Prague","type":"city","translations":{"es":"Letonice","en":"Letonice"}},{"name":"Letovice","state_code":"64","latitude":"49.54709000","longitude":"16.57357000","population":7124,"timezone":"Europe/Prague","type":"city","translations":{"es":"Letovice","en":"Letovice"}},{"name":"Lipov","state_code":"64","latitude":"48.90495000","longitude":"17.46171000","population":1437,"timezone":"Europe/Prague","type":"city","translations":{"es":"Lipov","en":"Lipov"}},{"name":"Lipovec","state_code":"64","latitude":"49.38394000","longitude":"16.80583000","population":1199,"timezone":"Europe/Prague","type":"city","translations":{"es":"Lipovec","en":"Lipovec"}},{"name":"Lipůvka","state_code":"64","latitude":"49.33933000","longitude":"16.55313000","population":1135,"timezone":"Europe/Prague","type":"city","translations":{"es":"Lipůvka","en":"Lipůvka"}},{"name":"Lomnice","state_code":"64","latitude":"49.40462000","longitude":"16.41359000","population":1483,"timezone":"Europe/Prague","type":"city","translations":{"es":"Lomnice","en":"Lomnice"}},{"name":"Louka","state_code":"64","latitude":"48.91517000","longitude":"17.48927000","population":929,"timezone":"Europe/Prague","type":"city","translations":{"es":"Louka","en":"Louka"}},{"name":"Lužice","state_code":"64","latitude":"48.84098000","longitude":"17.07104000","population":2750,"timezone":"Europe/Prague","type":"city","translations":{"es":"Luzice","en":"Lužice"}},{"name":"Lysice","state_code":"64","latitude":"49.45160000","longitude":"16.53716000","population":1966,"timezone":"Europe/Prague","type":"city","translations":{"es":"Lisice","en":"Lysice"}},{"name":"Měnín","state_code":"64","latitude":"49.08240000","longitude":"16.69424000","population":1657,"timezone":"Europe/Prague","type":"city","translations":{"es":"Menín","en":"Měnín"}},{"name":"Město Brno","state_code":"64","latitude":"49.19954000","longitude":"16.60755000","population":null,"timezone":"Europe/Prague","type":"city","translations":{"es":"Mesto Brno","en":"Město Brno"}},{"name":"Mikulčice","state_code":"64","latitude":"48.81643000","longitude":"17.05107000","population":1881,"timezone":"Europe/Prague","type":"city","translations":{"es":"Mikulčice","en":"Mikulčice"}},{"name":"Mikulov","state_code":"64","latitude":"48.80556000","longitude":"16.63780000","population":7577,"timezone":"Europe/Prague","type":"city","translations":{"es":"Mikulov","en":"Mikulov"}},{"name":"Milotice","state_code":"64","latitude":"48.95528000","longitude":"17.14241000","population":1941,"timezone":"Europe/Prague","type":"city","translations":{"es":"Milotiz","en":"Milotice"}},{"name":"Miroslav","state_code":"64","latitude":"48.94767000","longitude":"16.31252000","population":3054,"timezone":"Europe/Prague","type":"city","translations":{"es":"Miroslav","en":"Miroslav"}},{"name":"Modřice","state_code":"64","latitude":"49.11928000","longitude":"16.60446000","population":3866,"timezone":"Europe/Prague","type":"city","translations":{"es":"Modřice","en":"Modřice"}},{"name":"Mokrá Hora","state_code":"64","latitude":"49.26176000","longitude":"16.59107000","population":2612,"timezone":"Europe/Prague","type":"city","translations":{"es":"Mokrá Hora","en":"Mokrá Hora"}},{"name":"Moravany","state_code":"64","latitude":"49.14780000","longitude":"16.58026000","population":1286,"timezone":"Europe/Prague","type":"city","translations":{"es":"Moravany","en":"Moravany"}},{"name":"Moravská Nová Ves","state_code":"64","latitude":"48.80304000","longitude":"17.01371000","population":2659,"timezone":"Europe/Prague","type":"city","translations":{"es":"Moravská Nová Ves","en":"Moravská Nová Ves"}},{"name":"Moravský Krumlov","state_code":"64","latitude":"49.04893000","longitude":"16.31169000","population":5667,"timezone":"Europe/Prague","type":"city","translations":{"es":"Moravský Krumlov","en":"Moravský Krumlov"}},{"name":"Moravský Písek","state_code":"64","latitude":"48.99016000","longitude":"17.33269000","population":2201,"timezone":"Europe/Prague","type":"city","translations":{"es":"Moravský Písek","en":"Moravský Písek"}},{"name":"Moravský Žižkov","state_code":"64","latitude":"48.83285000","longitude":"16.93140000","population":1396,"timezone":"Europe/Prague","type":"city","translations":{"es":"Moravský Žižkov","en":"Moravský Žižkov"}},{"name":"Moutnice","state_code":"64","latitude":"49.04924000","longitude":"16.73741000","population":1139,"timezone":"Europe/Prague","type":"city","translations":{"es":"Moutnice","en":"Moutnice"}},{"name":"Mutěnice","state_code":"64","latitude":"48.90413000","longitude":"17.02917000","population":3647,"timezone":"Europe/Prague","type":"city","translations":{"es":"Mutěnice","en":"Mutěnice"}},{"name":"Nedvědice","state_code":"64","latitude":"49.45702000","longitude":"16.33406000","population":1277,"timezone":"Europe/Prague","type":"city","translations":{"es":"Nedvědice","en":"Nedvědice"}},{"name":"Nesovice","state_code":"64","latitude":"49.15111000","longitude":"17.08095000","population":1152,"timezone":"Europe/Prague","type":"city","translations":{"es":"Nesovice","en":"Nesovice"}},{"name":"Nosislav","state_code":"64","latitude":"49.01380000","longitude":"16.65431000","population":1379,"timezone":"Europe/Prague","type":"city","translations":{"es":"Nosislav","en":"Nosislav"}},{"name":"Novosedly","state_code":"64","latitude":"48.83704000","longitude":"16.49273000","population":1162,"timezone":"Europe/Prague","type":"city","translations":{"es":"Novosedly","en":"Novosedly"}},{"name":"Okres Blansko","state_code":"64","latitude":"49.37399000","longitude":"16.64360000","population":111267,"timezone":"Europe/Prague","type":"city","translations":{"es":"Distrito Blansko","en":"Okres Blansko"}},{"name":"Okres Břeclav","state_code":"64","latitude":"48.75958000","longitude":"16.87260000","population":118084,"timezone":"Europe/Prague","type":"city","translations":{"es":"Distritos de Břeclav","en":"Okres Břeclav"}},{"name":"Okres Brno-venkov","state_code":"64","latitude":"49.16667000","longitude":"16.50000000","population":null,"timezone":"Europe/Prague","type":"city","translations":{"es":"Okres Brno-venkov","en":"Okres Brno-venkov"}},{"name":"Okres Hodonín","state_code":"64","latitude":"48.86471000","longitude":"17.13284000","population":150954,"timezone":"Europe/Prague","type":"city","translations":{"es":"Distrito de Hodonín","en":"Okres Hodonín"}},{"name":"Okres Vyškov","state_code":"64","latitude":"49.27844000","longitude":"16.99362000","population":95637,"timezone":"Europe/Prague","type":"city","translations":{"es":"Distrito Vyškov","en":"Okres Vyškov"}},{"name":"Okres Znojmo","state_code":"64","latitude":"48.86200000","longitude":"16.06270000","population":116047,"timezone":"Europe/Prague","type":"city","translations":{"es":"Distrito de Znojmo","en":"Okres Znojmo"}},{"name":"Olbramovice","state_code":"64","latitude":"48.98480000","longitude":"16.40239000","population":1163,"timezone":"Europe/Prague","type":"city","translations":{"es":"Olbramovice","en":"Olbramovice"}},{"name":"Olešnice","state_code":"64","latitude":"49.55755000","longitude":"16.42169000","population":1620,"timezone":"Europe/Prague","type":"city","translations":{"es":"Olešnice","en":"Olešnice"}},{"name":"Ořechov","state_code":"64","latitude":"49.11118000","longitude":"16.52329000","population":2368,"timezone":"Europe/Prague","type":"city","translations":{"es":"Ořechov","en":"Ořechov"}},{"name":"Oslavany","state_code":"64","latitude":"49.12335000","longitude":"16.33653000","population":4873,"timezone":"Europe/Prague","type":"city","translations":{"es":"Oslavany","en":"Oslavany"}},{"name":"Ostopovice","state_code":"64","latitude":"49.16100000","longitude":"16.54548000","population":1367,"timezone":"Europe/Prague","type":"city","translations":{"es":"Ostopovice","en":"Ostopovice"}},{"name":"Ostrov u Macochy","state_code":"64","latitude":"49.38236000","longitude":"16.76268000","population":1092,"timezone":"Europe/Prague","type":"city","translations":{"es":"Ostrov u Macochy","en":"Ostrov u Macochy"}},{"name":"Otnice","state_code":"64","latitude":"49.08642000","longitude":"16.81443000","population":1411,"timezone":"Europe/Prague","type":"city","translations":{"es":"Otnice","en":"Otnice"}},{"name":"Petrov","state_code":"64","latitude":"48.88196000","longitude":"17.27810000","population":1354,"timezone":"Europe/Prague","type":"city","translations":{"es":"Petrov","en":"Petrov"}},{"name":"Podivín","state_code":"64","latitude":"48.82554000","longitude":"16.84822000","population":2938,"timezone":"Europe/Prague","type":"city","translations":{"es":"Podivín","en":"Podivín"}},{"name":"Podolí","state_code":"64","latitude":"49.19042000","longitude":"16.72084000","population":1165,"timezone":"Europe/Prague","type":"city","translations":{"es":"Podolí","en":"Podolí"}},{"name":"Pohořelice","state_code":"64","latitude":"48.98119000","longitude":"16.52445000","population":6126,"timezone":"Europe/Prague","type":"city","translations":{"es":"Pohořelice","en":"Pohořelice"}},{"name":"Pozořice","state_code":"64","latitude":"49.20976000","longitude":"16.79074000","population":2413,"timezone":"Europe/Prague","type":"city","translations":{"es":"Pozořice","en":"Pozořice"}},{"name":"Předklášteří","state_code":"64","latitude":"49.35253000","longitude":"16.40241000","population":1446,"timezone":"Europe/Prague","type":"city","translations":{"es":"Předklášteří","en":"Předklášteří"}},{"name":"Prušánky","state_code":"64","latitude":"48.82840000","longitude":"16.98068000","population":2183,"timezone":"Europe/Prague","type":"city","translations":{"es":"Prušánky","en":"Prušánky"}},{"name":"Pustiměř","state_code":"64","latitude":"49.32251000","longitude":"17.02792000","population":1852,"timezone":"Europe/Prague","type":"city","translations":{"es":"Pustiměř","en":"Pustiměř"}},{"name":"Rájec-Jestřebí","state_code":"64","latitude":"49.41094000","longitude":"16.63902000","population":3736,"timezone":"Europe/Prague","type":"city","translations":{"es":"Rájec-Jestřebí","en":"Rájec-Jestřebí"}},{"name":"Ráječko","state_code":"64","latitude":"49.39393000","longitude":"16.64497000","population":1367,"timezone":"Europe/Prague","type":"city","translations":{"es":"Ráječko","en":"Ráječko"}},{"name":"Rajhrad","state_code":"64","latitude":"49.09021000","longitude":"16.60388000","population":4136,"timezone":"Europe/Prague","type":"city","translations":{"es":"Rajhrad","en":"Rajhrad"}},{"name":"Rajhradice","state_code":"64","latitude":"49.09203000","longitude":"16.62933000","population":1514,"timezone":"Europe/Prague","type":"city","translations":{"es":"Rajhradice","en":"Rajhradice"}},{"name":"Rakvice","state_code":"64","latitude":"48.85811000","longitude":"16.81330000","population":2162,"timezone":"Europe/Prague","type":"city","translations":{"es":"Rakvice","en":"Rakvice"}},{"name":"Ratíškovice","state_code":"64","latitude":"48.92002000","longitude":"17.16561000","population":3955,"timezone":"Europe/Prague","type":"city","translations":{"es":"Ratíškovice","en":"Ratíškovice"}},{"name":"Říčany","state_code":"64","latitude":"49.21497000","longitude":"16.39362000","population":2088,"timezone":"Europe/Prague","type":"city","translations":{"es":"Říčany","en":"Říčany"}},{"name":"Rohatec","state_code":"64","latitude":"48.88040000","longitude":"17.18330000","population":3413,"timezone":"Europe/Prague","type":"city","translations":{"es":"Rohatec","en":"Rohatec"}},{"name":"Rosice","state_code":"64","latitude":"49.18232000","longitude":"16.38787000","population":5287,"timezone":"Europe/Prague","type":"city","translations":{"es":"Rosice","en":"Rosice"}},{"name":"Rousínov","state_code":"64","latitude":"49.20128000","longitude":"16.88215000","population":5962,"timezone":"Europe/Prague","type":"city","translations":{"es":"Rousínov","en":"Rousínov"}},{"name":"Šakvice","state_code":"64","latitude":"48.89746000","longitude":"16.71424000","population":1494,"timezone":"Europe/Prague","type":"city","translations":{"es":"Šakvice","en":"Šakvice"}},{"name":"Šanov","state_code":"64","latitude":"48.80089000","longitude":"16.37858000","population":1253,"timezone":"Europe/Prague","type":"city","translations":{"es":"Šanov","en":"Šanov"}},{"name":"Šardice","state_code":"64","latitude":"48.96403000","longitude":"17.02812000","population":2205,"timezone":"Europe/Prague","type":"city","translations":{"es":"Šardice","en":"Šardice"}},{"name":"Šatov","state_code":"64","latitude":"48.79317000","longitude":"16.00992000","population":1133,"timezone":"Europe/Prague","type":"city","translations":{"es":"Šatov","en":"Šatov"}},{"name":"Šitbořice","state_code":"64","latitude":"49.01433000","longitude":"16.77975000","population":1958,"timezone":"Europe/Prague","type":"city","translations":{"es":"Šitbořice","en":"Šitbořice"}},{"name":"Šlapanice","state_code":"64","latitude":"49.16863000","longitude":"16.72731000","population":7915,"timezone":"Europe/Prague","type":"adm3","translations":{"es":"Šlapanice","en":"Šlapanice"}},{"name":"Slavkov u Brna","state_code":"64","latitude":"49.15325000","longitude":"16.87649000","population":7258,"timezone":"Europe/Prague","type":"city","translations":{"es":"Slavkov en Brna","en":"Slavkov u Brna"}},{"name":"Sokolnice","state_code":"64","latitude":"49.11392000","longitude":"16.72156000","population":1761,"timezone":"Europe/Prague","type":"city","translations":{"es":"Sokolnice","en":"Sokolnice"}},{"name":"Strážnice","state_code":"64","latitude":"48.90102000","longitude":"17.31680000","population":5311,"timezone":"Europe/Prague","type":"city","translations":{"es":"Strážnice","en":"Strážnice"}},{"name":"Střelice","state_code":"64","latitude":"49.15221000","longitude":"16.50399000","population":3103,"timezone":"Europe/Prague","type":"city","translations":{"es":"Střelice","en":"Střelice"}},{"name":"Suchohrdly","state_code":"64","latitude":"48.86822000","longitude":"16.09471000","population":1010,"timezone":"Europe/Prague","type":"city","translations":{"es":"Suchohrdly","en":"Suchohrdly"}},{"name":"Sudoměřice","state_code":"64","latitude":"48.86723000","longitude":"17.25676000","population":1206,"timezone":"Europe/Prague","type":"city","translations":{"es":"Sudoměřice","en":"Sudoměřice"}},{"name":"Svitávka","state_code":"64","latitude":"49.50178000","longitude":"16.59793000","population":1925,"timezone":"Europe/Prague","type":"city","translations":{"es":"Svitávka","en":"Svitávka"}},{"name":"Tasovice","state_code":"64","latitude":"48.83610000","longitude":"16.15558000","population":1221,"timezone":"Europe/Prague","type":"city","translations":{"es":"Tasovice","en":"Tasovice"}},{"name":"Telnice","state_code":"64","latitude":"49.10187000","longitude":"16.71774000","population":1296,"timezone":"Europe/Prague","type":"city","translations":{"es":"Telnice","en":"Telnice"}},{"name":"Těšany","state_code":"64","latitude":"49.03956000","longitude":"16.77003000","population":1155,"timezone":"Europe/Prague","type":"city","translations":{"es":"Těšany","en":"Těšany"}},{"name":"Tišnov","state_code":"64","latitude":"49.34872000","longitude":"16.42438000","population":9225,"timezone":"Europe/Prague","type":"city","translations":{"es":"Tišnov","en":"Tišnov"}},{"name":"Troubsko","state_code":"64","latitude":"49.16951000","longitude":"16.51078000","population":1822,"timezone":"Europe/Prague","type":"city","translations":{"es":"Troubsko","en":"Troubsko"}},{"name":"Tvarožná","state_code":"64","latitude":"49.19177000","longitude":"16.77146000","population":1159,"timezone":"Europe/Prague","type":"adm3","translations":{"es":"Tvarožná","en":"Tvarožná"}},{"name":"Tvrdonice","state_code":"64","latitude":"48.76048000","longitude":"16.99446000","population":2042,"timezone":"Europe/Prague","type":"city","translations":{"es":"Tvrdonice","en":"Tvrdonice"}},{"name":"Týnec","state_code":"64","latitude":"48.77943000","longitude":"17.01322000","population":1021,"timezone":"Europe/Prague","type":"city","translations":{"es":"Týnec","en":"Týnec"}},{"name":"Únanov","state_code":"64","latitude":"48.90082000","longitude":"16.06351000","population":1093,"timezone":"Europe/Prague","type":"city","translations":{"es":"Únanov","en":"Únanov"}},{"name":"Vacenovice","state_code":"64","latitude":"48.94510000","longitude":"17.17404000","population":2157,"timezone":"Europe/Prague","type":"city","translations":{"es":"Vacenovice","en":"Vacenovice"}},{"name":"Valtice","state_code":"64","latitude":"48.74069000","longitude":"16.75499000","population":3580,"timezone":"Europe/Prague","type":"city","translations":{"es":"Valtice","en":"Valtice"}},{"name":"Velká nad Veličkou","state_code":"64","latitude":"48.88257000","longitude":"17.52060000","population":3149,"timezone":"Europe/Prague","type":"city","translations":{"es":"Velká nad Veličkou","en":"Velká nad Veličkou"}},{"name":"Velké Bílovice","state_code":"64","latitude":"48.84929000","longitude":"16.89227000","population":3854,"timezone":"Europe/Prague","type":"city","translations":{"es":"Velké Bílovice","en":"Velké Bílovice"}},{"name":"Velké Němčice","state_code":"64","latitude":"48.99168000","longitude":"16.67208000","population":1654,"timezone":"Europe/Prague","type":"city","translations":{"es":"Velké Němčice","en":"Velké Němčice"}},{"name":"Velké Opatovice","state_code":"64","latitude":"49.61237000","longitude":"16.67947000","population":3457,"timezone":"Europe/Prague","type":"city","translations":{"es":"Velké Opatovice","en":"Velké Opatovice"}},{"name":"Velké Pavlovice","state_code":"64","latitude":"48.90469000","longitude":"16.81605000","population":3100,"timezone":"Europe/Prague","type":"city","translations":{"es":"Velké Pavlovice","en":"Velké Pavlovice"}},{"name":"Veselí nad Moravou","state_code":"64","latitude":"48.95363000","longitude":"17.37648000","population":10623,"timezone":"Europe/Prague","type":"city","translations":{"es":"Veselí nad Moravou","en":"Veselí nad Moravou"}},{"name":"Veverská Bítýška","state_code":"64","latitude":"49.27591000","longitude":"16.43686000","population":3512,"timezone":"Europe/Prague","type":"city","translations":{"es":"Veverská Bítýška","en":"Veverská Bítýška"}},{"name":"Viničné Šumice","state_code":"64","latitude":"49.21358000","longitude":"16.82541000","population":1065,"timezone":"Europe/Prague","type":"city","translations":{"es":"Viničné Šumice","en":"Viničné Šumice"}},{"name":"Višňové","state_code":"64","latitude":"48.98241000","longitude":"16.15025000","population":1076,"timezone":"Europe/Prague","type":"city","translations":{"es":"Višňové","en":"Višňové"}},{"name":"Vlkoš","state_code":"64","latitude":"48.98960000","longitude":"17.16356000","population":1052,"timezone":"Europe/Prague","type":"city","translations":{"es":"Vlkoš","en":"Vlkoš"}},{"name":"Vnorovy","state_code":"64","latitude":"48.93096000","longitude":"17.35050000","population":3062,"timezone":"Europe/Prague","type":"city","translations":{"es":"Vnorovy","en":"Vnorovy"}},{"name":"Vojkovice","state_code":"64","latitude":"49.05138000","longitude":"16.60820000","population":1032,"timezone":"Europe/Prague","type":"city","translations":{"es":"Vojkovice","en":"Vojkovice"}},{"name":"Vracov","state_code":"64","latitude":"48.97523000","longitude":"17.21100000","population":4496,"timezone":"Europe/Prague","type":"city","translations":{"es":"Vracov","en":"Vracov"}},{"name":"Vranovice","state_code":"64","latitude":"48.96600000","longitude":"16.60660000","population":2460,"timezone":"Europe/Prague","type":"city","translations":{"es":"Vranovice","en":"Vranovice"}},{"name":"Vrbice","state_code":"64","latitude":"48.91508000","longitude":"16.89779000","population":1050,"timezone":"Europe/Prague","type":"city","translations":{"es":"Vrbice","en":"Vrbice"}},{"name":"Vrbovec","state_code":"64","latitude":"48.79978000","longitude":"16.10061000","population":1103,"timezone":"Europe/Prague","type":"city","translations":{"es":"Vrbovec","en":"Vrbovec"}},{"name":"Vyškov","state_code":"64","latitude":"49.27747000","longitude":"16.99897000","population":20645,"timezone":"Europe/Prague","type":"city","translations":{"es":"Vyškov","en":"Vyškov"}},{"name":"Žabčice","state_code":"64","latitude":"49.01160000","longitude":"16.60257000","population":1492,"timezone":"Europe/Prague","type":"city","translations":{"es":"Žabčice","en":"Žabčice"}},{"name":"Zaječí","state_code":"64","latitude":"48.87295000","longitude":"16.76646000","population":1492,"timezone":"Europe/Prague","type":"city","translations":{"es":"Zaječí","en":"Zaječí"}},{"name":"Zastávka","state_code":"64","latitude":"49.18800000","longitude":"16.36310000","population":2405,"timezone":"Europe/Prague","type":"city","translations":{"es":"Zastávka","en":"Zastávka"}},{"name":"Zbraslav","state_code":"64","latitude":"49.22155000","longitude":"16.29415000","population":1285,"timezone":"Europe/Prague","type":"city","translations":{"es":"Zbraslav","en":"Zbraslav"}},{"name":"Zbýšov","state_code":"64","latitude":"49.15524000","longitude":"16.34951000","population":3671,"timezone":"Europe/Prague","type":"city","translations":{"es":"Zbýšov","en":"Zbýšov"}},{"name":"Ždánice","state_code":"64","latitude":"49.06729000","longitude":"17.02751000","population":2543,"timezone":"Europe/Prague","type":"city","translations":{"es":"Ždánice","en":"Ždánice"}},{"name":"Želešice","state_code":"64","latitude":"49.11689000","longitude":"16.58137000","population":1284,"timezone":"Europe/Prague","type":"city","translations":{"es":"Želešice","en":"Želešice"}},{"name":"Žeravice","state_code":"64","latitude":"49.02288000","longitude":"17.23726000","population":1043,"timezone":"Europe/Prague","type":"city","translations":{"es":"Žeravice","en":"Žeravice"}},{"name":"Židlochovice","state_code":"64","latitude":"49.03952000","longitude":"16.61881000","population":3676,"timezone":"Europe/Prague","type":"city","translations":{"es":"Židlochovice","en":"Židlochovice"}},{"name":"Znojmo","state_code":"64","latitude":"48.85550000","longitude":"16.04880000","population":34172,"timezone":"Europe/Prague","type":"adm2","translations":{"es":"Znojmo","en":"Znojmo"}},{"name":"Abertamy","state_code":"41","latitude":"50.36874000","longitude":"12.81826000","population":1315,"timezone":"Europe/Prague","type":"city","translations":{"es":"Abertamy","en":"Abertamy"}},{"name":"Aš","state_code":"41","latitude":"50.22387000","longitude":"12.19499000","population":12684,"timezone":"Europe/Prague","type":"city","translations":{"es":"Como","en":"Aš"}},{"name":"Bochov","state_code":"41","latitude":"50.14872000","longitude":"13.05227000","population":1874,"timezone":"Europe/Prague","type":"city","translations":{"es":"Bochov","en":"Bochov"}},{"name":"Březová","state_code":"41","latitude":"50.14557000","longitude":"12.64996000","population":2826,"timezone":"Europe/Prague","type":"city","translations":{"es":"Březová","en":"Březová"}},{"name":"Bukovany","state_code":"41","latitude":"50.16632000","longitude":"12.57265000","population":1808,"timezone":"Europe/Prague","type":"city","translations":{"es":"Bukovany","en":"Bukovany"}},{"name":"Cheb","state_code":"41","latitude":"50.07963000","longitude":"12.37392000","population":32808,"timezone":"Europe/Prague","type":"city","translations":{"es":"Cheb","en":"Cheb"}},{"name":"Chodov","state_code":"41","latitude":"50.24018000","longitude":"12.74551000","population":12609,"timezone":"Europe/Prague","type":"city","translations":{"es":"Chodov","en":"Chodov"}},{"name":"Dalovice","state_code":"41","latitude":"50.24779000","longitude":"12.89581000","population":1880,"timezone":"Europe/Prague","type":"city","translations":{"es":"Dalovice","en":"Dalovice"}},{"name":"Dolní Rychnov","state_code":"41","latitude":"50.16462000","longitude":"12.64507000","population":1337,"timezone":"Europe/Prague","type":"city","translations":{"es":"Dolní Rychnov","en":"Dolní Rychnov"}},{"name":"Dolní Žandov","state_code":"41","latitude":"50.01794000","longitude":"12.55101000","population":1204,"timezone":"Europe/Prague","type":"city","translations":{"es":"Dolní Žandov","en":"Dolní Žandov"}},{"name":"Františkovy Lázně","state_code":"41","latitude":"50.12033000","longitude":"12.35174000","population":5607,"timezone":"Europe/Prague","type":"city","translations":{"es":"Františkovy Lázně","en":"Františkovy Lázně"}},{"name":"Habartov","state_code":"41","latitude":"50.18297000","longitude":"12.55054000","population":4691,"timezone":"Europe/Prague","type":"city","translations":{"es":"Habartov","en":"Habartov"}},{"name":"Hazlov","state_code":"41","latitude":"50.15634000","longitude":"12.27238000","population":1583,"timezone":"Europe/Prague","type":"city","translations":{"es":"Hazlov","en":"Hazlov"}},{"name":"Horní Slavkov","state_code":"41","latitude":"50.13863000","longitude":"12.80758000","population":5309,"timezone":"Europe/Prague","type":"city","translations":{"es":"Horní Slavkov","en":"Horní Slavkov"}},{"name":"Hranice","state_code":"41","latitude":"50.30459000","longitude":"12.17577000","population":2268,"timezone":"Europe/Prague","type":"city","translations":{"es":"Hranice","en":"Hranice"}},{"name":"Hroznětín","state_code":"41","latitude":"50.30940000","longitude":"12.87180000","population":1721,"timezone":"Europe/Prague","type":"city","translations":{"es":"Hroznětín","en":"Hroznětín"}},{"name":"Jáchymov","state_code":"41","latitude":"50.35846000","longitude":"12.93465000","population":3143,"timezone":"Europe/Prague","type":"city","translations":{"es":"Jáchymov","en":"Jáchymov"}},{"name":"Karlovy Vary","state_code":"41","latitude":"50.23271000","longitude":"12.87117000","population":49073,"timezone":"Europe/Prague","type":"adm1","translations":{"es":"Karlovy Vary","en":"Karlovy Vary"}},{"name":"Klášter","state_code":"41","latitude":"49.96762000","longitude":"12.87623000","population":3034,"timezone":"Europe/Prague","type":"city","translations":{"es":"Klášter","en":"Klášter"}},{"name":"Kraslice","state_code":"41","latitude":"50.32372000","longitude":"12.51747000","population":6432,"timezone":"Europe/Prague","type":"city","translations":{"es":"Kraslice","en":"Kraslice"}},{"name":"Kynšperk nad Ohří","state_code":"41","latitude":"50.11893000","longitude":"12.53027000","population":4527,"timezone":"Europe/Prague","type":"city","translations":{"es":"Kynšperk nad Ohří","en":"Kynšperk nad Ohří"}},{"name":"Lázně Kynžvart","state_code":"41","latitude":"50.01058000","longitude":"12.62474000","population":1403,"timezone":"Europe/Prague","type":"city","translations":{"es":"Lázně Kynžvart","en":"Lázně Kynžvart"}},{"name":"Loket","state_code":"41","latitude":"50.18600000","longitude":"12.75405000","population":3050,"timezone":"Europe/Prague","type":"city","translations":{"es":"Loket","en":"Loket"}},{"name":"Lomnice","state_code":"41","latitude":"50.21174000","longitude":"12.63267000","population":1138,"timezone":"Europe/Prague","type":"city","translations":{"es":"Lomnice","en":"Lomnice"}},{"name":"Luby","state_code":"41","latitude":"50.25248000","longitude":"12.40595000","population":2191,"timezone":"Europe/Prague","type":"city","translations":{"es":"Luby","en":"Luby"}},{"name":"Mariánské Lázně","state_code":"41","latitude":"49.96459000","longitude":"12.70118000","population":14052,"timezone":"Europe/Prague","type":"city","translations":{"es":"Lázně de Mariánské","en":"Mariánské Lázně"}},{"name":"Merklín","state_code":"41","latitude":"50.32808000","longitude":"12.86350000","population":1117,"timezone":"Europe/Prague","type":"city","translations":{"es":"Merklín","en":"Merklín"}},{"name":"Město","state_code":"41","latitude":"49.97997000","longitude":"12.86432000","population":null,"timezone":"Europe/Prague","type":"city","translations":{"es":"Mesto","en":"Město"}},{"name":"Nejdek","state_code":"41","latitude":"50.32242000","longitude":"12.72936000","population":7733,"timezone":"Europe/Prague","type":"city","translations":{"es":"Nejdek","en":"Nejdek"}},{"name":"Nová Role","state_code":"41","latitude":"50.27092000","longitude":"12.78422000","population":4277,"timezone":"Europe/Prague","type":"city","translations":{"es":"Nuevo rol","en":"Nová Role"}},{"name":"Nové Sedlo","state_code":"41","latitude":"50.20647000","longitude":"12.73800000","population":2527,"timezone":"Europe/Prague","type":"city","translations":{"es":"Nuevo Sedlo","en":"Nové Sedlo"}},{"name":"Okres Cheb","state_code":"41","latitude":"50.08333000","longitude":"12.50000000","population":93536,"timezone":"Europe/Prague","type":"city","translations":{"es":"Distrito Cheb","en":"Okres Cheb"}},{"name":"Okres Karlovy Vary","state_code":"41","latitude":"50.16667000","longitude":"13.00000000","population":114567,"timezone":"Europe/Prague","type":"city","translations":{"es":"Distrito de Karlovy Vary","en":"Okres Karlovy Vary"}},{"name":"Okres Sokolov","state_code":"41","latitude":"50.21667000","longitude":"12.63333000","population":85092,"timezone":"Europe/Prague","type":"city","translations":{"es":"Distrito Sokolov","en":"Okres Sokolov"}},{"name":"Oloví","state_code":"41","latitude":"50.25113000","longitude":"12.55877000","population":1651,"timezone":"Europe/Prague","type":"city","translations":{"es":"Oloví","en":"Oloví"}},{"name":"Ostrov","state_code":"41","latitude":"50.30592000","longitude":"12.93907000","population":15681,"timezone":"Europe/Prague","type":"city","translations":{"es":"Ostrov","en":"Ostrov"}},{"name":"Plesná","state_code":"41","latitude":"50.22070000","longitude":"12.34669000","population":1886,"timezone":"Europe/Prague","type":"city","translations":{"es":"Plesná","en":"Plesná"}},{"name":"Rotava","state_code":"41","latitude":"50.29627000","longitude":"12.57341000","population":2778,"timezone":"Europe/Prague","type":"city","translations":{"es":"Rotava","en":"Rotava"}},{"name":"Sadov","state_code":"41","latitude":"50.26711000","longitude":"12.89708000","population":1016,"timezone":"Europe/Prague","type":"city","translations":{"es":"Sadov","en":"Sadov"}},{"name":"Skalná","state_code":"41","latitude":"50.17030000","longitude":"12.36144000","population":1892,"timezone":"Europe/Prague","type":"city","translations":{"es":"Skalná","en":"Skalná"}},{"name":"Sokolov","state_code":"41","latitude":"50.18130000","longitude":"12.64010000","population":22007,"timezone":"Europe/Prague","type":"city","translations":{"es":"Sokolov","en":"Sokolov"}},{"name":"Svatava","state_code":"41","latitude":"50.19223000","longitude":"12.62524000","population":1619,"timezone":"Europe/Prague","type":"city","translations":{"es":"Svatava","en":"Svatava"}},{"name":"Toužim","state_code":"41","latitude":"50.06049000","longitude":"12.98506000","population":3465,"timezone":"Europe/Prague","type":"city","translations":{"es":"Toužim","en":"Toužim"}},{"name":"Velká Hleďsebe","state_code":"41","latitude":"49.96151000","longitude":"12.66763000","population":2164,"timezone":"Europe/Prague","type":"city","translations":{"es":"Velká Hleďsebe","en":"Velká Hleďsebe"}},{"name":"Vintířov","state_code":"41","latitude":"50.23382000","longitude":"12.71748000","population":1132,"timezone":"Europe/Prague","type":"city","translations":{"es":"Vintířov","en":"Vintířov"}},{"name":"Žlutice","state_code":"41","latitude":"50.09192000","longitude":"13.16297000","population":2817,"timezone":"Europe/Prague","type":"city","translations":{"es":"Žlutice","en":"Žlutice"}},{"name":"Batelov","state_code":"63","latitude":"49.31425000","longitude":"15.39465000","population":2437,"timezone":"Europe/Prague","type":"city","translations":{"es":"Batelov","en":"Batelov"}},{"name":"Bohdalov","state_code":"63","latitude":"49.47921000","longitude":"15.87582000","population":1197,"timezone":"Europe/Prague","type":"city","translations":{"es":"Bohdalov","en":"Bohdalov"}},{"name":"Brtnice","state_code":"63","latitude":"49.30695000","longitude":"15.67642000","population":3817,"timezone":"Europe/Prague","type":"city","translations":{"es":"Brtnice","en":"Brtnice"}},{"name":"Budišov","state_code":"63","latitude":"49.27138000","longitude":"16.00383000","population":1197,"timezone":"Europe/Prague","type":"city","translations":{"es":"Budišov","en":"Budišov"}},{"name":"Bystřice nad Pernštejnem","state_code":"63","latitude":"49.52295000","longitude":"16.26147000","population":7871,"timezone":"Europe/Prague","type":"city","translations":{"es":"Bystřice nad Pernštejnem","en":"Bystřice nad Pernštejnem"}},{"name":"Černovice","state_code":"63","latitude":"49.37265000","longitude":"14.96089000","population":1769,"timezone":"Europe/Prague","type":"city","translations":{"es":"Černovice","en":"Černovice"}},{"name":"Chotěboř","state_code":"63","latitude":"49.72072000","longitude":"15.67018000","population":9092,"timezone":"Europe/Prague","type":"city","translations":{"es":"Chotěboř","en":"Chotěboř"}},{"name":"Dobronín","state_code":"63","latitude":"49.47833000","longitude":"15.64992000","population":1913,"timezone":"Europe/Prague","type":"city","translations":{"es":"Dobronín","en":"Dobronín"}},{"name":"Dolní Cerekev","state_code":"63","latitude":"49.34449000","longitude":"15.45655000","population":1233,"timezone":"Europe/Prague","type":"city","translations":{"es":"Dolní Cerekev","en":"Dolní Cerekev"}},{"name":"Golčův Jeníkov","state_code":"63","latitude":"49.81626000","longitude":"15.47686000","population":2821,"timezone":"Europe/Prague","type":"city","translations":{"es":"Golčův Jeníkov","en":"Golčův Jeníkov"}},{"name":"Habry","state_code":"63","latitude":"49.75603000","longitude":"15.48486000","population":1309,"timezone":"Europe/Prague","type":"city","translations":{"es":"Habry","en":"Habry"}},{"name":"Havlíčkův Brod","state_code":"63","latitude":"49.60690000","longitude":"15.57937000","population":23791,"timezone":"Europe/Prague","type":"city","translations":{"es":"Havlíčkův Brod","en":"Havlíčkův Brod"}},{"name":"Herálec","state_code":"63","latitude":"49.68891000","longitude":"15.99431000","population":1269,"timezone":"Europe/Prague","type":"city","translations":{"es":"Herálec","en":"Herálec"}},{"name":"Horní Cerekev","state_code":"63","latitude":"49.32026000","longitude":"15.32769000","population":1871,"timezone":"Europe/Prague","type":"city","translations":{"es":"Horní Cerekev","en":"Horní Cerekev"}},{"name":"Hrotovice","state_code":"63","latitude":"49.10770000","longitude":"16.06067000","population":1784,"timezone":"Europe/Prague","type":"city","translations":{"es":"Hrotovice","en":"Hrotovice"}},{"name":"Humpolec","state_code":"63","latitude":"49.54152000","longitude":"15.35932000","population":11522,"timezone":"Europe/Prague","type":"city","translations":{"es":"Humpolec","en":"Humpolec"}},{"name":"Jaroměřice nad Rokytnou","state_code":"63","latitude":"49.09408000","longitude":"15.89331000","population":4087,"timezone":"Europe/Prague","type":"city","translations":{"es":"Jaroměřice nad Rokytnou","en":"Jaroměřice nad Rokytnou"}},{"name":"Jemnice","state_code":"63","latitude":"49.01898000","longitude":"15.56994000","population":3964,"timezone":"Europe/Prague","type":"city","translations":{"es":"Jemnice","en":"Jemnice"}},{"name":"Jihlava","state_code":"63","latitude":"49.39610000","longitude":"15.59124000","population":54624,"timezone":"Europe/Prague","type":"adm1","translations":{"es":"Jihlava","en":"Jihlava"}},{"name":"Jimramov","state_code":"63","latitude":"49.63719000","longitude":"16.22632000","population":1176,"timezone":"Europe/Prague","type":"city","translations":{"es":"Jimramov","en":"Jimramov"}},{"name":"Kamenice","state_code":"63","latitude":"49.36659000","longitude":"15.78023000","population":1994,"timezone":"Europe/Prague","type":"city","translations":{"es":"Kamenice","en":"Kamenice"}},{"name":"Kamenice nad Lipou","state_code":"63","latitude":"49.30303000","longitude":"15.07519000","population":3651,"timezone":"Europe/Prague","type":"city","translations":{"es":"Kamenice nad Lipou","en":"Kamenice nad Lipou"}},{"name":"Kněžice","state_code":"63","latitude":"49.27078000","longitude":"15.67216000","population":1455,"timezone":"Europe/Prague","type":"city","translations":{"es":"Kněžice","en":"Kněžice"}},{"name":"Křižanov","state_code":"63","latitude":"49.38858000","longitude":"16.10960000","population":1827,"timezone":"Europe/Prague","type":"city","translations":{"es":"Křižanov","en":"Křižanov"}},{"name":"Křížová","state_code":"63","latitude":"49.68841000","longitude":"15.85207000","population":1630,"timezone":"Europe/Prague","type":"city","translations":{"es":"Křížová","en":"Křížová"}},{"name":"Ledeč nad Sázavou","state_code":"63","latitude":"49.69517000","longitude":"15.27772000","population":6048,"timezone":"Europe/Prague","type":"city","translations":{"es":"Ledeč nad Sázavou","en":"Ledeč nad Sázavou"}},{"name":"Lípa","state_code":"63","latitude":"49.55418000","longitude":"15.54465000","population":1020,"timezone":"Europe/Prague","type":"city","translations":{"es":"Lipa","en":"Lípa"}},{"name":"Luka nad Jihlavou","state_code":"63","latitude":"49.37403000","longitude":"15.70194000","population":3172,"timezone":"Europe/Prague","type":"city","translations":{"es":"Luka nad Jihlavou","en":"Luka nad Jihlavou"}},{"name":"Lukavec","state_code":"63","latitude":"49.56541000","longitude":"14.99041000","population":991,"timezone":"Europe/Prague","type":"city","translations":{"es":"Lukavec","en":"Lukavec"}},{"name":"Měřín","state_code":"63","latitude":"49.39321000","longitude":"15.88381000","population":2011,"timezone":"Europe/Prague","type":"city","translations":{"es":"Meřín","en":"Měřín"}},{"name":"Mohelno","state_code":"63","latitude":"49.11412000","longitude":"16.19022000","population":1386,"timezone":"Europe/Prague","type":"city","translations":{"es":"Mohelno","en":"Mohelno"}},{"name":"Moravské Budějovice","state_code":"63","latitude":"49.05209000","longitude":"15.80864000","population":7098,"timezone":"Europe/Prague","type":"city","translations":{"es":"Moravské Budějovice","en":"Moravské Budějovice"}},{"name":"Náměšť nad Oslavou","state_code":"63","latitude":"49.20726000","longitude":"16.15849000","population":4767,"timezone":"Europe/Prague","type":"city","translations":{"es":"Náměšť nad Oslavou","en":"Náměšť nad Oslavou"}},{"name":"Nová Cerekev","state_code":"63","latitude":"49.41723000","longitude":"15.11675000","population":1177,"timezone":"Europe/Prague","type":"city","translations":{"es":"Nueva Cerekev","en":"Nová Cerekev"}},{"name":"Nové Město na Moravě","state_code":"63","latitude":"49.56144000","longitude":"16.07418000","population":9834,"timezone":"Europe/Prague","type":"city","translations":{"es":"Nové Město na Moravě","en":"Nové Město na Moravě"}},{"name":"Nové Syrovice","state_code":"63","latitude":"49.01763000","longitude":"15.77345000","population":1007,"timezone":"Europe/Prague","type":"city","translations":{"es":"Nueva Syrovice","en":"Nové Syrovice"}},{"name":"Nové Veselí","state_code":"63","latitude":"49.51976000","longitude":"15.90853000","population":1356,"timezone":"Europe/Prague","type":"city","translations":{"es":"Nové Veselí","en":"Nové Veselí"}},{"name":"Okres Havlíčkův Brod","state_code":"63","latitude":"49.66667000","longitude":"15.58333000","population":95877,"timezone":"Europe/Prague","type":"city","translations":{"es":"Okres Havlíčkův Brod","en":"Okres Havlíčkův Brod"}},{"name":"Okres Jihlava","state_code":"63","latitude":"49.33333000","longitude":"15.58333000","population":null,"timezone":"Europe/Prague","type":"city","translations":{"es":"Distrito de Jihlava","en":"Okres Jihlava"}},{"name":"Okres Pelhřimov","state_code":"63","latitude":"49.41667000","longitude":"15.16667000","population":74218,"timezone":"Europe/Prague","type":"city","translations":{"es":"Okres Pelhřimov","en":"Okres Pelhřimov"}},{"name":"Okres Třebíč","state_code":"63","latitude":"49.13333000","longitude":"15.93333000","population":110209,"timezone":"Europe/Prague","type":"city","translations":{"es":"Okres Třebíč","en":"Okres Třebíč"}},{"name":"Okres Žďár nad Sázavou","state_code":"63","latitude":"49.50000000","longitude":"16.03333000","population":118878,"timezone":"Europe/Prague","type":"city","translations":{"es":"Okres Žďár nad Sázavou","en":"Okres Žďár nad Sázavou"}},{"name":"Okříšky","state_code":"63","latitude":"49.24539000","longitude":"15.76959000","population":2018,"timezone":"Europe/Prague","type":"city","translations":{"es":"Okříšky","en":"Okříšky"}},{"name":"Okrouhlice","state_code":"63","latitude":"49.62991000","longitude":"15.49083000","population":1210,"timezone":"Europe/Prague","type":"city","translations":{"es":"Okrouhlice","en":"Okrouhlice"}},{"name":"Pacov","state_code":"63","latitude":"49.47076000","longitude":"15.00168000","population":4743,"timezone":"Europe/Prague","type":"city","translations":{"es":"Pacov","en":"Pacov"}},{"name":"Pelhřimov","state_code":"63","latitude":"49.43134000","longitude":"15.22336000","population":16206,"timezone":"Europe/Prague","type":"city","translations":{"es":"Pelhřimov","en":"Pelhřimov"}},{"name":"Počátky","state_code":"63","latitude":"49.26020000","longitude":"15.24022000","population":2502,"timezone":"Europe/Prague","type":"city","translations":{"es":"Počátky","en":"Počátky"}},{"name":"Polná","state_code":"63","latitude":"49.48700000","longitude":"15.71881000","population":5277,"timezone":"Europe/Prague","type":"city","translations":{"es":"Polná","en":"Polná"}},{"name":"Přibyslav","state_code":"63","latitude":"49.57684000","longitude":"15.73855000","population":4076,"timezone":"Europe/Prague","type":"city","translations":{"es":"Přibyslav","en":"Přibyslav"}},{"name":"Rouchovany","state_code":"63","latitude":"49.07036000","longitude":"16.10760000","population":1093,"timezone":"Europe/Prague","type":"city","translations":{"es":"Rouchovany","en":"Rouchovany"}},{"name":"Stařeč","state_code":"63","latitude":"49.19783000","longitude":"15.82791000","population":1691,"timezone":"Europe/Prague","type":"city","translations":{"es":"Estrella","en":"Stařeč"}},{"name":"Štoky","state_code":"63","latitude":"49.50249000","longitude":"15.58863000","population":1540,"timezone":"Europe/Prague","type":"city","translations":{"es":"Štoky","en":"Štoky"}},{"name":"Světlá nad Sázavou","state_code":"63","latitude":"49.66801000","longitude":"15.40393000","population":6394,"timezone":"Europe/Prague","type":"city","translations":{"es":"Světlá nad Sázavou","en":"Světlá nad Sázavou"}},{"name":"Svratka","state_code":"63","latitude":"49.71066000","longitude":"16.03214000","population":1367,"timezone":"Europe/Prague","type":"city","translations":{"es":"Svratka","en":"Svratka"}},{"name":"Telč","state_code":"63","latitude":"49.18418000","longitude":"15.45275000","population":5134,"timezone":"Europe/Prague","type":"city","translations":{"es":"Telč","en":"Telč"}},{"name":"Třebíč","state_code":"63","latitude":"49.21492000","longitude":"15.88166000","population":34530,"timezone":"Europe/Prague","type":"city","translations":{"es":"Třebíč","en":"Třebíč"}},{"name":"Třešť","state_code":"63","latitude":"49.29092000","longitude":"15.48211000","population":5790,"timezone":"Europe/Prague","type":"city","translations":{"es":"Tres","en":"Třešť"}},{"name":"Velká Bíteš","state_code":"63","latitude":"49.28838000","longitude":"16.22742000","population":5482,"timezone":"Europe/Prague","type":"adm4","translations":{"es":"Velká Bíteš","en":"Velká Bíteš"}},{"name":"Velké Meziříčí","state_code":"63","latitude":"49.35522000","longitude":"16.01224000","population":11608,"timezone":"Europe/Prague","type":"city","translations":{"es":"Velké Meziříčí","en":"Velké Meziříčí"}},{"name":"Velký Beranov","state_code":"63","latitude":"49.40504000","longitude":"15.66700000","population":1269,"timezone":"Europe/Prague","type":"city","translations":{"es":"Velky Beranov","en":"Velký Beranov"}},{"name":"Vilémov","state_code":"63","latitude":"49.81566000","longitude":"15.53584000","population":1029,"timezone":"Europe/Prague","type":"city","translations":{"es":"Vilémov","en":"Vilémov"}},{"name":"Vladislav","state_code":"63","latitude":"49.21017000","longitude":"15.98830000","population":1171,"timezone":"Europe/Prague","type":"city","translations":{"es":"Vladislav","en":"Vladislav"}},{"name":"Žďár nad Sázavou","state_code":"63","latitude":"49.56263000","longitude":"15.93924000","population":20404,"timezone":"Europe/Prague","type":"city","translations":{"es":"Žďár nad Sázavou","en":"Žďár nad Sázavou"}},{"name":"Žďár nad Sázavou Druhy","state_code":"63","latitude":"49.58726000","longitude":"15.93215000","population":null,"timezone":"Europe/Prague","type":"city","translations":{"es":"Žďár nad Sázavou Druhy","en":"Žďár nad Sázavou Druhy"}},{"name":"Želetava","state_code":"63","latitude":"49.14187000","longitude":"15.67300000","population":1488,"timezone":"Europe/Prague","type":"city","translations":{"es":"Želetava","en":"Želetava"}},{"name":"Želiv","state_code":"63","latitude":"49.52984000","longitude":"15.22181000","population":1152,"timezone":"Europe/Prague","type":"city","translations":{"es":"Želiv","en":"Želiv"}},{"name":"Žirovnice","state_code":"63","latitude":"49.25318000","longitude":"15.18824000","population":3178,"timezone":"Europe/Prague","type":"city","translations":{"es":"Žirovnice","en":"Žirovnice"}},{"name":"Albrechtice nad Orlicí","state_code":"52","latitude":"50.13979000","longitude":"16.06437000","population":1063,"timezone":"Europe/Prague","type":"city","translations":{"es":"Albrechtice nad Orlicí","en":"Albrechtice nad Orlicí"}},{"name":"Bílá Třemešná","state_code":"52","latitude":"50.44465000","longitude":"15.74101000","population":1345,"timezone":"Europe/Prague","type":"city","translations":{"es":"Bílá Třemešná","en":"Bílá Třemešná"}},{"name":"Borohrádek","state_code":"52","latitude":"50.09777000","longitude":"16.09326000","population":2062,"timezone":"Europe/Prague","type":"city","translations":{"es":"Borohrádek","en":"Borohrádek"}},{"name":"Broumov","state_code":"52","latitude":"50.58566000","longitude":"16.33181000","population":7108,"timezone":"Europe/Prague","type":"city","translations":{"es":"Broumov","en":"Broumov"}},{"name":"Častolovice","state_code":"52","latitude":"50.12910000","longitude":"16.18128000","population":1686,"timezone":"Europe/Prague","type":"city","translations":{"es":"Častolovice","en":"Častolovice"}},{"name":"Černilov","state_code":"52","latitude":"50.26265000","longitude":"15.92254000","population":2233,"timezone":"Europe/Prague","type":"city","translations":{"es":"Černilov","en":"Černilov"}},{"name":"Černožice","state_code":"52","latitude":"50.31863000","longitude":"15.87403000","population":1253,"timezone":"Europe/Prague","type":"city","translations":{"es":"Černožice","en":"Černožice"}},{"name":"Červený Kostelec","state_code":"52","latitude":"50.47626000","longitude":"16.09289000","population":8262,"timezone":"Europe/Prague","type":"city","translations":{"es":"Červený Kostelec","en":"Červený Kostelec"}},{"name":"Česká Skalice","state_code":"52","latitude":"50.39467000","longitude":"16.04276000","population":5020,"timezone":"Europe/Prague","type":"city","translations":{"es":"Česká Skalice","en":"Česká Skalice"}},{"name":"České Meziříčí","state_code":"52","latitude":"50.28680000","longitude":"16.04428000","population":1603,"timezone":"Europe/Prague","type":"city","translations":{"es":"České Meziříčí","en":"České Meziříčí"}},{"name":"Chlumec nad Cidlinou","state_code":"52","latitude":"50.15440000","longitude":"15.46026000","population":5609,"timezone":"Europe/Prague","type":"city","translations":{"es":"Chlumec nad Cidlinou","en":"Chlumec nad Cidlinou"}},{"name":"Dobruška","state_code":"52","latitude":"50.29201000","longitude":"16.16001000","population":6532,"timezone":"Europe/Prague","type":"city","translations":{"es":"Dobruška","en":"Dobruška"}},{"name":"Dolní Černilov","state_code":"52","latitude":"50.26110000","longitude":"15.96107000","population":2255,"timezone":"Europe/Prague","type":"city","translations":{"es":"Dolní Černilov","en":"Dolní Černilov"}},{"name":"Doudleby nad Orlicí","state_code":"52","latitude":"50.10742000","longitude":"16.26131000","population":1787,"timezone":"Europe/Prague","type":"city","translations":{"es":"Doudleby nad Orlicí","en":"Doudleby nad Orlicí"}},{"name":"Dvůr Králové nad Labem","state_code":"52","latitude":"50.43172000","longitude":"15.81402000","population":15322,"timezone":"Europe/Prague","type":"city","translations":{"es":"Dvůr Králové nad Labem","en":"Dvůr Králové nad Labem"}},{"name":"Hořice","state_code":"52","latitude":"50.36609000","longitude":"15.63183000","population":8476,"timezone":"Europe/Prague","type":"city","translations":{"es":"Hořice","en":"Hořice"}},{"name":"Hostinné","state_code":"52","latitude":"50.54066000","longitude":"15.72334000","population":4151,"timezone":"Europe/Prague","type":"city","translations":{"es":"Hostinné","en":"Hostinné"}},{"name":"Hradec Králové","state_code":"52","latitude":"50.20923000","longitude":"15.83277000","population":94311,"timezone":"Europe/Prague","type":"adm1","translations":{"es":"Hradec Králové","en":"Hradec Králové"}},{"name":"Hronov","state_code":"52","latitude":"50.47968000","longitude":"16.18230000","population":6094,"timezone":"Europe/Prague","type":"city","translations":{"es":"Hronov","en":"Hronov"}},{"name":"Jaroměř","state_code":"52","latitude":"50.35620000","longitude":"15.92136000","population":12483,"timezone":"Europe/Prague","type":"city","translations":{"es":"Jaroměř","en":"Jaroměř"}},{"name":"Jičín","state_code":"52","latitude":"50.43723000","longitude":"15.35162000","population":16101,"timezone":"Europe/Prague","type":"city","translations":{"es":"Jičín","en":"Jičín"}},{"name":"Kopidlno","state_code":"52","latitude":"50.33085000","longitude":"15.27029000","population":2157,"timezone":"Europe/Prague","type":"city","translations":{"es":"Kopidlno","en":"Kopidlno"}},{"name":"Kostelec nad Orlicí","state_code":"52","latitude":"50.12267000","longitude":"16.21319000","population":6252,"timezone":"Europe/Prague","type":"city","translations":{"es":"Kostelec nad Orlicí","en":"Kostelec nad Orlicí"}},{"name":"Kvasiny","state_code":"52","latitude":"50.21250000","longitude":"16.26323000","population":1349,"timezone":"Europe/Prague","type":"city","translations":{"es":"Kvasiny","en":"Kvasiny"}},{"name":"Lázně Bělohrad","state_code":"52","latitude":"50.42874000","longitude":"15.58269000","population":3674,"timezone":"Europe/Prague","type":"city","translations":{"es":"Lázně Bělohrad","en":"Lázně Bělohrad"}},{"name":"Libáň","state_code":"52","latitude":"50.37542000","longitude":"15.21684000","population":1868,"timezone":"Europe/Prague","type":"city","translations":{"es":"Libáň","en":"Libáň"}},{"name":"Machov","state_code":"52","latitude":"50.49927000","longitude":"16.27690000","population":1049,"timezone":"Europe/Prague","type":"city","translations":{"es":"Machov","en":"Machov"}},{"name":"Malé Svatoňovice","state_code":"52","latitude":"50.53395000","longitude":"16.04978000","population":1587,"timezone":"Europe/Prague","type":"city","translations":{"es":"Malé Svatoňovice","en":"Malé Svatoňovice"}},{"name":"Meziměstí","state_code":"52","latitude":"50.62461000","longitude":"16.24207000","population":2324,"timezone":"Europe/Prague","type":"city","translations":{"es":"Meziměstí","en":"Meziměstí"}},{"name":"Mladé Buky","state_code":"52","latitude":"50.60643000","longitude":"15.83348000","population":2287,"timezone":"Europe/Prague","type":"city","translations":{"es":"Mladé Buky","en":"Mladé Buky"}},{"name":"Mostek","state_code":"52","latitude":"50.48623000","longitude":"15.69622000","population":1360,"timezone":"Europe/Prague","type":"city","translations":{"es":"Mostek","en":"Mostek"}},{"name":"Náchod","state_code":"52","latitude":"50.41670000","longitude":"16.16289000","population":19827,"timezone":"Europe/Prague","type":"city","translations":{"es":"Náchod","en":"Náchod"}},{"name":"Nechanice","state_code":"52","latitude":"50.23737000","longitude":"15.63276000","population":2508,"timezone":"Europe/Prague","type":"city","translations":{"es":"Nechanice","en":"Nechanice"}},{"name":"Nová Paka","state_code":"52","latitude":"50.49449000","longitude":"15.51503000","population":8979,"timezone":"Europe/Prague","type":"city","translations":{"es":"Nová Paka","en":"Nová Paka"}},{"name":"Nové Město nad Metují","state_code":"52","latitude":"50.34456000","longitude":"16.15147000","population":9181,"timezone":"Europe/Prague","type":"city","translations":{"es":"Nové Město nad Metují","en":"Nové Město nad Metují"}},{"name":"Nový Bydžov","state_code":"52","latitude":"50.24150000","longitude":"15.49082000","population":7224,"timezone":"Europe/Prague","type":"city","translations":{"es":"Nuevo Bydžov","en":"Nový Bydžov"}},{"name":"Okres Hradec Králové","state_code":"52","latitude":"50.25000000","longitude":"15.66667000","population":168401,"timezone":"Europe/Prague","type":"city","translations":{"es":"Okres Hradec Králové","en":"Okres Hradec Králové"}},{"name":"Okres Jičín","state_code":"52","latitude":"50.41667000","longitude":"15.41667000","population":80413,"timezone":"Europe/Prague","type":"city","translations":{"es":"Okres Jičín","en":"Okres Jičín"}},{"name":"Okres Náchod","state_code":"52","latitude":"50.41667000","longitude":"16.16667000","population":109747,"timezone":"Europe/Prague","type":"city","translations":{"es":"Okres Náchod","en":"Okres Náchod"}},{"name":"Okres Rychnov nad Kněžnou","state_code":"52","latitude":"50.23333000","longitude":"16.28333000","population":80808,"timezone":"Europe/Prague","type":"city","translations":{"es":"Okres Rychnov nad Kněžnou","en":"Okres Rychnov nad Kněžnou"}},{"name":"Okres Trutnov","state_code":"52","latitude":"50.58333000","longitude":"15.83333000","population":116554,"timezone":"Europe/Prague","type":"city","translations":{"es":"Distrito Trutnov","en":"Okres Trutnov"}},{"name":"Opočno","state_code":"52","latitude":"50.26742000","longitude":"16.11480000","population":3148,"timezone":"Europe/Prague","type":"city","translations":{"es":"Opočno","en":"Opočno"}},{"name":"Ostroměř","state_code":"52","latitude":"50.37246000","longitude":"15.54949000","population":1368,"timezone":"Europe/Prague","type":"city","translations":{"es":"Ostroměř","en":"Ostroměř"}},{"name":"Pecka","state_code":"52","latitude":"50.48034000","longitude":"15.60822000","population":1311,"timezone":"Europe/Prague","type":"city","translations":{"es":"Pecka","en":"Pecka"}},{"name":"Pilníkov","state_code":"52","latitude":"50.53247000","longitude":"15.82020000","population":1218,"timezone":"Europe/Prague","type":"city","translations":{"es":"Pilníkov","en":"Pilníkov"}},{"name":"Police nad Metují","state_code":"52","latitude":"50.53687000","longitude":"16.23350000","population":4131,"timezone":"Europe/Prague","type":"city","translations":{"es":"Policía de Metují","en":"Police nad Metují"}},{"name":"Předměřice nad Labem","state_code":"52","latitude":"50.25633000","longitude":"15.81556000","population":1638,"timezone":"Europe/Prague","type":"city","translations":{"es":"Předměřice nad Labem","en":"Předměřice nad Labem"}},{"name":"Provodov-Šonov","state_code":"52","latitude":"50.38711000","longitude":"16.10797000","population":1225,"timezone":"Europe/Prague","type":"city","translations":{"es":"Provodov-Šonov","en":"Provodov-Šonov"}},{"name":"Radvanice","state_code":"52","latitude":"50.56745000","longitude":"16.06172000","population":1090,"timezone":"Europe/Prague","type":"city","translations":{"es":"Radvanice","en":"Radvanice"}},{"name":"Rokytnice v Orlických Horách","state_code":"52","latitude":"50.16473000","longitude":"16.46567000","population":2125,"timezone":"Europe/Prague","type":"city","translations":{"es":"Rokytnice contra Orlických Horách","en":"Rokytnice v Orlických Horách"}},{"name":"Rtyně v Podkrkonoší","state_code":"52","latitude":"50.50523000","longitude":"16.07187000","population":2858,"timezone":"Europe/Prague","type":"city","translations":{"es":"Rtyně v Podkrkonoší","en":"Rtyně v Podkrkonoší"}},{"name":"Rudník","state_code":"52","latitude":"50.59517000","longitude":"15.73362000","population":2161,"timezone":"Europe/Prague","type":"city","translations":{"es":"Rudnik","en":"Rudník"}},{"name":"Rychnov nad Kněžnou","state_code":"52","latitude":"50.16284000","longitude":"16.27488000","population":11420,"timezone":"Europe/Prague","type":"city","translations":{"es":"Rychnov nad Kněžnou","en":"Rychnov nad Kněžnou"}},{"name":"Skuhrov nad Bělou","state_code":"52","latitude":"50.22946000","longitude":"16.29230000","population":1060,"timezone":"Europe/Prague","type":"city","translations":{"es":"Skuhrov nad Bělou","en":"Skuhrov nad Bělou"}},{"name":"Smidary","state_code":"52","latitude":"50.29146000","longitude":"15.47725000","population":1523,"timezone":"Europe/Prague","type":"city","translations":{"es":"Smidary","en":"Smidary"}},{"name":"Smiřice","state_code":"52","latitude":"50.29978000","longitude":"15.86508000","population":3138,"timezone":"Europe/Prague","type":"city","translations":{"es":"Smiřice","en":"Smiřice"}},{"name":"Sobotka","state_code":"52","latitude":"50.46741000","longitude":"15.17619000","population":2400,"timezone":"Europe/Prague","type":"city","translations":{"es":"Sobotka","en":"Sobotka"}},{"name":"Solnice","state_code":"52","latitude":"50.20366000","longitude":"16.23762000","population":2376,"timezone":"Europe/Prague","type":"city","translations":{"es":"Solnice","en":"Solnice"}},{"name":"Špindlerův Mlýn","state_code":"52","latitude":"50.72615000","longitude":"15.60944000","population":1136,"timezone":"Europe/Prague","type":"city","translations":{"es":"Špindlerův Mlýn","en":"Špindlerův Mlýn"}},{"name":"Stará Paka","state_code":"52","latitude":"50.51032000","longitude":"15.49444000","population":2026,"timezone":"Europe/Prague","type":"city","translations":{"es":"Stará Paka","en":"Stará Paka"}},{"name":"Staré Nechanice","state_code":"52","latitude":"50.24298000","longitude":"15.61787000","population":2180,"timezone":"Europe/Prague","type":"city","translations":{"es":"Staré Nechanice","en":"Staré Nechanice"}},{"name":"Stěžery","state_code":"52","latitude":"50.21572000","longitude":"15.74831000","population":1625,"timezone":"Europe/Prague","type":"city","translations":{"es":"Stěžery","en":"Stěžery"}},{"name":"Svoboda nad Úpou","state_code":"52","latitude":"50.62596000","longitude":"15.81648000","population":1951,"timezone":"Europe/Prague","type":"city","translations":{"es":"Svoboda nad Úpou","en":"Svoboda nad Úpou"}},{"name":"Teplice nad Metují","state_code":"52","latitude":"50.59332000","longitude":"16.17026000","population":1614,"timezone":"Europe/Prague","type":"city","translations":{"es":"Teplice nad Metují","en":"Teplice nad Metují"}},{"name":"Třebechovice pod Orebem","state_code":"52","latitude":"50.20097000","longitude":"15.99223000","population":5869,"timezone":"Europe/Prague","type":"city","translations":{"es":"Třebechovice pod Orebem","en":"Třebechovice pod Orebem"}},{"name":"Trutnov","state_code":"52","latitude":"50.56101000","longitude":"15.91270000","population":29607,"timezone":"Europe/Prague","type":"city","translations":{"es":"Trutnov","en":"Trutnov"}},{"name":"Týniště nad Orlicí","state_code":"52","latitude":"50.15136000","longitude":"16.07770000","population":6148,"timezone":"Europe/Prague","type":"city","translations":{"es":"Týniště nad Orlicí","en":"Týniště nad Orlicí"}},{"name":"Úpice","state_code":"52","latitude":"50.51237000","longitude":"16.01607000","population":5448,"timezone":"Europe/Prague","type":"city","translations":{"es":"Úpice","en":"Úpice"}},{"name":"Valdice","state_code":"52","latitude":"50.45501000","longitude":"15.38488000","population":1474,"timezone":"Europe/Prague","type":"city","translations":{"es":"Valdice","en":"Valdice"}},{"name":"Vamberk","state_code":"52","latitude":"50.11756000","longitude":"16.29067000","population":4568,"timezone":"Europe/Prague","type":"city","translations":{"es":"Vamberk","en":"Vamberk"}},{"name":"Velké Poříčí","state_code":"52","latitude":"50.46177000","longitude":"16.18931000","population":2328,"timezone":"Europe/Prague","type":"city","translations":{"es":"Velké Poříčí","en":"Velké Poříčí"}},{"name":"Velké Svatoňovice","state_code":"52","latitude":"50.53164000","longitude":"16.02853000","population":1125,"timezone":"Europe/Prague","type":"city","translations":{"es":"Velké Svatoňovice","en":"Velké Svatoňovice"}},{"name":"Vrchlabí","state_code":"52","latitude":"50.62697000","longitude":"15.60937000","population":12102,"timezone":"Europe/Prague","type":"city","translations":{"es":"Vrchlabí","en":"Vrchlabí"}},{"name":"Všestary","state_code":"52","latitude":"50.25660000","longitude":"15.75983000","population":1537,"timezone":"Europe/Prague","type":"city","translations":{"es":"Všestary","en":"Všestary"}},{"name":"Žacléř","state_code":"52","latitude":"50.66329000","longitude":"15.91063000","population":3072,"timezone":"Europe/Prague","type":"city","translations":{"es":"Žacléř","en":"Žacléř"}},{"name":"Zadní Mostek","state_code":"52","latitude":"50.49670000","longitude":"15.69804000","population":1350,"timezone":"Europe/Prague","type":"city","translations":{"es":"Zadní Mostek","en":"Zadní Mostek"}},{"name":"Železnice","state_code":"52","latitude":"50.47274000","longitude":"15.38459000","population":1094,"timezone":"Europe/Prague","type":"city","translations":{"es":"Železnice","en":"Železnice"}},{"name":"Benecko","state_code":"51","latitude":"50.66633000","longitude":"15.54816000","population":1142,"timezone":"Europe/Prague","type":"city","translations":{"es":"Benecko","en":"Benecko"}},{"name":"Brniště","state_code":"51","latitude":"50.72919000","longitude":"14.70338000","population":1358,"timezone":"Europe/Prague","type":"city","translations":{"es":"Brnište","en":"Brniště"}},{"name":"Česká Lípa","state_code":"51","latitude":"50.68551000","longitude":"14.53764000","population":36815,"timezone":"Europe/Prague","type":"city","translations":{"es":"Česká Lípa","en":"Česká Lípa"}},{"name":"Český Dub","state_code":"51","latitude":"50.66054000","longitude":"14.99617000","population":2882,"timezone":"Europe/Prague","type":"city","translations":{"es":"Doblaje checo","en":"Český Dub"}},{"name":"Chrastava","state_code":"51","latitude":"50.81693000","longitude":"14.96884000","population":6315,"timezone":"Europe/Prague","type":"city","translations":{"es":"Chrastava","en":"Chrastava"}},{"name":"Cvikov","state_code":"51","latitude":"50.77668000","longitude":"14.63298000","population":4534,"timezone":"Europe/Prague","type":"city","translations":{"es":"Cvikov","en":"Cvikov"}},{"name":"Desná","state_code":"51","latitude":"50.75987000","longitude":"15.30284000","population":2999,"timezone":"Europe/Prague","type":"city","translations":{"es":"Desná","en":"Desná"}},{"name":"Doksy","state_code":"51","latitude":"50.56471000","longitude":"14.65553000","population":5115,"timezone":"Europe/Prague","type":"city","translations":{"es":"Doksy","en":"Doksy"}},{"name":"Dubá","state_code":"51","latitude":"50.54034000","longitude":"14.54023000","population":1672,"timezone":"Europe/Prague","type":"city","translations":{"es":"Dubá","en":"Dubá"}},{"name":"Frýdlant","state_code":"51","latitude":"50.92139000","longitude":"15.07974000","population":7379,"timezone":"Europe/Prague","type":"city","translations":{"es":"Frýdlant","en":"Frýdlant"}},{"name":"Harrachov","state_code":"51","latitude":"50.77209000","longitude":"15.43141000","population":1388,"timezone":"Europe/Prague","type":"city","translations":{"es":"Harrachov","en":"Harrachov"}},{"name":"Hejnice","state_code":"51","latitude":"50.87720000","longitude":"15.18168000","population":2751,"timezone":"Europe/Prague","type":"city","translations":{"es":"Hejnice","en":"Hejnice"}},{"name":"Hodkovice nad Mohelkou","state_code":"51","latitude":"50.66586000","longitude":"15.08985000","population":2994,"timezone":"Europe/Prague","type":"city","translations":{"es":"Hodkovice nad Mohelkou","en":"Hodkovice nad Mohelkou"}},{"name":"Horní Branná","state_code":"51","latitude":"50.60826000","longitude":"15.57146000","population":1798,"timezone":"Europe/Prague","type":"city","translations":{"es":"Horní Branná","en":"Horní Branná"}},{"name":"Hrádek nad Nisou","state_code":"51","latitude":"50.85279000","longitude":"14.84455000","population":8001,"timezone":"Europe/Prague","type":"city","translations":{"es":"Hrádek nad Nisou","en":"Hrádek nad Nisou"}},{"name":"Jablonec nad Jizerou","state_code":"51","latitude":"50.70347000","longitude":"15.42959000","population":1609,"timezone":"Europe/Prague","type":"city","translations":{"es":"Jablonec nad Jizerou","en":"Jablonec nad Jizerou"}},{"name":"Jablonec nad Nisou","state_code":"51","latitude":"50.72431000","longitude":"15.17108000","population":46209,"timezone":"Europe/Prague","type":"city","translations":{"es":"Jablonec nad Nisou","en":"Jablonec nad Nisou"}},{"name":"Jablonné v Podještědí","state_code":"51","latitude":"50.76528000","longitude":"14.76052000","population":3704,"timezone":"Europe/Prague","type":"city","translations":{"es":"Jablonné contra Podještědí","en":"Jablonné v Podještědí"}},{"name":"Janov nad Nisou","state_code":"51","latitude":"50.77204000","longitude":"15.16913000","population":1186,"timezone":"Europe/Prague","type":"city","translations":{"es":"Janov nad Nisou","en":"Janov nad Nisou"}},{"name":"Jilemnice","state_code":"51","latitude":"50.60890000","longitude":"15.50653000","population":5377,"timezone":"Europe/Prague","type":"city","translations":{"es":"Jilemnice","en":"Jilemnice"}},{"name":"Josefův Důl","state_code":"51","latitude":"50.78191000","longitude":"15.23146000","population":1024,"timezone":"Europe/Prague","type":"city","translations":{"es":"Josefův Důl","en":"Josefův Důl"}},{"name":"Kamenický Šenov","state_code":"51","latitude":"50.77359000","longitude":"14.47287000","population":3811,"timezone":"Europe/Prague","type":"city","translations":{"es":"Kamenický Šenov","en":"Kamenický Šenov"}},{"name":"Kořenov","state_code":"51","latitude":"50.75926000","longitude":"15.36532000","population":1014,"timezone":"Europe/Prague","type":"city","translations":{"es":"Kořenov","en":"Kořenov"}},{"name":"Košťálov","state_code":"51","latitude":"50.57165000","longitude":"15.40403000","population":1671,"timezone":"Europe/Prague","type":"city","translations":{"es":"Košťálov","en":"Košťálov"}},{"name":"Liberec","state_code":"51","latitude":"50.76711000","longitude":"15.05619000","population":108090,"timezone":"Europe/Prague","type":"adm1","translations":{"es":"Liberec","en":"Liberec"}},{"name":"Lomnice nad Popelkou","state_code":"51","latitude":"50.53062000","longitude":"15.37341000","population":5626,"timezone":"Europe/Prague","type":"city","translations":{"es":"Lomnice nad Popelkou","en":"Lomnice nad Popelkou"}},{"name":"Lučany nad Nisou","state_code":"51","latitude":"50.74136000","longitude":"15.22046000","population":1941,"timezone":"Europe/Prague","type":"city","translations":{"es":"Lučany nad Nisou","en":"Lučany nad Nisou"}},{"name":"Malá Skála","state_code":"51","latitude":"50.64631000","longitude":"15.19543000","population":1067,"timezone":"Europe/Prague","type":"city","translations":{"es":"Malá Skála","en":"Malá Skála"}},{"name":"Mimoň","state_code":"51","latitude":"50.65869000","longitude":"14.72474000","population":6387,"timezone":"Europe/Prague","type":"city","translations":{"es":"Mimoň","en":"Mimoň"}},