[{"name":"Aach","state_code":"BW","latitude":"47.84240000","longitude":"8.85384000","population":2248,"timezone":"Europe/Berlin","type":"city","translations":{"es":"Aach","en":"Aach"}},{"name":"Aalen","state_code":"BW","latitude":"48.83777000","longitude":"10.09330000","population":67085,"timezone":"Europe/Berlin","type":"adm3","translations":{"es":"Aalen","en":"Aalen"}},{"name":"Abstatt","state_code":"BW","latitude":"49.06820000","longitude":"9.29070000","population":5058,"timezone":"Europe/Berlin","type":"adm4","translations":{"es":"Abstatt","en":"Abstatt"}},{"name":"Abtsgmünd","state_code":"BW","latitude":"48.89503000","longitude":"10.00172000","population":7624,"timezone":"Europe/Berlin","type":"adm4","translations":{"es":"Abtsgmünd","en":"Abtsgmünd"}},{"name":"Achern","state_code":"BW","latitude":"48.63115000","longitude":"8.07607000","population":26664,"timezone":"Europe/Berlin","type":"city","translations":{"es":"Achern","en":"Achern"}},{"name":"Achstetten","state_code":"BW","latitude":"48.25886000","longitude":"9.89748000","population":3978,"timezone":"Europe/Berlin","type":"adm4","translations":{"es":"Achstetten","en":"Achstetten"}},{"name":"Adelberg","state_code":"BW","latitude":"48.76227000","longitude":"9.59991000","population":2017,"timezone":"Europe/Berlin","type":"adm4","translations":{"es":"Adelberg","en":"Adelberg"}},{"name":"Adelmannsfelden","state_code":"BW","latitude":"48.95476000","longitude":"10.00466000","population":1727,"timezone":"Europe/Berlin","type":"adm4","translations":{"es":"Adelmannsfelden","en":"Adelmannsfelden"}},{"name":"Adelsheim","state_code":"BW","latitude":"49.40150000","longitude":"9.39250000","population":5313,"timezone":"Europe/Berlin","type":"city","translations":{"es":"Adelsheim","en":"Adelsheim"}},{"name":"Affalterbach","state_code":"BW","latitude":"48.92267000","longitude":"9.32362000","population":4524,"timezone":"Europe/Berlin","type":"adm4","translations":{"es":"Affalterbach","en":"Affalterbach"}},{"name":"Aglasterhausen","state_code":"BW","latitude":"49.35694000","longitude":"8.98694000","population":4893,"timezone":"Europe/Berlin","type":"adm4","translations":{"es":"Aglasterhausen","en":"Aglasterhausen"}},{"name":"Aichelberg","state_code":"BW","latitude":"48.63557000","longitude":"9.56373000","population":1315,"timezone":"Europe/Berlin","type":"adm4","translations":{"es":"Aichelberg","en":"Aichelberg"}},{"name":"Aichhalden","state_code":"BW","latitude":"48.26719000","longitude":"8.40233000","population":4281,"timezone":"Europe/Berlin","type":"adm4","translations":{"es":"Aichhalden","en":"Aichhalden"}},{"name":"Aichstetten","state_code":"BW","latitude":"47.89295000","longitude":"10.07837000","population":2844,"timezone":"Europe/Berlin","type":"adm4","translations":{"es":"Aichstetten","en":"Aichstetten"}},{"name":"Aidlingen","state_code":"BW","latitude":"48.67849000","longitude":"8.89524000","population":9429,"timezone":"Europe/Berlin","type":"adm4","translations":{"es":"Aidlingen","en":"Aidlingen"}},{"name":"Aitrach","state_code":"BW","latitude":"47.93333000","longitude":"10.08333000","population":3001,"timezone":"Europe/Berlin","type":"adm4","translations":{"es":"Aitrach","en":"Aitrach"}},{"name":"Albbruck","state_code":"BW","latitude":"47.59077000","longitude":"8.12954000","population":7519,"timezone":"Europe/Berlin","type":"adm4","translations":{"es":"Albbruck","en":"Albbruck"}},{"name":"Albershausen","state_code":"BW","latitude":"48.69136000","longitude":"9.56493000","population":4470,"timezone":"Europe/Berlin","type":"adm4","translations":{"es":"Albershausen","en":"Albershausen"}},{"name":"Albstadt","state_code":"BW","latitude":"48.21644000","longitude":"9.02596000","population":46831,"timezone":"Europe/Berlin","type":"city","translations":{"es":"Albstadt","en":"Albstadt"}},{"name":"Aldingen","state_code":"BW","latitude":"48.10000000","longitude":"8.70000000","population":7775,"timezone":"Europe/Berlin","type":"adm4","translations":{"es":"Aldingen","en":"Aldingen"}},{"name":"Alfdorf","state_code":"BW","latitude":"48.84385000","longitude":"9.71857000","population":7177,"timezone":"Europe/Berlin","type":"adm4","translations":{"es":"Alfdorf","en":"Alfdorf"}},{"name":"Allensbach","state_code":"BW","latitude":"47.71536000","longitude":"9.07145000","population":7379,"timezone":"Europe/Berlin","type":"adm4","translations":{"es":"Allensbach","en":"Allensbach"}},{"name":"Allmendingen","state_code":"BW","latitude":"48.33052000","longitude":"9.72419000","population":4721,"timezone":"Europe/Berlin","type":"adm4","translations":{"es":"Allmendingen","en":"Allmendingen"}},{"name":"Allmersbach im Tal","state_code":"BW","latitude":"48.90659000","longitude":"9.46815000","population":4908,"timezone":"Europe/Berlin","type":"adm4","translations":{"es":"Allmersbach im Tal","en":"Allmersbach im Tal"}},{"name":"Alpirsbach","state_code":"BW","latitude":"48.34507000","longitude":"8.40197000","population":6242,"timezone":"Europe/Berlin","type":"city","translations":{"es":"Alpirsbach","en":"Alpirsbach"}},{"name":"Altbach","state_code":"BW","latitude":"48.72268000","longitude":"9.38078000","population":6413,"timezone":"Europe/Berlin","type":"adm4","translations":{"es":"Altbach","en":"Altbach"}},{"name":"Altdorf","state_code":"BW","latitude":"48.63112000","longitude":"8.99626000","population":4426,"timezone":"Europe/Berlin","type":"adm4","translations":{"es":"Altdorf","en":"Altdorf"}},{"name":"Altenriet","state_code":"BW","latitude":"48.59140000","longitude":"9.22186000","population":1998,"timezone":"Europe/Berlin","type":"adm4","translations":{"es":"Altenriet","en":"Altenriet"}},{"name":"Altensteig","state_code":"BW","latitude":"48.58649000","longitude":"8.60395000","population":10983,"timezone":"Europe/Berlin","type":"city","translations":{"es":"Altensteig","en":"Altensteig"}},{"name":"Altes Lager","state_code":"BW","latitude":"48.41755000","longitude":"9.53606000","population":14092,"timezone":"Europe/Berlin","type":"city","translations":{"es":"Cervecería antigua","en":"Altes Lager"}},{"name":"Althengstett","state_code":"BW","latitude":"48.72325000","longitude":"8.79434000","population":8104,"timezone":"Europe/Berlin","type":"adm4","translations":{"es":"Althengstett","en":"Althengstett"}},{"name":"Althütte","state_code":"BW","latitude":"48.91565000","longitude":"9.56984000","population":4239,"timezone":"Europe/Berlin","type":"adm4","translations":{"es":"Althütte","en":"Althütte"}},{"name":"Altlußheim","state_code":"BW","latitude":"49.30167000","longitude":"8.49917000","population":6389,"timezone":"Europe/Berlin","type":"adm4","translations":{"es":"Altlußheim","en":"Altlußheim"}},{"name":"Altshausen","state_code":"BW","latitude":"47.93333000","longitude":"9.53333000","population":4161,"timezone":"Europe/Berlin","type":"adm4","translations":{"es":"Altshausen","en":"Altshausen"}},{"name":"Amstetten","state_code":"BW","latitude":"48.57876000","longitude":"9.87388000","population":4215,"timezone":"Europe/Berlin","type":"adm4","translations":{"es":"Amstetten","en":"Amstetten"}},{"name":"Amtzell","state_code":"BW","latitude":"47.70000000","longitude":"9.75000000","population":4320,"timezone":"Europe/Berlin","type":"adm4","translations":{"es":"Amtzell","en":"Amtzell"}},{"name":"Aspach","state_code":"BW","latitude":"48.96667000","longitude":"9.40000000","population":8131,"timezone":"Europe/Berlin","type":"adm4","translations":{"es":"Aspach","en":"Aspach"}},{"name":"Asperg","state_code":"BW","latitude":"48.90525000","longitude":"9.13502000","population":13836,"timezone":"Europe/Berlin","type":"city","translations":{"es":"Asperg","en":"Asperg"}},{"name":"Assamstadt","state_code":"BW","latitude":"49.42806000","longitude":"9.68611000","population":2242,"timezone":"Europe/Berlin","type":"adm4","translations":{"es":"Assamstadt","en":"Assamstadt"}},{"name":"Asselfingen","state_code":"BW","latitude":"48.52959000","longitude":"10.19166000","population":1038,"timezone":"Europe/Berlin","type":"adm4","translations":{"es":"Asselfingen","en":"Asselfingen"}},{"name":"Attenweiler","state_code":"BW","latitude":"48.13333000","longitude":"9.70000000","population":1974,"timezone":"Europe/Berlin","type":"adm4","translations":{"es":"Attenweiler","en":"Attenweiler"}},{"name":"Au","state_code":"BW","latitude":"47.95000000","longitude":"7.83333000","population":1312,"timezone":"Europe/Berlin","type":"adm4","translations":{"es":"Au","en":"Au"}},{"name":"Au am Rhein","state_code":"BW","latitude":"48.95000000","longitude":"8.23333000","population":3365,"timezone":"Europe/Berlin","type":"adm4","translations":{"es":"En el Rin","en":"Au am Rhein"}},{"name":"Auggen","state_code":"BW","latitude":"47.78333000","longitude":"7.60000000","population":2825,"timezone":"Europe/Berlin","type":"adm4","translations":{"es":"Auggen","en":"Auggen"}},{"name":"Aulendorf","state_code":"BW","latitude":"47.95083000","longitude":"9.63745000","population":10063,"timezone":"Europe/Berlin","type":"city","translations":{"es":"Aulendorf","en":"Aulendorf"}},{"name":"Backnang","state_code":"BW","latitude":"48.94743000","longitude":"9.43718000","population":38184,"timezone":"Europe/Berlin","type":"city","translations":{"es":"Backnang","en":"Backnang"}},{"name":"Bad Bellingen","state_code":"BW","latitude":"47.73147000","longitude":"7.55756000","population":3759,"timezone":"Europe/Berlin","type":"adm4","translations":{"es":"Bad Bellingen","en":"Bad Bellingen"}},{"name":"Bad Buchau","state_code":"BW","latitude":"48.06231000","longitude":"9.61244000","population":4710,"timezone":"Europe/Berlin","type":"city","translations":{"es":"Bad Buchau","en":"Bad Buchau"}},{"name":"Bad Ditzenbach","state_code":"BW","latitude":"48.58830000","longitude":"9.70393000","population":3891,"timezone":"Europe/Berlin","type":"adm4","translations":{"es":"Bad Ditzenbach","en":"Bad Ditzenbach"}},{"name":"Bad Dürrheim","state_code":"BW","latitude":"48.02093000","longitude":"8.53056000","population":13793,"timezone":"Europe/Berlin","type":"city","translations":{"es":"Bad Dürrheim","en":"Bad Dürrheim"}},{"name":"Bad Herrenalb","state_code":"BW","latitude":"48.79787000","longitude":"8.43617000","population":8284,"timezone":"Europe/Berlin","type":"city","translations":{"es":"Bad Herrenalb","en":"Bad Herrenalb"}},{"name":"Bad Liebenzell","state_code":"BW","latitude":"48.77427000","longitude":"8.72971000","population":9829,"timezone":"Europe/Berlin","type":"city","translations":{"es":"Bad Liebenzell","en":"Bad Liebenzell"}},{"name":"Bad Mergentheim","state_code":"BW","latitude":"49.49250000","longitude":"9.77361000","population":24752,"timezone":"Europe/Berlin","type":"city","translations":{"es":"Bad Mergentheim","en":"Bad Mergentheim"}},{"name":"Bad Peterstal-Griesbach","state_code":"BW","latitude":"48.43333000","longitude":"8.21667000","population":2763,"timezone":"Europe/Berlin","type":"adm4","translations":{"es":"Bad Peterstal-Griesbach","en":"Bad Peterstal-Griesbach"}},{"name":"Bad Rappenau","state_code":"BW","latitude":"49.23848000","longitude":"9.10180000","population":22586,"timezone":"Europe/Berlin","type":"city","translations":{"es":"Bad Rappenau","en":"Bad Rappenau"}},{"name":"Bad Rippoldsau-Schapbach","state_code":"BW","latitude":"48.42883000","longitude":"8.32584000","population":2058,"timezone":"Europe/Berlin","type":"adm4","translations":{"es":"Bad Rippoldsau-Schapbach","en":"Bad Rippoldsau-Schapbach"}},{"name":"Bad Säckingen","state_code":"BW","latitude":"47.55371000","longitude":"7.94612000","population":17637,"timezone":"Europe/Berlin","type":"city","translations":{"es":"Bad Säckingen","en":"Bad Säckingen"}},{"name":"Bad Schussenried","state_code":"BW","latitude":"48.00468000","longitude":"9.65741000","population":9277,"timezone":"Europe/Berlin","type":"city","translations":{"es":"Bad Schussenried","en":"Bad Schussenried"}},{"name":"Bad Teinach-Zavelstein","state_code":"BW","latitude":"48.69051000","longitude":"8.69285000","population":3241,"timezone":"Europe/Berlin","type":"city","translations":{"es":"Bad Teinach-Zavelstein","en":"Bad Teinach-Zavelstein"}},{"name":"Bad Überkingen","state_code":"BW","latitude":"48.59991000","longitude":"9.79586000","population":3912,"timezone":"Europe/Berlin","type":"adm4","translations":{"es":"Bad Überkingen","en":"Bad Überkingen"}},{"name":"Bad Urach","state_code":"BW","latitude":"48.49107000","longitude":"9.40009000","population":12755,"timezone":"Europe/Berlin","type":"city","translations":{"es":"Urach malo","en":"Bad Urach"}},{"name":"Bad Waldsee","state_code":"BW","latitude":"47.92027000","longitude":"9.75490000","population":20786,"timezone":"Europe/Berlin","type":"city","translations":{"es":"Bad Waldsee","en":"Bad Waldsee"}},{"name":"Bad Wildbad","state_code":"BW","latitude":"48.75071000","longitude":"8.55040000","population":10601,"timezone":"Europe/Berlin","type":"city","translations":{"es":"Malo salvaje malo","en":"Bad Wildbad"}},{"name":"Bad Wimpfen","state_code":"BW","latitude":"49.22971000","longitude":"9.15648000","population":7575,"timezone":"Europe/Berlin","type":"city","translations":{"es":"Bad Wimpfen","en":"Bad Wimpfen"}},{"name":"Bad Wurzach","state_code":"BW","latitude":"47.90799000","longitude":"9.89686000","population":15069,"timezone":"Europe/Berlin","type":"city","translations":{"es":"Bad Wurzach","en":"Bad Wurzach"}},{"name":"Baden-Baden","state_code":"BW","latitude":"48.76060000","longitude":"8.23975000","population":57420,"timezone":"Europe/Berlin","type":"city","translations":{"es":"Baden-Baden","en":"Baden-Baden"}},{"name":"Badenweiler","state_code":"BW","latitude":"47.80223000","longitude":"7.67236000","population":4573,"timezone":"Europe/Berlin","type":"adm4","translations":{"es":"Badenweiler","en":"Badenweiler"}},{"name":"Bahlingen","state_code":"BW","latitude":"48.12064000","longitude":"7.73982000","population":3709,"timezone":"Europe/Berlin","type":"city","translations":{"es":"Bahlingen","en":"Bahlingen"}},{"name":"Baienfurt","state_code":"BW","latitude":"47.82857000","longitude":"9.65157000","population":7407,"timezone":"Europe/Berlin","type":"adm4","translations":{"es":"Baienfurt","en":"Baienfurt"}},{"name":"Baiersbronn","state_code":"BW","latitude":"48.50318000","longitude":"8.37699000","population":15126,"timezone":"Europe/Berlin","type":"adm4","translations":{"es":"Baiersbronn","en":"Baiersbronn"}},{"name":"Baindt","state_code":"BW","latitude":"47.85000000","longitude":"9.66667000","population":4561,"timezone":"Europe/Berlin","type":"adm4","translations":{"es":"Baindt","en":"Baindt"}},{"name":"Balingen","state_code":"BW","latitude":"48.27525000","longitude":"8.85464000","population":35054,"timezone":"Europe/Berlin","type":"adm3","translations":{"es":"Balingen","en":"Balingen"}},{"name":"Baltmannsweiler","state_code":"BW","latitude":"48.74215000","longitude":"9.44940000","population":5701,"timezone":"Europe/Berlin","type":"adm4","translations":{"es":"Baltmannsweiler","en":"Baltmannsweiler"}},{"name":"Balzfeld","state_code":"BW","latitude":"49.26892000","longitude":"8.78919000","population":1012,"timezone":"Europe/Berlin","type":"city","translations":{"es":"Balzfeld","en":"Balzfeld"}},{"name":"Bammental","state_code":"BW","latitude":"49.35611000","longitude":"8.77944000","population":6594,"timezone":"Europe/Berlin","type":"adm4","translations":{"es":"Bammental","en":"Bammental"}},{"name":"Bartholomä","state_code":"BW","latitude":"48.75350000","longitude":"9.98752000","population":2062,"timezone":"Europe/Berlin","type":"adm4","translations":{"es":"Bartolomé","en":"Bartholomä"}},{"name":"Beilstein","state_code":"BW","latitude":"49.04140000","longitude":"9.31370000","population":6422,"timezone":"Europe/Berlin","type":"city","translations":{"es":"Beilstein","en":"Beilstein"}},{"name":"Beimerstetten","state_code":"BW","latitude":"48.48333000","longitude":"9.98333000","population":2570,"timezone":"Europe/Berlin","type":"adm4","translations":{"es":"Beimerstetten","en":"Beimerstetten"}},{"name":"Bempflingen","state_code":"BW","latitude":"48.57178000","longitude":"9.26834000","population":3390,"timezone":"Europe/Berlin","type":"adm4","translations":{"es":"Bempflingen","en":"Bempflingen"}},{"name":"Benningen am Neckar","state_code":"BW","latitude":"48.94672000","longitude":"9.24212000","population":6713,"timezone":"Europe/Berlin","type":"adm4","translations":{"es":"Benningen am Neckar","en":"Benningen am Neckar"}},{"name":"Bergatreute","state_code":"BW","latitude":"47.85000000","longitude":"9.75000000","population":3275,"timezone":"Europe/Berlin","type":"adm4","translations":{"es":"Bergatreute","en":"Bergatreute"}},{"name":"Berghaupten","state_code":"BW","latitude":"48.40602000","longitude":"7.98672000","population":2532,"timezone":"Europe/Berlin","type":"adm4","translations":{"es":"Berghaupten","en":"Berghaupten"}},{"name":"Berghülen","state_code":"BW","latitude":"48.46399000","longitude":"9.76110000","population":2144,"timezone":"Europe/Berlin","type":"adm4","translations":{"es":"Berghülen","en":"Berghülen"}},{"name":"Berkheim","state_code":"BW","latitude":"48.04263000","longitude":"10.08227000","population":3247,"timezone":"Europe/Berlin","type":"adm4","translations":{"es":"Berkheim","en":"Berkheim"}},{"name":"Bermatingen","state_code":"BW","latitude":"47.73333000","longitude":"9.35000000","population":4302,"timezone":"Europe/Berlin","type":"adm4","translations":{"es":"Bermatingen","en":"Bermatingen"}},{"name":"Bernau","state_code":"BW","latitude":"47.80018000","longitude":"8.03830000","population":1993,"timezone":"Europe/Berlin","type":"city","translations":{"es":"Bernau","en":"Bernau"}},{"name":"Bernstadt","state_code":"BW","latitude":"48.49957000","longitude":"10.02575000","population":2334,"timezone":"Europe/Berlin","type":"adm4","translations":{"es":"Bernstadt","en":"Bernstadt"}},{"name":"Besigheim","state_code":"BW","latitude":"48.99797000","longitude":"9.14268000","population":12923,"timezone":"Europe/Berlin","type":"city","translations":{"es":"Besigheim","en":"Besigheim"}},{"name":"Beuren","state_code":"BW","latitude":"48.56927000","longitude":"9.40406000","population":3710,"timezone":"Europe/Berlin","type":"adm4","translations":{"es":"Beuren","en":"Beuren"}},{"name":"Biberach","state_code":"BW","latitude":"48.61008000","longitude":"8.27704000","population":3257,"timezone":"Europe/Berlin","type":"city","translations":{"es":"Biberach","en":"Biberach"}},{"name":"Biberach an der Riß","state_code":"BW","latitude":"48.09345000","longitude":"9.79053000","population":32333,"timezone":"Europe/Berlin","type":"adm3","translations":{"es":"Biberach an der Riß","en":"Biberach an der Riß"}},{"name":"Bietigheim","state_code":"BW","latitude":"48.90919000","longitude":"8.25202000","population":6026,"timezone":"Europe/Berlin","type":"adm4","translations":{"es":"Bietigheim","en":"Bietigheim"}},{"name":"Bietigheim-Bissingen","state_code":"BW","latitude":"48.94407000","longitude":"9.11755000","population":43808,"timezone":"Europe/Berlin","type":"city","translations":{"es":"Bietigheim-Bissingen","en":"Bietigheim-Bissingen"}},{"name":"Billigheim","state_code":"BW","latitude":"49.34861000","longitude":"9.25389000","population":6096,"timezone":"Europe/Berlin","type":"adm4","translations":{"es":"Billigheim","en":"Billigheim"}},{"name":"Binau","state_code":"BW","latitude":"49.36833000","longitude":"9.05806000","population":1354,"timezone":"Europe/Berlin","type":"adm4","translations":{"es":"Binau","en":"Binau"}},{"name":"Bingen","state_code":"BW","latitude":"48.11127000","longitude":"9.27238000","population":2750,"timezone":"Europe/Berlin","type":"adm4","translations":{"es":"Bingen","en":"Bingen"}},{"name":"Binzen","state_code":"BW","latitude":"47.63333000","longitude":"7.61667000","population":2981,"timezone":"Europe/Berlin","type":"adm4","translations":{"es":"Binzen","en":"Binzen"}},{"name":"Birenbach","state_code":"BW","latitude":"48.74732000","longitude":"9.66115000","population":1919,"timezone":"Europe/Berlin","type":"adm4","translations":{"es":"Birenbach","en":"Birenbach"}},{"name":"Birkenfeld","state_code":"BW","latitude":"48.86667000","longitude":"8.63333000","population":10609,"timezone":"Europe/Berlin","type":"adm4","translations":{"es":"Birkenfeld","en":"Birkenfeld"}},{"name":"Bischweier","state_code":"BW","latitude":"48.83766000","longitude":"8.28412000","population":2933,"timezone":"Europe/Berlin","type":"adm4","translations":{"es":"Bischweier","en":"Bischweier"}},{"name":"Bisingen","state_code":"BW","latitude":"48.31012000","longitude":"8.91738000","population":9848,"timezone":"Europe/Berlin","type":"adm4","translations":{"es":"Bisingen","en":"Bisingen"}},{"name":"Bissingen an der Teck","state_code":"BW","latitude":"48.59915000","longitude":"9.49146000","population":3475,"timezone":"Europe/Berlin","type":"adm4","translations":{"es":"Bissingen an der Teck","en":"Bissingen an der Teck"}},{"name":"Bitz","state_code":"BW","latitude":"48.24400000","longitude":"9.09144000","population":3767,"timezone":"Europe/Berlin","type":"adm4","translations":{"es":"Bitz","en":"Bitz"}},{"name":"Blaubeuren","state_code":"BW","latitude":"48.41215000","longitude":"9.78427000","population":12657,"timezone":"Europe/Berlin","type":"city","translations":{"es":"Blaubeuren","en":"Blaubeuren"}},{"name":"Blaufelden","state_code":"BW","latitude":"49.29778000","longitude":"9.97389000","population":5441,"timezone":"Europe/Berlin","type":"adm4","translations":{"es":"Blaufelden","en":"Blaufelden"}},{"name":"Blumberg","state_code":"BW","latitude":"47.84058000","longitude":"8.53329000","population":10329,"timezone":"Europe/Berlin","type":"city","translations":{"es":"Blumberg","en":"Blumberg"}},{"name":"Böbingen an der Rems","state_code":"BW","latitude":"48.81955000","longitude":"9.92130000","population":4671,"timezone":"Europe/Berlin","type":"adm4","translations":{"es":"Böbingen an der Rems","en":"Böbingen an der Rems"}},{"name":"Böblingen","state_code":"BW","latitude":"48.68212000","longitude":"9.01171000","population":52093,"timezone":"Europe/Berlin","type":"adm3","translations":{"es":"Böblingen","en":"Böblingen"}},{"name":"Bodelshausen","state_code":"BW","latitude":"48.38886000","longitude":"8.97703000","population":5948,"timezone":"Europe/Berlin","type":"adm4","translations":{"es":"Bodelshausen","en":"Bodelshausen"}},{"name":"Bodman-Ludwigshafen","state_code":"BW","latitude":"47.81817000","longitude":"9.05540000","population":4868,"timezone":"Europe/Berlin","type":"adm4","translations":{"es":"Bodman-Ludwigshafen","en":"Bodman-Ludwigshafen"}},{"name":"Bodnegg","state_code":"BW","latitude":"47.71014000","longitude":"9.68841000","population":3288,"timezone":"Europe/Berlin","type":"adm4","translations":{"es":"Bodnegg","en":"Bodnegg"}},{"name":"Böhmenkirch","state_code":"BW","latitude":"48.68333000","longitude":"9.93333000","population":5692,"timezone":"Europe/Berlin","type":"adm4","translations":{"es":"Böhmenkirch","en":"Böhmenkirch"}},{"name":"Bolheim","state_code":"BW","latitude":"48.63141000","longitude":"10.14995000","population":3180,"timezone":"Europe/Berlin","type":"city","translations":{"es":"Bolheim","en":"Bolheim"}},{"name":"Boll","state_code":"BW","latitude":"48.64357000","longitude":"9.61295000","population":5296,"timezone":"Europe/Berlin","type":"adm4","translations":{"es":"Cápsula","en":"Boll"}},{"name":"Bollschweil","state_code":"BW","latitude":"47.92143000","longitude":"7.78986000","population":2313,"timezone":"Europe/Berlin","type":"adm4","translations":{"es":"Bollschweil","en":"Bollschweil"}},{"name":"Bondorf","state_code":"BW","latitude":"48.52064000","longitude":"8.83704000","population":6335,"timezone":"Europe/Berlin","type":"adm4","translations":{"es":"Bondorf","en":"Bondorf"}},{"name":"Bonndorf","state_code":"BW","latitude":"47.81863000","longitude":"8.34139000","population":6875,"timezone":"Europe/Berlin","type":"city","translations":{"es":"Bonndorf","en":"Bonndorf"}},{"name":"Bönnigheim","state_code":"BW","latitude":"49.04018000","longitude":"9.09386000","population":8447,"timezone":"Europe/Berlin","type":"city","translations":{"es":"Bönnigheim","en":"Bönnigheim"}},{"name":"Bopfingen","state_code":"BW","latitude":"48.85847000","longitude":"10.35417000","population":11696,"timezone":"Europe/Berlin","type":"city","translations":{"es":"Bopfingen","en":"Bopfingen"}},{"name":"Börtlingen","state_code":"BW","latitude":"48.75376000","longitude":"9.63181000","population":1742,"timezone":"Europe/Berlin","type":"adm4","translations":{"es":"Börtlingen","en":"Börtlingen"}},{"name":"Bösingen","state_code":"BW","latitude":"48.23333000","longitude":"8.55000000","population":3411,"timezone":"Europe/Berlin","type":"adm4","translations":{"es":"Bösingen","en":"Bösingen"}},{"name":"Böttingen","state_code":"BW","latitude":"48.10000000","longitude":"8.80000000","population":1425,"timezone":"Europe/Berlin","type":"adm4","translations":{"es":"Böttingen","en":"Böttingen"}},{"name":"Bötzingen","state_code":"BW","latitude":"48.07642000","longitude":"7.72485000","population":5534,"timezone":"Europe/Berlin","type":"adm4","translations":{"es":"Bötzingen","en":"Bötzingen"}},{"name":"Boxberg","state_code":"BW","latitude":"49.47965000","longitude":"9.64006000","population":6710,"timezone":"Europe/Berlin","type":"city","translations":{"es":"Boxberg","en":"Boxberg"}},{"name":"Brackenheim","state_code":"BW","latitude":"49.07787000","longitude":"9.06601000","population":16795,"timezone":"Europe/Berlin","type":"city","translations":{"es":"Brackenheim","en":"Brackenheim"}},{"name":"Bräunlingen","state_code":"BW","latitude":"47.92957000","longitude":"8.44806000","population":6058,"timezone":"Europe/Berlin","type":"city","translations":{"es":"Bräunlingen","en":"Bräunlingen"}},{"name":"Braunsbach","state_code":"BW","latitude":"49.19917000","longitude":"9.79056000","population":2631,"timezone":"Europe/Berlin","type":"adm4","translations":{"es":"Braunsbach","en":"Braunsbach"}},{"name":"Breisach am Rhein","state_code":"BW","latitude":"48.03279000","longitude":"7.58294000","population":14367,"timezone":"Europe/Berlin","type":"city","translations":{"es":"Breisach am Rhein","en":"Breisach am Rhein"}},{"name":"Breitnau","state_code":"BW","latitude":"47.93333000","longitude":"8.08333000","population":1715,"timezone":"Europe/Berlin","type":"adm4","translations":{"es":"Breitnau","en":"Breitnau"}},{"name":"Bretten","state_code":"BW","latitude":"49.03685000","longitude":"8.70745000","population":30136,"timezone":"Europe/Berlin","type":"city","translations":{"es":"Bretten","en":"Bretten"}},{"name":"Bretzfeld","state_code":"BW","latitude":"49.17944000","longitude":"9.43833000","population":12645,"timezone":"Europe/Berlin","type":"adm4","translations":{"es":"Bretzfeld","en":"Bretzfeld"}},{"name":"Bruchsal","state_code":"BW","latitude":"49.12426000","longitude":"8.59804000","population":47014,"timezone":"Europe/Berlin","type":"city","translations":{"es":"Bruchsal","en":"Bruchsal"}},{"name":"Brühl","state_code":"BW","latitude":"49.39722000","longitude":"8.53361000","population":14262,"timezone":"Europe/Berlin","type":"adm4","translations":{"es":"Brühl","en":"Brühl"}},{"name":"Bubsheim","state_code":"BW","latitude":"48.11667000","longitude":"8.83333000","population":1030,"timezone":"Europe/Berlin","type":"adm4","translations":{"es":"Bubsheim","en":"Bubsheim"}},{"name":"Buch am Ahorn","state_code":"BW","latitude":"49.53909000","longitude":"9.55560000","population":2372,"timezone":"Europe/Berlin","type":"city","translations":{"es":"Buch am Ahorn","en":"Buch am Ahorn"}},{"name":"Buchen im Odenwald","state_code":"BW","latitude":"49.52416000","longitude":"9.32293000","population":17773,"timezone":"Europe/Berlin","type":"city","translations":{"es":"Buchen im Odenwald","en":"Buchen im Odenwald"}},{"name":"Buchenbach","state_code":"BW","latitude":"47.96138000","longitude":"8.00909000","population":3118,"timezone":"Europe/Berlin","type":"adm4","translations":{"es":"Buchenbach","en":"Buchenbach"}},{"name":"Buggingen","state_code":"BW","latitude":"47.84750000","longitude":"7.63799000","population":4460,"timezone":"Europe/Berlin","type":"adm4","translations":{"es":"Buggingen","en":"Buggingen"}},{"name":"Bühl","state_code":"BW","latitude":"48.69676000","longitude":"8.13523000","population":29214,"timezone":"Europe/Berlin","type":"city","translations":{"es":"Bühl","en":"Bühl"}},{"name":"Bühlertal","state_code":"BW","latitude":"48.68569000","longitude":"8.18876000","population":8144,"timezone":"Europe/Berlin","type":"adm4","translations":{"es":"Bühlertal","en":"Bühlertal"}},{"name":"Bühlertann","state_code":"BW","latitude":"49.04167000","longitude":"9.90861000","population":3084,"timezone":"Europe/Berlin","type":"adm4","translations":{"es":"Bühlertann","en":"Bühlertann"}},{"name":"Bühlerzell","state_code":"BW","latitude":"49.00333000","longitude":"9.92056000","population":2129,"timezone":"Europe/Berlin","type":"adm4","translations":{"es":"Bühlerzell","en":"Bühlerzell"}},{"name":"Burgrieden","state_code":"BW","latitude":"48.23333000","longitude":"9.93333000","population":4273,"timezone":"Europe/Berlin","type":"adm4","translations":{"es":"Burgrieden","en":"Burgrieden"}},{"name":"Burgstetten","state_code":"BW","latitude":"48.92805000","longitude":"9.37239000","population":3714,"timezone":"Europe/Berlin","type":"adm4","translations":{"es":"Burgstetten","en":"Burgstetten"}},{"name":"Burladingen","state_code":"BW","latitude":"48.29111000","longitude":"9.11286000","population":12263,"timezone":"Europe/Berlin","type":"city","translations":{"es":"Burladingen","en":"Burladingen"}},{"name":"Büsingen","state_code":"BW","latitude":"47.69638000","longitude":"8.68759000","population":1473,"timezone":"Europe/Busingen","type":"city","translations":{"es":"Büsingen","en":"Büsingen"}},{"name":"Calw","state_code":"BW","latitude":"48.71419000","longitude":"8.74031000","population":24448,"timezone":"Europe/Berlin","type":"adm3","translations":{"es":"Calw","en":"Calw"}},{"name":"Cleebronn","state_code":"BW","latitude":"49.04500000","longitude":"9.03694000","population":3255,"timezone":"Europe/Berlin","type":"adm4","translations":{"es":"Cleebronn","en":"Cleebronn"}},{"name":"Crailsheim","state_code":"BW","latitude":"49.13444000","longitude":"10.07193000","population":36239,"timezone":"Europe/Berlin","type":"city","translations":{"es":"Crailsheim","en":"Crailsheim"}},{"name":"Creglingen","state_code":"BW","latitude":"49.46937000","longitude":"10.03119000","population":4565,"timezone":"Europe/Berlin","type":"city","translations":{"es":"Creglingen","en":"Creglingen"}},{"name":"Daisendorf","state_code":"BW","latitude":"47.71265000","longitude":"9.26783000","population":1564,"timezone":"Europe/Berlin","type":"adm4","translations":{"es":"Daisendorf","en":"Daisendorf"}},{"name":"Dauchingen","state_code":"BW","latitude":"48.08993000","longitude":"8.55011000","population":3908,"timezone":"Europe/Berlin","type":"adm4","translations":{"es":"Dauchingen","en":"Dauchingen"}},{"name":"Deckenpfronn","state_code":"BW","latitude":"48.65128000","longitude":"8.82417000","population":3486,"timezone":"Europe/Berlin","type":"adm4","translations":{"es":"Deckenpronn","en":"Deckenpfronn"}},{"name":"Deggingen","state_code":"BW","latitude":"48.59710000","longitude":"9.71891000","population":5295,"timezone":"Europe/Berlin","type":"adm4","translations":{"es":"Deggingen","en":"Deggingen"}},{"name":"Deilingen","state_code":"BW","latitude":"48.17410000","longitude":"8.78533000","population":1922,"timezone":"Europe/Berlin","type":"adm4","translations":{"es":"Deilingen","en":"Deilingen"}},{"name":"Deißlingen","state_code":"BW","latitude":"48.11230000","longitude":"8.60736000","population":6364,"timezone":"Europe/Berlin","type":"adm4","translations":{"es":"Deißlingen","en":"Deißlingen"}},{"name":"Deizisau","state_code":"BW","latitude":"48.71220000","longitude":"9.38610000","population":6928,"timezone":"Europe/Berlin","type":"adm4","translations":{"es":"Deizisau","en":"Deizisau"}},{"name":"Denkendorf","state_code":"BW","latitude":"48.69555000","longitude":"9.31675000","population":10357,"timezone":"Europe/Berlin","type":"adm4","translations":{"es":"Denkendorf","en":"Denkendorf"}},{"name":"Denkingen","state_code":"BW","latitude":"48.11110000","longitude":"8.73820000","population":2949,"timezone":"Europe/Berlin","type":"adm4","translations":{"es":"Denkingen","en":"Denkingen"}},{"name":"Denzlingen","state_code":"BW","latitude":"48.06667000","longitude":"7.88333000","population":13899,"timezone":"Europe/Berlin","type":"adm4","translations":{"es":"Denzlingen","en":"Denzlingen"}},{"name":"Dettenhausen","state_code":"BW","latitude":"48.60758000","longitude":"9.10041000","population":5630,"timezone":"Europe/Berlin","type":"adm4","translations":{"es":"Dettenhausen","en":"Dettenhausen"}},{"name":"Dettighofen","state_code":"BW","latitude":"47.62333000","longitude":"8.48512000","population":1231,"timezone":"Europe/Berlin","type":"adm4","translations":{"es":"Dettighofen","en":"Dettighofen"}},{"name":"Dettingen","state_code":"BW","latitude":"48.26246000","longitude":"9.72161000","population":2240,"timezone":"Europe/Berlin","type":"city","translations":{"es":"Dettingen","en":"Dettingen"}},{"name":"Dettingen an der Erms","state_code":"BW","latitude":"48.53077000","longitude":"9.34458000","population":10204,"timezone":"Europe/Berlin","type":"adm4","translations":{"es":"Dettingen an der Erms","en":"Dettingen an der Erms"}},{"name":"Dettingen unter Teck","state_code":"BW","latitude":"48.61667000","longitude":"9.45000000","population":6312,"timezone":"Europe/Berlin","type":"adm4","translations":{"es":"Dettingen bajo Teck","en":"Dettingen unter Teck"}},{"name":"Dielheim","state_code":"BW","latitude":"49.28417000","longitude":"8.73806000","population":9144,"timezone":"Europe/Berlin","type":"adm4","translations":{"es":"Dielheim","en":"Dielheim"}},{"name":"Dietenheim","state_code":"BW","latitude":"48.21072000","longitude":"10.07163000","population":6922,"timezone":"Europe/Berlin","type":"city","translations":{"es":"Dietenheim","en":"Dietenheim"}},{"name":"Dietingen","state_code":"BW","latitude":"48.20480000","longitude":"8.64864000","population":4296,"timezone":"Europe/Berlin","type":"adm4","translations":{"es":"Dietingen","en":"Dietingen"}},{"name":"Dischingen","state_code":"BW","latitude":"48.70000000","longitude":"10.36667000","population":4481,"timezone":"Europe/Berlin","type":"adm4","translations":{"es":"Dischingen","en":"Dischingen"}},{"name":"Ditzingen","state_code":"BW","latitude":"48.82672000","longitude":"9.06703000","population":22826,"timezone":"Europe/Berlin","type":"city","translations":{"es":"Ditzingen","en":"Ditzingen"}},{"name":"Dobel","state_code":"BW","latitude":"48.80000000","longitude":"8.50000000","population":2405,"timezone":"Europe/Berlin","type":"adm4","translations":{"es":"Dobel","en":"Dobel"}},{"name":"Dogern","state_code":"BW","latitude":"47.60952000","longitude":"8.16713000","population":2312,"timezone":"Europe/Berlin","type":"adm4","translations":{"es":"Dogern","en":"Dogern"}},{"name":"Donaueschingen","state_code":"BW","latitude":"47.95514000","longitude":"8.49707000","population":22312,"timezone":"Europe/Berlin","type":"city","translations":{"es":"Donaueschingen","en":"Donaueschingen"}},{"name":"Donzdorf","state_code":"BW","latitude":"48.68544000","longitude":"9.81053000","population":11031,"timezone":"Europe/Berlin","type":"city","translations":{"es":"Donzdorf","en":"Donzdorf"}},{"name":"Dormettingen","state_code":"BW","latitude":"48.23688000","longitude":"8.77327000","population":1114,"timezone":"Europe/Berlin","type":"adm4","translations":{"es":"Dormettingen","en":"Dormettingen"}},{"name":"Dornhan","state_code":"BW","latitude":"48.35008000","longitude":"8.50901000","population":6219,"timezone":"Europe/Berlin","type":"city","translations":{"es":"Dornhan","en":"Dornhan"}},{"name":"Dornstadt","state_code":"BW","latitude":"48.46697000","longitude":"9.94434000","population":9376,"timezone":"Europe/Berlin","type":"adm4","translations":{"es":"Dornstadt","en":"Dornstadt"}},{"name":"Dornstetten","state_code":"BW","latitude":"48.47198000","longitude":"8.49817000","population":8282,"timezone":"Europe/Berlin","type":"city","translations":{"es":"Dornstetten","en":"Dornstetten"}},{"name":"Dörzbach","state_code":"BW","latitude":"49.38355000","longitude":"9.70732000","population":2597,"timezone":"Europe/Berlin","type":"adm4","translations":{"es":"Dörzbach","en":"Dörzbach"}},{"name":"Dossenheim","state_code":"BW","latitude":"49.45028000","longitude":"8.67472000","population":12534,"timezone":"Europe/Berlin","type":"adm4","translations":{"es":"Dossenheim","en":"Dossenheim"}},{"name":"Dotternhausen","state_code":"BW","latitude":"48.22848000","longitude":"8.79228000","population":1824,"timezone":"Europe/Berlin","type":"adm4","translations":{"es":"Dotternhausen","en":"Dotternhausen"}},{"name":"Dunningen","state_code":"BW","latitude":"48.21242000","longitude":"8.50619000","population":6648,"timezone":"Europe/Berlin","type":"adm4","translations":{"es":"Dunningen","en":"Dunningen"}},{"name":"Durbach","state_code":"BW","latitude":"48.49352000","longitude":"8.01736000","population":4098,"timezone":"Europe/Berlin","type":"adm4","translations":{"es":"Durbach","en":"Durbach"}},{"name":"Dürbheim","state_code":"BW","latitude":"48.05623000","longitude":"8.79344000","population":1728,"timezone":"Europe/Berlin","type":"adm4","translations":{"es":"Dürbheim","en":"Dürbheim"}},{"name":"Durlangen","state_code":"BW","latitude":"48.85632000","longitude":"9.79654000","population":2806,"timezone":"Europe/Berlin","type":"adm4","translations":{"es":"Durlangen","en":"Durlangen"}},{"name":"Dürmentingen","state_code":"BW","latitude":"48.11667000","longitude":"9.53333000","population":2684,"timezone":"Europe/Berlin","type":"adm4","translations":{"es":"Dürmentingen","en":"Dürmentingen"}},{"name":"Durmersheim","state_code":"BW","latitude":"48.93333000","longitude":"8.26667000","population":12142,"timezone":"Europe/Berlin","type":"adm4","translations":{"es":"Durmersheim","en":"Durmersheim"}},{"name":"Dürnau","state_code":"BW","latitude":"48.64079000","longitude":"9.63544000","population":2211,"timezone":"Europe/Berlin","type":"adm4","translations":{"es":"Dürnau","en":"Dürnau"}},{"name":"Dußlingen","state_code":"BW","latitude":"48.45357000","longitude":"9.05552000","population":6353,"timezone":"Europe/Berlin","type":"adm4","translations":{"es":"Dußlingen","en":"Dußlingen"}},{"name":"Ebenweiler","state_code":"BW","latitude":"47.90000000","longitude":"9.51667000","population":1116,"timezone":"Europe/Berlin","type":"adm4","translations":{"es":"Ebenweiler","en":"Ebenweiler"}},{"name":"Eberbach","state_code":"BW","latitude":"49.46680000","longitude":"8.99016000","population":14489,"timezone":"Europe/Berlin","type":"city","translations":{"es":"Eberbach","en":"Eberbach"}},{"name":"Eberdingen","state_code":"BW","latitude":"48.87942000","longitude":"8.96502000","population":7014,"timezone":"Europe/Berlin","type":"adm4","translations":{"es":"Eberdingen","en":"Eberdingen"}},{"name":"Eberhardzell","state_code":"BW","latitude":"48.00000000","longitude":"9.81667000","population":4630,"timezone":"Europe/Berlin","type":"adm4","translations":{"es":"Eberhardzell","en":"Eberhardzell"}},{"name":"Ebersbach an der Fils","state_code":"BW","latitude":"48.71600000","longitude":"9.52360000","population":15768,"timezone":"Europe/Berlin","type":"city","translations":{"es":"Ebersbach an der Fils","en":"Ebersbach an der Fils"}},{"name":"Ebersbach-Musbach","state_code":"BW","latitude":"47.96667000","longitude":"9.58333000","population":1729,"timezone":"Europe/Berlin","type":"adm4","translations":{"es":"Ebersbach-Musbach","en":"Ebersbach-Musbach"}},{"name":"Eberstadt","state_code":"BW","latitude":"49.18028000","longitude":"9.32111000","population":3231,"timezone":"Europe/Berlin","type":"adm4","translations":{"es":"Eberstadt","en":"Eberstadt"}},{"name":"Ebhausen","state_code":"BW","latitude":"48.58333000","longitude":"8.68333000","population":4862,"timezone":"Europe/Berlin","type":"adm4","translations":{"es":"Ebhausen","en":"Ebhausen"}},{"name":"Ebringen","state_code":"BW","latitude":"47.95780000","longitude":"7.77652000","population":2963,"timezone":"Europe/Berlin","type":"adm4","translations":{"es":"Ebringen","en":"Ebringen"}},{"name":"Edingen-Neckarhausen","state_code":"BW","latitude":"49.45722000","longitude":"8.60639000","population":14211,"timezone":"Europe/Berlin","type":"adm4","translations":{"es":"Edingen-Neckarhausen","en":"Edingen-Neckarhausen"}},{"name":"Efringen-Kirchen","state_code":"BW","latitude":"47.65000000","longitude":"7.56667000","population":8788,"timezone":"Europe/Berlin","type":"adm4","translations":{"es":"Iglesia de Efringen","en":"Efringen-Kirchen"}},{"name":"Egenhausen","state_code":"BW","latitude":"48.56667000","longitude":"8.61667000","population":2143,"timezone":"Europe/Berlin","type":"adm4","translations":{"es":"Egenhausen","en":"Egenhausen"}},{"name":"Eggenstein-Leopoldshafen","state_code":"BW","latitude":"49.09006000","longitude":"8.39879000","population":16777,"timezone":"Europe/Berlin","type":"adm4","translations":{"es":"Eggenstein-Leopoldshafen","en":"Eggenstein-Leopoldshafen"}},{"name":"Eggingen","state_code":"BW","latitude":"47.70000000","longitude":"8.40000000","population":1780,"timezone":"Europe/Berlin","type":"adm4","translations":{"es":"Eggingen","en":"Eggingen"}},{"name":"Ehingen","state_code":"BW","latitude":"48.28259000","longitude":"9.72749000","population":27504,"timezone":"Europe/Berlin","type":"city","translations":{"es":"Ehingen","en":"Ehingen"}},{"name":"Ehningen","state_code":"BW","latitude":"48.65882000","longitude":"8.94124000","population":9399,"timezone":"Europe/Berlin","type":"adm4","translations":{"es":"Ehningen","en":"Ehningen"}},{"name":"Eichstetten","state_code":"BW","latitude":"48.09427000","longitude":"7.74244000","population":3184,"timezone":"Europe/Berlin","type":"city","translations":{"es":"Eichstetten","en":"Eichstetten"}},{"name":"Eigeltingen","state_code":"BW","latitude":"47.85802000","longitude":"8.89784000","population":3957,"timezone":"Europe/Berlin","type":"adm4","translations":{"es":"Eigeltingen","en":"Eigeltingen"}},{"name":"Eimeldingen","state_code":"BW","latitude":"47.63333000","longitude":"7.60000000","population":2570,"timezone":"Europe/Berlin","type":"adm4","translations":{"es":"Eimeldingen","en":"Eimeldingen"}},{"name":"Eisenbach","state_code":"BW","latitude":"47.96117000","longitude":"8.26802000","population":2203,"timezone":"Europe/Berlin","type":"city","translations":{"es":"Eisenbach","en":"Eisenbach"}},{"name":"Eisingen","state_code":"BW","latitude":"48.95000000","longitude":"8.66667000","population":4393,"timezone":"Europe/Berlin","type":"adm4","translations":{"es":"Eisingen","en":"Eisingen"}},{"name":"Eislingen","state_code":"BW","latitude":"48.69515000","longitude":"9.70676000","population":21243,"timezone":"Europe/Berlin","type":"city","translations":{"es":"Eislingen","en":"Eislingen"}},{"name":"Ellenberg","state_code":"BW","latitude":"49.01667000","longitude":"10.21667000","population":1862,"timezone":"Europe/Berlin","type":"adm4","translations":{"es":"Ellenberg","en":"Ellenberg"}},{"name":"Ellhofen","state_code":"BW","latitude":"49.14667000","longitude":"9.32194000","population":3982,"timezone":"Europe/Berlin","type":"adm4","translations":{"es":"Ellhofen","en":"Ellhofen"}},{"name":"Ellwangen","state_code":"BW","latitude":"48.96164000","longitude":"10.13173000","population":25372,"timezone":"Europe/Berlin","type":"city","translations":{"es":"Ellwangen","en":"Ellwangen"}},{"name":"Elzach","state_code":"BW","latitude":"48.17247000","longitude":"8.06992000","population":7601,"timezone":"Europe/Berlin","type":"city","translations":{"es":"Elzach","en":"Elzach"}},{"name":"Emmendingen","state_code":"BW","latitude":"48.12096000","longitude":"7.85359000","population":29035,"timezone":"Europe/Berlin","type":"adm3","translations":{"es":"Emmendingen","en":"Emmendingen"}},{"name":"Emmingen-Liptingen","state_code":"BW","latitude":"47.93333000","longitude":"8.88333000","population":4881,"timezone":"Europe/Berlin","type":"adm4","translations":{"es":"Emmingen-Liptingen","en":"Emmingen-Liptingen"}},{"name":"Empfingen","state_code":"BW","latitude":"48.39258000","longitude":"8.71036000","population":4321,"timezone":"Europe/Berlin","type":"adm4","translations":{"es":"Empfingen","en":"Empfingen"}},{"name":"Endingen","state_code":"BW","latitude":"48.14221000","longitude":"7.70049000","population":9034,"timezone":"Europe/Berlin","type":"city","translations":{"es":"Endingen","en":"Endingen"}},{"name":"Engelsbrand","state_code":"BW","latitude":"48.83333000","longitude":"8.65000000","population":4525,"timezone":"Europe/Berlin","type":"adm4","translations":{"es":"Marca inglesa","en":"Engelsbrand"}},{"name":"Engen","state_code":"BW","latitude":"47.85534000","longitude":"8.77342000","population":11431,"timezone":"Europe/Berlin","type":"city","translations":{"es":"Engen","en":"Engen"}},{"name":"Eningen unter Achalm","state_code":"BW","latitude":"48.48686000","longitude":"9.25946000","population":11582,"timezone":"Europe/Berlin","type":"adm4","translations":{"es":"Eningen bajo Achalm","en":"Eningen unter Achalm"}},{"name":"Ennetach","state_code":"BW","latitude":"48.05238000","longitude":"9.32010000","population":1600,"timezone":"Europe/Berlin","type":"city","translations":{"es":"Ennetach","en":"Ennetach"}},{"name":"Enzklösterle","state_code":"BW","latitude":"48.66638000","longitude":"8.47083000","population":1404,"timezone":"Europe/Berlin","type":"adm4","translations":{"es":"Enzklösterle","en":"Enzklösterle"}},{"name":"Epfenbach","state_code":"BW","latitude":"49.33917000","longitude":"8.90778000","population":2412,"timezone":"Europe/Berlin","type":"adm4","translations":{"es":"Epfenbach","en":"Epfenbach"}},{"name":"Epfendorf","state_code":"BW","latitude":"48.25000000","longitude":"8.60000000","population":3262,"timezone":"Europe/Berlin","type":"adm4","translations":{"es":"Epfendorf","en":"Epfendorf"}},{"name":"Eppelheim","state_code":"BW","latitude":"49.40190000","longitude":"8.63644000","population":15543,"timezone":"Europe/Berlin","type":"city","translations":{"es":"Eppelheim","en":"Eppelheim"}},{"name":"Eppingen","state_code":"BW","latitude":"49.13645000","longitude":"8.91229000","population":22252,"timezone":"Europe/Berlin","type":"city","translations":{"es":"Eppingen","en":"Eppingen"}},{"name":"Erbach","state_code":"BW","latitude":"48.32841000","longitude":"9.88752000","population":14080,"timezone":"Europe/Berlin","type":"city","translations":{"es":"Erbach","en":"Erbach"}},{"name":"Erdmannhausen","state_code":"BW","latitude":"48.94256000","longitude":"9.29615000","population":5318,"timezone":"Europe/Berlin","type":"adm4","translations":{"es":"Erdmannhausen","en":"Erdmannhausen"}},{"name":"Eriskirch","state_code":"BW","latitude":"47.62479000","longitude":"9.54197000","population":5028,"timezone":"Europe/Berlin","type":"adm4","translations":{"es":"Eriskirch","en":"Eriskirch"}},{"name":"Erkenbrechtsweiler","state_code":"BW","latitude":"48.55656000","longitude":"9.43211000","population":2193,"timezone":"Europe/Berlin","type":"adm4","translations":{"es":"Erkenbrechtsweiler","en":"Erkenbrechtsweiler"}},{"name":"Erlenbach","state_code":"BW","latitude":"49.17250000","longitude":"9.26833000","population":5209,"timezone":"Europe/Berlin","type":"adm4","translations":{"es":"Erlenbach","en":"Erlenbach"}},{"name":"Erlenmoos","state_code":"BW","latitude":"48.06530000","longitude":"9.97567000","population":1805,"timezone":"Europe/Berlin","type":"adm4","translations":{"es":"Erlenmoos","en":"Erlenmoos"}},{"name":"Erligheim","state_code":"BW","latitude":"49.02250000","longitude":"9.09722000","population":3127,"timezone":"Europe/Berlin","type":"adm4","translations":{"es":"Erligheim","en":"Erligheim"}},{"name":"Erolzheim","state_code":"BW","latitude":"48.09001000","longitude":"10.07300000","population":3423,"timezone":"Europe/Berlin","type":"adm4","translations":{"es":"Erolzheim","en":"Erolzheim"}},{"name":"Ersingen","state_code":"BW","latitude":"48.29260000","longitude":"9.85510000","population":1200,"timezone":"Europe/Berlin","type":"city","translations":{"es":"Ersingen","en":"Ersingen"}},{"name":"Ertingen","state_code":"BW","latitude":"48.10000000","longitude":"9.46667000","population":5424,"timezone":"Europe/Berlin","type":"adm4","translations":{"es":"Ertingen","en":"Ertingen"}},{"name":"Eschach","state_code":"BW","latitude":"48.88832000","longitude":"9.86999000","population":1938,"timezone":"Europe/Berlin","type":"adm4","translations":{"es":"Eschach","en":"Eschach"}},{"name":"Eschelbronn","state_code":"BW","latitude":"49.31944000","longitude":"8.86528000","population":2810,"timezone":"Europe/Berlin","type":"adm4","translations":{"es":"Eschelbronn","en":"Eschelbronn"}},{"name":"Eschenbach","state_code":"BW","latitude":"48.65264000","longitude":"9.67037000","population":2111,"timezone":"Europe/Berlin","type":"adm4","translations":{"es":"Eschenbach","en":"Eschenbach"}},{"name":"Essingen","state_code":"BW","latitude":"48.80859000","longitude":"10.02773000","population":6383,"timezone":"Europe/Berlin","type":"adm4","translations":{"es":"Essingen","en":"Essingen"}},{"name":"Esslingen","state_code":"BW","latitude":"48.73961000","longitude":"9.30473000","population":92390,"timezone":"Europe/Berlin","type":"adm3","translations":{"es":"Esslingen","en":"Esslingen"}},{"name":"Ettenheim","state_code":"BW","latitude":"48.25696000","longitude":"7.81247000","population":13985,"timezone":"Europe/Berlin","type":"city","translations":{"es":"Ettenheim","en":"Ettenheim"}},{"name":"Ettlingen","state_code":"BW","latitude":"48.94094000","longitude":"8.40763000","population":39763,"timezone":"Europe/Berlin","type":"city","translations":{"es":"Ettlingen","en":"Ettlingen"}},{"name":"Eutingen an der Enz","state_code":"BW","latitude":"48.91246000","longitude":"8.74898000","population":5583,"timezone":"Europe/Berlin","type":"city","translations":{"es":"Eutingen an der Enz","en":"Eutingen an der Enz"}},{"name":"Fahrenbach","state_code":"BW","latitude":"49.43139000","longitude":"9.15056000","population":2723,"timezone":"Europe/Berlin","type":"adm4","translations":{"es":"Fahrenbach","en":"Fahrenbach"}},{"name":"Feldberg","state_code":"BW","latitude":"47.77435000","longitude":"7.64142000","population":1932,"timezone":"Europe/Berlin","type":"city","translations":{"es":"Feldberg","en":"Feldberg"}},{"name":"Fellbach","state_code":"BW","latitude":"48.80912000","longitude":"9.27697000","population":46205,"timezone":"Europe/Berlin","type":"city","translations":{"es":"Fellbach","en":"Fellbach"}},{"name":"Fichtenberg","state_code":"BW","latitude":"48.98601000","longitude":"9.71199000","population":3008,"timezone":"Europe/Berlin","type":"adm4","translations":{"es":"Fichtenberg","en":"Fichtenberg"}},{"name":"Filderstadt","state_code":"BW","latitude":"48.65698000","longitude":"9.22049000","population":46295,"timezone":"Europe/Berlin","type":"adm4","translations":{"es":"Filderstadt","en":"Filderstadt"}},{"name":"Fischerbach","state_code":"BW","latitude":"48.28687000","longitude":"8.10959000","population":1746,"timezone":"Europe/Berlin","type":"adm4","translations":{"es":"Fischerbach","en":"Fischerbach"}},{"name":"Flein","state_code":"BW","latitude":"49.10306000","longitude":"9.21083000","population":7398,"timezone":"Europe/Berlin","type":"adm4","translations":{"es":"Flein","en":"Flein"}},{"name":"Forbach","state_code":"BW","latitude":"48.68333000","longitude":"8.35000000","population":4610,"timezone":"Europe/Berlin","type":"adm4","translations":{"es":"Forbach","en":"Forbach"}},{"name":"Forchheim","state_code":"BW","latitude":"48.16667000","longitude":"7.70000000","population":1268,"timezone":"Europe/Berlin","type":"adm4","translations":{"es":"Forchheim","en":"Forchheim"}},{"name":"Forchtenberg","state_code":"BW","latitude":"49.28867000","longitude":"9.56026000","population":5302,"timezone":"Europe/Berlin","type":"city","translations":{"es":"Forchtenberg","en":"Forchtenberg"}},{"name":"Forst","state_code":"BW","latitude":"49.15861000","longitude":"8.58083000","population":8159,"timezone":"Europe/Berlin","type":"adm4","translations":{"es":"Bosque","en":"Forst"}},{"name":"Freiberg am Neckar","state_code":"BW","latitude":"48.93196000","longitude":"9.20240000","population":16227,"timezone":"Europe/Berlin","type":"city","translations":{"es":"Freiberg am Neckar","en":"Freiberg am Neckar"}},{"name":"Freiburg","state_code":"BW","latitude":"47.99590000","longitude":"7.85222000","population":215966,"timezone":"Europe/Berlin","type":"adm2","translations":{"es":"Friburgo","en":"Freiburg"}},{"name":"Freiburg Region","state_code":"BW","latitude":"48.16667000","longitude":"8.33333000","population":null,"timezone":"Europe/Berlin","type":"region","translations":{"es":"Región de Friburgo","en":"Freiburg Region"}},{"name":"Freudenberg","state_code":"BW","latitude":"49.75349000","longitude":"9.32748000","population":3701,"timezone":"Europe/Berlin","type":"city","translations":{"es":"Freudenberg","en":"Freudenberg"}},{"name":"Freudenstadt","state_code":"BW","latitude":"48.46695000","longitude":"8.41371000","population":24337,"timezone":"Europe/Berlin","type":"adm3","translations":{"es":"Freudenstadt","en":"Freudenstadt"}},{"name":"Freudental","state_code":"BW","latitude":"49.00972000","longitude":"9.05917000","population":2644,"timezone":"Europe/Berlin","type":"adm4","translations":{"es":"Freudental","en":"Freudental"}},{"name":"Frickenhausen","state_code":"BW","latitude":"48.59353000","longitude":"9.36005000","population":9303,"timezone":"Europe/Berlin","type":"adm4","translations":{"es":"Frickenhausen","en":"Frickenhausen"}},{"name":"Frickingen","state_code":"BW","latitude":"47.81438000","longitude":"9.27349000","population":3185,"timezone":"Europe/Berlin","type":"adm4","translations":{"es":"Maldita sea","en":"Frickingen"}},{"name":"Fridingen an der Donau","state_code":"BW","latitude":"48.01955000","longitude":"8.92322000","population":3161,"timezone":"Europe/Berlin","type":"city","translations":{"es":"Fridingen an der Donau","en":"Fridingen an der Donau"}},{"name":"Friedenweiler","state_code":"BW","latitude":"47.91778000","longitude":"8.25627000","population":2074,"timezone":"Europe/Berlin","type":"adm4","translations":{"es":"Friedenweiler","en":"Friedenweiler"}},{"name":"Friedrichshafen","state_code":"BW","latitude":"47.65689000","longitude":"9.47554000","population":62796,"timezone":"Europe/Berlin","type":"adm3","translations":{"es":"Friedrichshafen","en":"Friedrichshafen"}},{"name":"Friolzheim","state_code":"BW","latitude":"48.83333000","longitude":"8.83333000","population":4271,"timezone":"Europe/Berlin","type":"adm4","translations":{"es":"Friolzheim","en":"Friolzheim"}},{"name":"Frittlingen","state_code":"BW","latitude":"48.12709000","longitude":"8.70774000","population":2179,"timezone":"Europe/Berlin","type":"adm4","translations":{"es":"Frittlingen","en":"Frittlingen"}},{"name":"Fronreute","state_code":"BW","latitude":"47.87053000","longitude":"9.56944000","population":5017,"timezone":"Europe/Berlin","type":"adm4","translations":{"es":"Fronreute","en":"Fronreute"}},{"name":"Fürstenberg","state_code":"BW","latitude":"47.67895000","longitude":"9.15535000","population":2278,"timezone":"Europe/Berlin","type":"city","translations":{"es":"Fürstenberg","en":"Fürstenberg"}},{"name":"Furtwangen","state_code":"BW","latitude":"48.05156000","longitude":"8.20715000","population":9655,"timezone":"Europe/Berlin","type":"city","translations":{"es":"Furtwangen","en":"Furtwangen"}},{"name":"Gaggenau","state_code":"BW","latitude":"48.80000000","longitude":"8.33333000","population":30190,"timezone":"Europe/Berlin","type":"city","translations":{"es":"Gaggenau","en":"Gaggenau"}},{"name":"Gaiberg","state_code":"BW","latitude":"49.36639000","longitude":"8.74972000","population":2429,"timezone":"Europe/Berlin","type":"adm4","translations":{"es":"Gaiberg","en":"Gaiberg"}},{"name":"Gaienhofen","state_code":"BW","latitude":"47.68333000","longitude":"8.98333000","population":3424,"timezone":"Europe/Berlin","type":"adm4","translations":{"es":"Gaienhofen","en":"Gaienhofen"}},{"name":"Gaildorf","state_code":"BW","latitude":"49.00027000","longitude":"9.76953000","population":12361,"timezone":"Europe/Berlin","type":"city","translations":{"es":"Gaildorf","en":"Gaildorf"}},{"name":"Gailingen","state_code":"BW","latitude":"47.69711000","longitude":"8.75567000","population":3008,"timezone":"Europe/Berlin","type":"city","translations":{"es":"Gailingen","en":"Gailingen"}},{"name":"Gammelshausen","state_code":"BW","latitude":"48.64023000","longitude":"9.65072000","population":1508,"timezone":"Europe/Berlin","type":"adm4","translations":{"es":"Gammelshausen","en":"Gammelshausen"}},{"name":"Gammertingen","state_code":"BW","latitude":"48.25240000","longitude":"9.22349000","population":6298,"timezone":"Europe/Berlin","type":"city","translations":{"es":"Gammertingen","en":"Gammertingen"}},{"name":"Gärtringen","state_code":"BW","latitude":"48.64176000","longitude":"8.90073000","population":12852,"timezone":"Europe/Berlin","type":"adm4","translations":{"es":"Gärtringen","en":"Gärtringen"}},{"name":"Gechingen","state_code":"BW","latitude":"48.69527000","longitude":"8.82915000","population":3766,"timezone":"Europe/Berlin","type":"adm4","translations":{"es":"Gechingen","en":"Gechingen"}},{"name":"Geisingen","state_code":"BW","latitude":"47.92504000","longitude":"8.65002000","population":6315,"timezone":"Europe/Berlin","type":"city","translations":{"es":"Geisingen","en":"Geisingen"}},{"name":"Geislingen","state_code":"BW","latitude":"48.28768000","longitude":"8.81241000","population":5993,"timezone":"Europe/Berlin","type":"city","translations":{"es":"Geislingen","en":"Geislingen"}},{"name":"Geislingen an der Steige","state_code":"BW","latitude":"48.62423000","longitude":"9.82736000","population":29261,"timezone":"Europe/Berlin","type":"city","translations":{"es":"Geislingen an der Steige","en":"Geislingen an der Steige"}},{"name":"Gemmingen","state_code":"BW","latitude":"49.15639000","longitude":"8.98194000","population":5542,"timezone":"Europe/Berlin","type":"adm4","translations":{"es":"Gemmingen","en":"Gemmingen"}},{"name":"Gemmrigheim","state_code":"BW","latitude":"49.02833000","longitude":"9.15556000","population":4930,"timezone":"Europe/Berlin","type":"adm4","translations":{"es":"Gemmrigheim","en":"Gemmrigheim"}},{"name":"Gengenbach","state_code":"BW","latitude":"48.40476000","longitude":"8.01433000","population":10984,"timezone":"Europe/Berlin","type":"city","translations":{"es":"Gengenbach","en":"Gengenbach"}},{"name":"Gerabronn","state_code":"BW","latitude":"48.97071000","longitude":"9.91986000","population":4520,"timezone":"Europe/Berlin","type":"city","translations":{"es":"Gerabronn","en":"Gerabronn"}},{"name":"Gerlingen","state_code":"BW","latitude":"48.79954000","longitude":"9.06316000","population":19774,"timezone":"Europe/Berlin","type":"city","translations":{"es":"Gerlingen","en":"Gerlingen"}},{"name":"Gernsbach","state_code":"BW","latitude":"48.77034000","longitude":"8.34306000","population":14438,"timezone":"Europe/Berlin","type":"city","translations":{"es":"Gernsbach","en":"Gernsbach"}},{"name":"Gerstetten","state_code":"BW","latitude":"48.62254000","longitude":"10.01984000","population":11852,"timezone":"Europe/Berlin","type":"adm4","translations":{"es":"Gerstetten","en":"Gerstetten"}},{"name":"Giengen an der Brenz","state_code":"BW","latitude":"48.62219000","longitude":"10.24312000","population":20201,"timezone":"Europe/Berlin","type":"city","translations":{"es":"Giengen an der Brenz","en":"Giengen an der Brenz"}},{"name":"Gingen an der Fils","state_code":"BW","latitude":"48.65979000","longitude":"9.78092000","population":4607,"timezone":"Europe/Berlin","type":"adm4","translations":{"es":"Gingen an der Fils","en":"Gingen an der Fils"}},{"name":"Glatten","state_code":"BW","latitude":"48.44246000","longitude":"8.51116000","population":2510,"timezone":"Europe/Berlin","type":"adm4","translations":{"es":"Glatten","en":"Glatten"}},{"name":"Göggingen","state_code":"BW","latitude":"48.86123000","longitude":"9.88398000","population":2573,"timezone":"Europe/Berlin","type":"adm4","translations":{"es":"Göggingen","en":"Göggingen"}},{"name":"Gomadingen","state_code":"BW","latitude":"48.39980000","longitude":"9.39065000","population":2382,"timezone":"Europe/Berlin","type":"adm4","translations":{"es":"Gomadingen","en":"Gomadingen"}},{"name":"Gomaringen","state_code":"BW","latitude":"48.45349000","longitude":"9.09582000","population":9274,"timezone":"Europe/Berlin","type":"adm4","translations":{"es":"Gomaringen","en":"Gomaringen"}},{"name":"Gondelsheim","state_code":"BW","latitude":"49.05917000","longitude":"8.65833000","population":3183,"timezone":"Europe/Berlin","type":"adm4","translations":{"es":"Gondelsheim","en":"Gondelsheim"}},{"name":"Göppingen","state_code":"BW","latitude":"48.70354000","longitude":"9.65209000","population":59300,"timezone":"Europe/Berlin","type":"adm3","translations":{"es":"Göppingen","en":"Göppingen"}},{"name":"Görwihl","state_code":"BW","latitude":"47.64275000","longitude":"8.07482000","population":4148,"timezone":"Europe/Berlin","type":"adm4","translations":{"es":"Görwihl","en":"Görwihl"}},{"name":"Gosheim","state_code":"BW","latitude":"48.13430000","longitude":"8.75426000","population":3793,"timezone":"Europe/Berlin","type":"adm4","translations":{"es":"Gosheim","en":"Gosheim"}},{"name":"Gottenheim","state_code":"BW","latitude":"48.05000000","longitude":"7.73333000","population":2456,"timezone":"Europe/Berlin","type":"adm4","translations":{"es":"Gottenheim","en":"Gottenheim"}},{"name":"Gottmadingen","state_code":"BW","latitude":"47.73511000","longitude":"8.77687000","population":10999,"timezone":"Europe/Berlin","type":"adm4","translations":{"es":"Gottmadingen","en":"Gottmadingen"}},{"name":"Graben-Neudorf","state_code":"BW","latitude":"49.16695000","longitude":"8.49243000","population":12688,"timezone":"Europe/Berlin","type":"adm4","translations":{"es":"Graben-Neudorf","en":"Graben-Neudorf"}},{"name":"Grabenstetten","state_code":"BW","latitude":"48.52397000","longitude":"9.46155000","population":1729,"timezone":"Europe/Berlin","type":"adm4","translations":{"es":"Grabenstetten","en":"Grabenstetten"}},{"name":"Grafenau","state_code":"BW","latitude":"48.71427000","longitude":"8.91219000","population":6779,"timezone":"Europe/Berlin","type":"adm4","translations":{"es":"Grafenau","en":"Grafenau"}},{"name":"Grafenhausen","state_code":"BW","latitude":"48.28427000","longitude":"7.76678000","population":2318,"timezone":"Europe/Berlin","type":"section","translations":{"es":"Grafenhausen","en":"Grafenhausen"}},{"name":"Greffern","state_code":"BW","latitude":"48.75205000","longitude":"8.00515000","population":1984,"timezone":"Europe/Berlin","type":"city","translations":{"es":"Greffern","en":"Greffern"}},{"name":"Grenzach-Wyhlen","state_code":"BW","latitude":"47.55000000","longitude":"7.68333000","population":15092,"timezone":"Europe/Berlin","type":"adm4","translations":{"es":"Grenzach-Wyhlen","en":"Grenzach-Wyhlen"}},{"name":"Großbettlingen","state_code":"BW","latitude":"48.59052000","longitude":"9.30782000","population":4397,"timezone":"Europe/Berlin","type":"adm4","translations":{"es":"Grandes apuestas","en":"Großbettlingen"}},{"name":"Großbottwar","state_code":"BW","latitude":"49.00147000","longitude":"9.29348000","population":8591,"timezone":"Europe/Berlin","type":"city","translations":{"es":"Guerra de los grandes bott","en":"Großbottwar"}},{"name":"Grosselfingen","state_code":"BW","latitude":"48.33229000","longitude":"8.88704000","population":2195,"timezone":"Europe/Berlin","type":"adm4","translations":{"es":"Grosselfingen","en":"Grosselfingen"}},{"name":"Großerlach","state_code":"BW","latitude":"49.05368000","longitude":"9.51356000","population":2621,"timezone":"Europe/Berlin","type":"adm4","translations":{"es":"Großerlach","en":"Großerlach"}},{"name":"Großrinderfeld","state_code":"BW","latitude":"49.66536000","longitude":"9.73356000","population":4109,"timezone":"Europe/Berlin","type":"adm4","translations":{"es":"Grossrinderfeld","en":"Großrinderfeld"}},{"name":"Gruibingen","state_code":"BW","latitude":"48.59483000","longitude":"9.64389000","population":2303,"timezone":"Europe/Berlin","type":"adm4","translations":{"es":"Gruibingen","en":"Gruibingen"}},{"name":"Grünkraut","state_code":"BW","latitude":"47.74417000","longitude":"9.65588000","population":3233,"timezone":"Europe/Berlin","type":"adm4","translations":{"es":"Chucrut verde","en":"Grünkraut"}},{"name":"Grünsfeld","state_code":"BW","latitude":"49.60949000","longitude":"9.74725000","population":3696,"timezone":"Europe/Berlin","type":"city","translations":{"es":"Grünsfeld","en":"Grünsfeld"}},{"name":"Gschwend","state_code":"BW","latitude":"48.93333000","longitude":"9.74436000","population":4896,"timezone":"Europe/Berlin","type":"adm4","translations":{"es":"Gschwend","en":"Gschwend"}},{"name":"Güglingen","state_code":"BW","latitude":"49.06642000","longitude":"9.00175000","population":6391,"timezone":"Europe/Berlin","type":"city","translations":{"es":"Güglingen","en":"Güglingen"}},{"name":"Gundelfingen","state_code":"BW","latitude":"48.04246000","longitude":"7.86570000","population":12052,"timezone":"Europe/Berlin","type":"adm4","translations":{"es":"Gundelfingen","en":"Gundelfingen"}},{"name":"Gundelsheim","state_code":"BW","latitude":"49.28330000","longitude":"9.16037000","population":7551,"timezone":"Europe/Berlin","type":"city","translations":{"es":"Gundelsheim","en":"Gundelsheim"}},{"name":"Gutach","state_code":"BW","latitude":"48.24844000","longitude":"8.21293000","population":2202,"timezone":"Europe/Berlin","type":"city","translations":{"es":"Gutach","en":"Gutach"}},{"name":"Gutach im Breisgau","state_code":"BW","latitude":"48.11667000","longitude":"7.98333000","population":4707,"timezone":"Europe/Berlin","type":"adm4","translations":{"es":"Gutach im Breisgau","en":"Gutach im Breisgau"}},{"name":"Gütenbach","state_code":"BW","latitude":"48.05000000","longitude":"8.15000000","population":1119,"timezone":"Europe/Berlin","type":"adm4","translations":{"es":"Gütenbach","en":"Gütenbach"}},{"name":"Gutenzell-Hürbel","state_code":"BW","latitude":"48.11667000","longitude":"9.98333000","population":1848,"timezone":"Europe/Berlin","type":"adm4","translations":{"es":"Gutenzell-Hürbel","en":"Gutenzell-Hürbel"}},{"name":"Hagnau","state_code":"BW","latitude":"47.67666000","longitude":"9.31787000","population":1342,"timezone":"Europe/Berlin","type":"city","translations":{"es":"Hagnau","en":"Hagnau"}},{"name":"Haigerloch","state_code":"BW","latitude":"48.36614000","longitude":"8.80357000","population":11044,"timezone":"Europe/Berlin","type":"city","translations":{"es":"Haigerloch","en":"Haigerloch"}},{"name":"Haiterbach","state_code":"BW","latitude":"48.52066000","longitude":"8.64435000","population":6029,"timezone":"Europe/Berlin","type":"city","translations":{"es":"Haiterbach","en":"Haiterbach"}},{"name":"Hambrücken","state_code":"BW","latitude":"49.19000000","longitude":"8.54056000","population":5626,"timezone":"Europe/Berlin","type":"adm4","translations":{"es":"Puente de Hambrücken","en":"Hambrücken"}},{"name":"Hardheim","state_code":"BW","latitude":"49.61194000","longitude":"9.47194000","population":6995,"timezone":"Europe/Berlin","type":"adm4","translations":{"es":"Hardheim","en":"Hardheim"}},{"name":"Hardt","state_code":"BW","latitude":"48.18333000","longitude":"8.41667000","population":2598,"timezone":"Europe/Berlin","type":"adm4","translations":{"es":"Hardt","en":"Hardt"}},{"name":"Hartheim","state_code":"BW","latitude":"47.93333000","longitude":"7.63333000","population":4538,"timezone":"Europe/Berlin","type":"adm4","translations":{"es":"Hartheim","en":"Hartheim"}},{"name":"Hasel","state_code":"BW","latitude":"47.65342000","longitude":"7.89720000","population":1225,"timezone":"Europe/Berlin","type":"adm4","translations":{"es":"Hasel","en":"Hasel"}},{"name":"Haslach","state_code":"BW","latitude":"48.56531000","longitude":"8.05658000","population":6874,"timezone":"Europe/Berlin","type":"city","translations":{"es":"Haslach","en":"Haslach"}},{"name":"Haßmersheim","state_code":"BW","latitude":"49.30000000","longitude":"9.15000000","population":5134,"timezone":"Europe/Berlin","type":"adm4","translations":{"es":"Hassmersheim","en":"Haßmersheim"}},{"name":"Hattenhofen","state_code":"BW","latitude":"48.66648000","longitude":"9.57456000","population":2966,"timezone":"Europe/Berlin","type":"adm4","translations":{"es":"Hattenhofen","en":"Hattenhofen"}},{"name":"Hausach","state_code":"BW","latitude":"48.28426000","longitude":"8.17602000","population":5760,"timezone":"Europe/Berlin","type":"city","translations":{"es":"Hausach","en":"Hausach"}},{"name":"Hausen","state_code":"BW","latitude":"47.68128000","longitude":"7.83986000","population":2410,"timezone":"Europe/Berlin","type":"city","translations":{"es":"Hausen","en":"Hausen"}},{"name":"Häusern","state_code":"BW","latitude":"47.75000000","longitude":"8.16667000","population":1324,"timezone":"Europe/Berlin","type":"adm4","translations":{"es":"Casas","en":"Häusern"}},{"name":"Hayingen","state_code":"BW","latitude":"48.27531000","longitude":"9.47760000","population":2256,"timezone":"Europe/Berlin","type":"city","translations":{"es":"Hayingen","en":"Hayingen"}},{"name":"Hechingen","state_code":"BW","latitude":"48.35149000","longitude":"8.96317000","population":19475,"timezone":"Europe/Berlin","type":"city","translations":{"es":"Hechingen","en":"Hechingen"}},{"name":"Heddesheim","state_code":"BW","latitude":"49.50556000","longitude":"8.60361000","population":12031,"timezone":"Europe/Berlin","type":"adm4","translations":{"es":"Heddesheim","en":"Heddesheim"}},{"name":"Heidelberg","state_code":"BW","latitude":"49.40768000","longitude":"8.69079000","population":162960,"timezone":"Europe/Berlin","type":"adm3","translations":{"es":"Heidelberg","en":"Heidelberg"}},{"name":"Heidenheim an der Brenz","state_code":"BW","latitude":"48.67798000","longitude":"10.15162000","population":49895,"timezone":"Europe/Berlin","type":"adm3","translations":{"es":"Heidenheim an der Brenz","en":"Heidenheim an der Brenz"}},{"name":"Heilbronn","state_code":"BW","latitude":"49.13995000","longitude":"9.22054000","population":130093,"timezone":"Europe/Berlin","type":"adm3","translations":{"es":"Heilbronn","en":"Heilbronn"}},{"name":"Heiligenberg","state_code":"BW","latitude":"47.82094000","longitude":"9.31280000","population":3194,"timezone":"Europe/Berlin","type":"adm4","translations":{"es":"Heiligenberg","en":"Heiligenberg"}},{"name":"Heiligkreuzsteinach","state_code":"BW","latitude":"49.48333000","longitude":"8.79500000","population":2603,"timezone":"Europe/Berlin","type":"adm4","translations":{"es":"Sangre de cruz","en":"Heiligkreuzsteinach"}},{"name":"Heimsheim","state_code":"BW","latitude":"48.80656000","longitude":"8.86744000","population":5608,"timezone":"Europe/Berlin","type":"city","translations":{"es":"Heimsheim","en":"Heimsheim"}},{"name":"Heiningen","state_code":"BW","latitude":"48.66177000","longitude":"9.64977000","population":5206,"timezone":"Europe/Berlin","type":"adm4","translations":{"es":"Heiningen","en":"Heiningen"}},{"name":"Heitersheim","state_code":"BW","latitude":"47.87468000","longitude":"7.65721000","population":6495,"timezone":"Europe/Berlin","type":"city","translations":{"es":"Heitersheim","en":"Heitersheim"}},{"name":"Helmstadt-Bargen","state_code":"BW","latitude":"49.31427000","longitude":"8.99712000","population":3909,"timezone":"Europe/Berlin","type":"adm4","translations":{"es":"Helmstadt-Bargen","en":"Helmstadt-Bargen"}},{"name":"Hemmingen","state_code":"BW","latitude":"48.86667000","longitude":"9.03333000","population":8222,"timezone":"Europe/Berlin","type":"adm4","translations":{"es":"Hemmingen","en":"Hemmingen"}},{"name":"Hemsbach","state_code":"BW","latitude":"49.59075000","longitude":"8.64779000","population":11884,"timezone":"Europe/Berlin","type":"city","translations":{"es":"Hemsbach","en":"Hemsbach"}},{"name":"Herbertingen","state_code":"BW","latitude":"48.06667000","longitude":"9.43333000","population":4766,"timezone":"Europe/Berlin","type":"adm4","translations":{"es":"Herbertingen","en":"Herbertingen"}},{"name":"Herbolzheim","state_code":"BW","latitude":"48.21884000","longitude":"7.77746000","population":11242,"timezone":"Europe/Berlin","type":"city","translations":{"es":"Herbolzheim","en":"Herbolzheim"}},{"name":"Herbrechtingen","state_code":"BW","latitude":"48.62173000","longitude":"10.17600000","population":13179,"timezone":"Europe/Berlin","type":"city","translations":{"es":"Herbrechtingen","en":"Herbrechtingen"}},{"name":"Herdwangen-Schönach","state_code":"BW","latitude":"47.85000000","longitude":"9.20000000","population":3502,"timezone":"Europe/Berlin","type":"adm4","translations":{"es":"Herdwangen-Schönach","en":"Herdwangen-Schönach"}},{"name":"Hermaringen","state_code":"BW","latitude":"48.59544000","longitude":"10.26065000","population":2333,"timezone":"Europe/Berlin","type":"adm4","translations":{"es":"Hermaringen","en":"Hermaringen"}},{"name":"Herrenberg","state_code":"BW","latitude":"48.59523000","longitude":"8.86648000","population":32961,"timezone":"Europe/Berlin","type":"city","translations":{"es":"Herrenberg","en":"Herrenberg"}},{"name":"Herrischried","state_code":"BW","latitude":"47.66667000","longitude":"8.00000000","population":2724,"timezone":"Europe/Berlin","type":"adm4","translations":{"es":"Herrischried","en":"Herrischried"}},{"name":"Hessigheim","state_code":"BW","latitude":"48.99407000","longitude":"9.18629000","population":2555,"timezone":"Europe/Berlin","type":"adm4","translations":{"es":"Hessigheim","en":"Hessigheim"}},{"name":"Hettingen","state_code":"BW","latitude":"48.21601000","longitude":"9.23169000","population":1859,"timezone":"Europe/Berlin","type":"city","translations":{"es":"Hettingen","en":"Hettingen"}},{"name":"Heubach","state_code":"BW","latitude":"48.79267000","longitude":"9.93370000","population":10105,"timezone":"Europe/Berlin","type":"city","translations":{"es":"Heubach","en":"Heubach"}},{"name":"Heuchlingen","state_code":"BW","latitude":"48.85215000","longitude":"9.94391000","population":1851,"timezone":"Europe/Berlin","type":"adm4","translations":{"es":"Heuchlingen","en":"Heuchlingen"}},{"name":"Hildrizhausen","state_code":"BW","latitude":"48.62423000","longitude":"8.96605000","population":3676,"timezone":"Europe/Berlin","type":"adm4","translations":{"es":"Hildrizhausen","en":"Hildrizhausen"}},{"name":"Hilzingen","state_code":"BW","latitude":"47.76667000","longitude":"8.78333000","population":9118,"timezone":"Europe/Berlin","type":"adm4","translations":{"es":"Hilzingen","en":"Hilzingen"}},{"name":"Hinterzarten","state_code":"BW","latitude":"47.90276000","longitude":"8.10701000","population":2688,"timezone":"Europe/Berlin","type":"adm4","translations":{"es":"Hinterzarten","en":"Hinterzarten"}},{"name":"Hirrlingen","state_code":"BW","latitude":"48.41245000","longitude":"8.88742000","population":3202,"timezone":"Europe/Berlin","type":"adm4","translations":{"es":"Hirrlingen","en":"Hirrlingen"}},{"name":"Hirschberg an der Bergstraße","state_code":"BW","latitude":"49.50710000","longitude":"8.65693000","population":9793,"timezone":"Europe/Berlin","type":"adm4","translations":{"es":"Hirschberg an der Bergstraße","en":"Hirschberg an der Bergstraße"}},{"name":"Hochdorf","state_code":"BW","latitude":"48.02560000","longitude":"9.78778000","population":2069,"timezone":"Europe/Berlin","type":"adm4","translations":{"es":"Hochdorf","en":"Hochdorf"}},{"name":"Höchenschwand","state_code":"BW","latitude":"47.73333000","longitude":"8.16667000","population":2786,"timezone":"Europe/Berlin","type":"adm4","translations":{"es":"Pared de piedra de altura","en":"Höchenschwand"}},{"name":"Hockenheim","state_code":"BW","latitude":"49.32334000","longitude":"8.55194000","population":21631,"timezone":"Europe/Berlin","type":"city","translations":{"es":"Hockenheim","en":"Hockenheim"}},{"name":"Höfen an der Enz","state_code":"BW","latitude":"48.80000000","longitude":"8.58333000","population":1708,"timezone":"Europe/Berlin","type":"adm4","translations":{"es":"Höfen an der Enz","en":"Höfen an der Enz"}},{"name":"Hofstetten","state_code":"BW","latitude":"48.25846000","longitude":"8.06595000","population":1932,"timezone":"Europe/Berlin","type":"adm4","translations":{"es":"Hofstetten","en":"Hofstetten"}},{"name":"Hohberg","state_code":"BW","latitude":"48.32270000","longitude":"7.89972000","population":8378,"timezone":"Europe/Berlin","type":"locality","translations":{"es":"Hohberg","en":"Hohberg"}},{"name":"Hohentengen","state_code":"BW","latitude":"47.57005000","longitude":"8.43250000","population":4343,"timezone":"Europe/Berlin","type":"city","translations":{"es":"Hohentengen","en":"Hohentengen"}},{"name":"Holzgerlingen","state_code":"BW","latitude":"48.63969000","longitude":"9.01149000","population":13841,"timezone":"Europe/Berlin","type":"city","translations":{"es":"Holzgerlingen","en":"Holzgerlingen"}},{"name":"Holzmaden","state_code":"BW","latitude":"48.63333000","longitude":"9.51667000","population":2247,"timezone":"Europe/Berlin","type":"adm4","translations":{"es":"Madera de madera","en":"Holzmaden"}},{"name":"Höpfingen","state_code":"BW","latitude":"49.60250000","longitude":"9.42861000","population":3070,"timezone":"Europe/Berlin","type":"adm4","translations":{"es":"Höpfingen","en":"Höpfingen"}},{"name":"Horb am Neckar","state_code":"BW","latitude":"48.44423000","longitude":"8.69130000","population":25695,"timezone":"Europe/Berlin","type":"city","translations":{"es":"Horb am Neckar","en":"Horb am Neckar"}},{"name":"Horben","state_code":"BW","latitude":"47.93333000","longitude":"7.86667000","population":1201,"timezone":"Europe/Berlin","type":"adm4","translations":{"es":"Horben","en":"Horben"}},{"name":"Horgenzell","state_code":"BW","latitude":"47.80534000","longitude":"9.49727000","population":5693,"timezone":"Europe/Berlin","type":"adm4","translations":{"es":"Horgenzell","en":"Horgenzell"}},{"name":"Hornberg","state_code":"BW","latitude":"48.21068000","longitude":"8.23275000","population":4256,"timezone":"Europe/Berlin","type":"city","translations":{"es":"Hornberg","en":"Hornberg"}},{"name":"Horrenberg","state_code":"BW","latitude":"49.28040000","longitude":"8.78087000","population":1778,"timezone":"Europe/Berlin","type":"section","translations":{"es":"Horrenberg","en":"Horrenberg"}},{"name":"Hüffenhardt","state_code":"BW","latitude":"49.29194000","longitude":"9.08167000","population":2085,"timezone":"Europe/Berlin","type":"adm4","translations":{"es":"Hüffenhardt","en":"Hüffenhardt"}},{"name":"Hüfingen","state_code":"BW","latitude":"47.92543000","longitude":"8.48831000","population":8071,"timezone":"Europe/Berlin","type":"city","translations":{"es":"Hüfingen","en":"Hüfingen"}},{"name":"Hügelsheim","state_code":"BW","latitude":"48.80000000","longitude":"8.11667000","population":5146,"timezone":"Europe/Berlin","type":"adm4","translations":{"es":"Hügelsheim","en":"Hügelsheim"}},{"name":"Hülben","state_code":"BW","latitude":"48.51982000","longitude":"9.40790000","population":3171,"timezone":"Europe/Berlin","type":"adm4","translations":{"es":"Hülben","en":"Hülben"}},{"name":"Hüttisheim","state_code":"BW","latitude":"48.27965000","longitude":"9.94246000","population":1549,"timezone":"Europe/Berlin","type":"adm4","translations":{"es":"Hüttisheim","en":"Hüttisheim"}},{"name":"Hüttlingen","state_code":"BW","latitude":"48.89266000","longitude":"10.10064000","population":6218,"timezone":"Europe/Berlin","type":"adm4","translations":{"es":"Hüttlingen","en":"Hüttlingen"}},{"name":"Iffezheim","state_code":"BW","latitude":"48.82167000","longitude":"8.14310000","population":5291,"timezone":"Europe/Berlin","type":"adm4","translations":{"es":"Iffezheim","en":"Iffezheim"}},{"name":"Igersheim","state_code":"BW","latitude":"49.49444000","longitude":"9.81694000","population":5607,"timezone":"Europe/Berlin","type":"adm4","translations":{"es":"Igersheim","en":"Igersheim"}},{"name":"Iggingen","state_code":"BW","latitude":"48.83167000","longitude":"9.87894000","population":2680,"timezone":"Europe/Berlin","type":"adm4","translations":{"es":"Iggingen","en":"Iggingen"}},{"name":"Ihringen","state_code":"BW","latitude":"48.04303000","longitude":"7.64760000","population":6337,"timezone":"Europe/Berlin","type":"adm4","translations":{"es":"Ihringen","en":"Ihringen"}},{"name":"Illerrieden","state_code":"BW","latitude":"48.27017000","longitude":"10.05155000","population":3382,"timezone":"Europe/Berlin","type":"adm4","translations":{"es":"Illerrieden","en":"Illerrieden"}},{"name":"Illingen","state_code":"BW","latitude":"48.95616000","longitude":"8.92459000","population":8022,"timezone":"Europe/Berlin","type":"adm4","translations":{"es":"Illingen","en":"Illingen"}},{"name":"Illmensee","state_code":"BW","latitude":"47.86229000","longitude":"9.37235000","population":2091,"timezone":"Europe/Berlin","type":"adm4","translations":{"es":"Illmensee","en":"Illmensee"}},{"name":"Ilsfeld","state_code":"BW","latitude":"49.05548000","longitude":"9.24598000","population":9851,"timezone":"Europe/Berlin","type":"adm4","translations":{"es":"Ilsfeld","en":"Ilsfeld"}},{"name":"Ilshofen","state_code":"BW","latitude":"49.17015000","longitude":"9.91825000","population":7115,"timezone":"Europe/Berlin","type":"city","translations":{"es":"Ilshofen","en":"Ilshofen"}},{"name":"Ilvesheim","state_code":"BW","latitude":"49.47404000","longitude":"8.56740000","population":9280,"timezone":"Europe/Berlin","type":"adm4","translations":{"es":"Ilvesheim","en":"Ilvesheim"}},{"name":"Immendingen","state_code":"BW","latitude":"47.93333000","longitude":"8.73333000","population":6601,"timezone":"Europe/Berlin","type":"adm4","translations":{"es":"Immendingen","en":"Immendingen"}},{"name":"Immenstaad am Bodensee","state_code":"BW","latitude":"47.66667000","longitude":"9.36667000","population":6634,"timezone":"Europe/Berlin","type":"adm4","translations":{"es":"Immenstaad am Bodensee","en":"Immenstaad am Bodensee"}},{"name":"Ingelfingen","state_code":"BW","latitude":"49.30028000","longitude":"9.65303000","population":5489,"timezone":"Europe/Berlin","type":"city","translations":{"es":"Ingelfingen","en":"Ingelfingen"}},{"name":"Ingoldingen","state_code":"BW","latitude":"48.02552000","longitude":"9.74195000","population":3214,"timezone":"Europe/Berlin","type":"adm4","translations":{"es":"Ingoldingen","en":"Ingoldingen"}},{"name":"Inzigkofen","state_code":"BW","latitude":"48.07034000","longitude":"9.17998000","population":2997,"timezone":"Europe/Berlin","type":"adm4","translations":{"es":"Inzigkofen","en":"Inzigkofen"}},{"name":"Inzlingen","state_code":"BW","latitude":"47.58851000","longitude":"7.69094000","population":2491,"timezone":"Europe/Berlin","type":"adm4","translations":{"es":"Inzlingen","en":"Inzlingen"}},{"name":"Isny","state_code":"BW","latitude":"47.69260000","longitude":"10.03857000","population":14424,"timezone":"Europe/Berlin","type":"city","translations":{"es":"Isny","en":"Isny"}},{"name":"Ispringen","state_code":"BW","latitude":"48.91667000","longitude":"8.66667000","population":6097,"timezone":"Europe/Berlin","type":"adm4","translations":{"es":"Ispringen","en":"Ispringen"}},{"name":"Ittlingen","state_code":"BW","latitude":"49.19083000","longitude":"8.93083000","population":2641,"timezone":"Europe/Berlin","type":"adm4","translations":{"es":"Ittlingen","en":"Ittlingen"}},{"name":"Jagsthausen","state_code":"BW","latitude":"49.31056000","longitude":"9.46833000","population":1500,"timezone":"Europe/Berlin","type":"adm4","translations":{"es":"Jagsthausen","en":"Jagsthausen"}},{"name":"Jagstzell","state_code":"BW","latitude":"49.03055000","longitude":"10.09751000","population":2375,"timezone":"Europe/Berlin","type":"adm4","translations":{"es":"Jagstzell","en":"Jagstzell"}},{"name":"Jestetten","state_code":"BW","latitude":"47.65000000","longitude":"8.56667000","population":5358,"timezone":"Europe/Berlin","type":"adm4","translations":{"es":"Jestetten","en":"Jestetten"}},{"name":"Jöhlingen","state_code":"BW","latitude":"49.03218000","longitude":"8.57350000","population":5336,"timezone":"Europe/Berlin","type":"city","translations":{"es":"Jöhlingen","en":"Jöhlingen"}},{"name":"Jungingen","state_code":"BW","latitude":"48.32787000","longitude":"9.04095000","population":1409,"timezone":"Europe/Berlin","type":"adm4","translations":{"es":"Jungingen","en":"Jungingen"}},{"name":"Kaisersbach","state_code":"BW","latitude":"48.93023000","longitude":"9.63898000","population":2359,"timezone":"Europe/Berlin","type":"adm4","translations":{"es":"Kaisersbach","en":"Kaisersbach"}},{"name":"Kandern","state_code":"BW","latitude":"47.71393000","longitude":"7.66237000","population":8456,"timezone":"Europe/Berlin","type":"city","translations":{"es":"Kandern","en":"Kandern"}},{"name":"Kappel-Grafenhausen","state_code":"BW","latitude":"48.28382000","longitude":"7.76605000","population":5262,"timezone":"Europe/Berlin","type":"adm4","translations":{"es":"Kappel-Grafenhausen","en":"Kappel-Grafenhausen"}},{"name":"Kappelrodeck","state_code":"BW","latitude":"48.59182000","longitude":"8.11692000","population":6283,"timezone":"Europe/Berlin","type":"adm4","translations":{"es":"Kappelrodeck","en":"Kappelrodeck"}},{"name":"Karlsdorf-Neuthard","state_code":"BW","latitude":"49.13472000","longitude":"8.53028000","population":10918,"timezone":"Europe/Berlin","type":"adm4","translations":{"es":"Karlsdorf-Neuthard","en":"Karlsdorf-Neuthard"}},{"name":"Karlsruhe","state_code":"BW","latitude":"49.00937000","longitude":"8.40444000","population":309964,"timezone":"Europe/Berlin","type":"adm2","translations":{"es":"Karlsruhe","en":"Karlsruhe"}},{"name":"Karlsruhe Region","state_code":"BW","latitude":"49.00000000","longitude":"8.66667000","population":4393,"timezone":"Europe/Berlin","type":"region","translations":{"es":"Región de Karlsruhe","en":"Karlsruhe Region"}},{"name":"Kehl","state_code":"BW","latitude":"48.57297000","longitude":"7.81523000","population":38721,"timezone":"Europe/Berlin","type":"city","translations":{"es":"Kehl","en":"Kehl"}},{"name":"Kenzingen","state_code":"BW","latitude":"48.19630000","longitude":"7.76974000","population":11071,"timezone":"Europe/Berlin","type":"city","translations":{"es":"Kenzingen","en":"Kenzingen"}},{"name":"Ketsch","state_code":"BW","latitude":"49.36778000","longitude":"8.53111000","population":13141,"timezone":"Europe/Berlin","type":"adm4","translations":{"es":"Ketsch","en":"Ketsch"}},{"name":"Kieselbronn","state_code":"BW","latitude":"48.93333000","longitude":"8.75000000","population":3092,"timezone":"Europe/Berlin","type":"adm4","translations":{"es":"Kieselbronn","en":"Kieselbronn"}},{"name":"Kippenheim","state_code":"BW","latitude":"48.29564000","longitude":"7.82510000","population":5609,"timezone":"Europe/Berlin","type":"adm4","translations":{"es":"Kippenheim","en":"Kippenheim"}},{"name":"Kirchardt","state_code":"BW","latitude":"49.20500000","longitude":"8.99167000","population":6064,"timezone":"Europe/Berlin","type":"adm4","translations":{"es":"Kirchardt","en":"Kirchardt"}},{"name":"Kirchberg an der Iller","state_code":"BW","latitude":"48.13333000","longitude":"10.08333000","population":2178,"timezone":"Europe/Berlin","type":"adm4","translations":{"es":"Kirchberg an der Iller","en":"Kirchberg an der Iller"}},{"name":"Kirchberg an der Jagst","state_code":"BW","latitude":"49.20056000","longitude":"9.98226000","population":4567,"timezone":"Europe/Berlin","type":"city","translations":{"es":"Kirchberg an der Jagst","en":"Kirchberg an der Jagst"}},{"name":"Kirchberg an der Murr","state_code":"BW","latitude":"48.94297000","longitude":"9.34083000","population":4140,"timezone":"Europe/Berlin","type":"adm4","translations":{"es":"Kirchberg an der Murr","en":"Kirchberg an der Murr"}},{"name":"Kirchdorf","state_code":"BW","latitude":"48.07667000","longitude":"10.12629000","population":3679,"timezone":"Europe/Berlin","type":"city","translations":{"es":"Kirchdorf","en":"Kirchdorf"}},{"name":"Kirchentellinsfurt","state_code":"BW","latitude":"48.53315000","longitude":"9.14732000","population":5732,"timezone":"Europe/Berlin","type":"adm4","translations":{"es":"Kirchentellinsfurt","en":"Kirchentellinsfurt"}},{"name":"Kirchheim am Neckar","state_code":"BW","latitude":"49.04500000","longitude":"9.14222000","population":6262,"timezone":"Europe/Berlin","type":"adm4","translations":{"es":"Kirchheim am Neckar","en":"Kirchheim am Neckar"}},{"name":"Kirchheim am Ries","state_code":"BW","latitude":"48.87922000","longitude":"10.40028000","population":2113,"timezone":"Europe/Berlin","type":"adm4","translations":{"es":"Kirchheim am Ries","en":"Kirchheim am Ries"}},{"name":"Kirchheim unter Teck","state_code":"BW","latitude":"48.64683000","longitude":"9.45378000","population":42178,"timezone":"Europe/Berlin","type":"city","translations":{"es":"Kirchheim unter Teck","en":"Kirchheim unter Teck"}},{"name":"Kirchzarten","state_code":"BW","latitude":"47.96667000","longitude":"7.95000000","population":10326,"timezone":"Europe/Berlin","type":"adm4","translations":{"es":"Kirchzarten","en":"Kirchzarten"}},{"name":"Kißlegg","state_code":"BW","latitude":"47.78894000","longitude":"9.88383000","population":9473,"timezone":"Europe/Berlin","type":"adm4","translations":{"es":"Kisslegg","en":"Kißlegg"}},{"name":"Klingenstein","state_code":"BW","latitude":"48.41849000","longitude":"9.90812000","population":15643,"timezone":"Europe/Berlin","type":"city","translations":{"es":"Klingenstein","en":"Klingenstein"}},{"name":"Knittlingen","state_code":"BW","latitude":"49.02487000","longitude":"8.75606000","population":8208,"timezone":"Europe/Berlin","type":"city","translations":{"es":"Knittlingen","en":"Knittlingen"}},{"name":"Kohlberg","state_code":"BW","latitude":"48.55845000","longitude":"9.33576000","population":2284,"timezone":"Europe/Berlin","type":"adm4","translations":{"es":"Kohlberg","en":"Kohlberg"}},{"name":"Kolbingen","state_code":"BW","latitude":"48.05227000","longitude":"8.88957000","population":1332,"timezone":"Europe/Berlin","type":"adm4","translations":{"es":"Kolbingen","en":"Kolbingen"}},{"name":"Köngen","state_code":"BW","latitude":"48.68333000","longitude":"9.36667000","population":9786,"timezone":"Europe/Berlin","type":"adm4","translations":{"es":"Rey","en":"Köngen"}},{"name":"Königheim","state_code":"BW","latitude":"49.62028000","longitude":"9.59583000","population":3007,"timezone":"Europe/Berlin","type":"adm4","translations":{"es":"Königheim","en":"Königheim"}},{"name":"Königsbach-Stein","state_code":"BW","latitude":"48.96585000","longitude":"8.60573000","population":10258,"timezone":"Europe/Berlin","type":"adm4","translations":{"es":"Königsbach-Stein","en":"Königsbach-Stein"}},{"name":"Königsbronn","state_code":"BW","latitude":"48.74317000","longitude":"10.11193000","population":7051,"timezone":"Europe/Berlin","type":"adm4","translations":{"es":"Königsbronn","en":"Königsbronn"}},{"name":"Königsfeld im Schwarzwald","state_code":"BW","latitude":"48.13814000","longitude":"8.41973000","population":6114,"timezone":"Europe/Berlin","type":"adm4","translations":{"es":"Königsfeld en la Selva Negra","en":"Königsfeld im Schwarzwald"}},{"name":"Konstanz","state_code":"BW","latitude":"47.66033000","longitude":"9.17582000","population":81275,"timezone":"Europe/Berlin","type":"adm3","translations":{"es":"Constanza","en":"Konstanz"}},{"name":"Korb","state_code":"BW","latitude":"48.84303000","longitude":"9.36258000","population":11255,"timezone":"Europe/Berlin","type":"adm4","translations":{"es":"Korb","en":"Korb"}},{"name":"Korntal","state_code":"BW","latitude":"48.83218000","longitude":"9.12140000","population":18081,"timezone":"Europe/Berlin","type":"city","translations":{"es":"Korntal","en":"Korntal"}},{"name":"Kornwestheim","state_code":"BW","latitude":"48.86158000","longitude":"9.18569000","population":34177,"timezone":"Europe/Berlin","type":"city","translations":{"es":"Kornwestheim","en":"Kornwestheim"}},{"name":"Kraichtal","state_code":"BW","latitude":"49.14623000","longitude":"8.73276000","population":14635,"timezone":"Europe/Berlin","type":"adm4","translations":{"es":"Kraichtal","en":"Kraichtal"}},{"name":"Krauchenwies","state_code":"BW","latitude":"48.01651000","longitude":"9.24757000","population":5145,"timezone":"Europe/Berlin","type":"adm4","translations":{"es":"Krauchenwies","en":"Krauchenwies"}},{"name":"Krautheim","state_code":"BW","latitude":"49.38789000","longitude":"9.63553000","population":4643,"timezone":"Europe/Berlin","type":"city","translations":{"es":"Krautheim","en":"Krautheim"}},{"name":"Kressbronn am Bodensee","state_code":"BW","latitude":"47.59760000","longitude":"9.59707000","population":8847,"timezone":"Europe/Berlin","type":"adm4","translations":{"es":"Kressbronn am Bodensee","en":"Kressbronn am Bodensee"}},{"name":"Kronau","state_code":"BW","latitude":"49.22250000","longitude":"8.63111000","population":5954,"timezone":"Europe/Berlin","type":"adm4","translations":{"es":"Corona","en":"Kronau"}},{"name":"Kuchen","state_code":"BW","latitude":"48.63583000","longitude":"9.79989000","population":5724,"timezone":"Europe/Berlin","type":"adm4","translations":{"es":"Pastel","en":"Kuchen"}},{"name":"Külsheim","state_code":"BW","latitude":"49.66942000","longitude":"9.52361000","population":5414,"timezone":"Europe/Berlin","type":"city","translations":{"es":"Külsheim","en":"Külsheim"}},{"name":"Künzelsau","state_code":"BW","latitude":"49.28180000","longitude":"9.68352000","population":16436,"timezone":"Europe/Berlin","type":"adm3","translations":{"es":"Künzelsau","en":"Künzelsau"}},{"name":"Kupferzell","state_code":"BW","latitude":"49.22778000","longitude":"9.69000000","population":6570,"timezone":"Europe/Berlin","type":"adm4","translations":{"es":"Kupferzell","en":"Kupferzell"}},{"name":"Kuppenheim","state_code":"BW","latitude":"48.82794000","longitude":"8.25417000","population":8534,"timezone":"Europe/Berlin","type":"city","translations":{"es":"Kuppenheim","en":"Kuppenheim"}},{"name":"Kürnbach","state_code":"BW","latitude":"49.07750000","longitude":"8.84556000","population":2380,"timezone":"Europe/Berlin","type":"adm4","translations":{"es":"Kürnbach","en":"Kürnbach"}},{"name":"Kusterdingen","state_code":"BW","latitude":"48.52291000","longitude":"9.11977000","population":9038,"timezone":"Europe/Berlin","type":"adm4","translations":{"es":"Kusterdingen","en":"Kusterdingen"}},{"name":"Ladenburg","state_code":"BW","latitude":"49.47307000","longitude":"8.60896000","population":12704,"timezone":"Europe/Berlin","type":"city","translations":{"es":"Ladenburg","en":"Ladenburg"}},{"name":"Lahr","state_code":"BW","latitude":"48.34042000","longitude":"7.86886000","population":47551,"timezone":"Europe/Berlin","type":"city","translations":{"es":"Lahr","en":"Lahr"}},{"name":"Laichingen","state_code":"BW","latitude":"48.48939000","longitude":"9.68612000","population":12447,"timezone":"Europe/Berlin","type":"city","translations":{"es":"Laichingen","en":"Laichingen"}},{"name":"Langenargen","state_code":"BW","latitude":"47.59858000","longitude":"9.54163000","population":7762,"timezone":"Europe/Berlin","type":"adm4","translations":{"es":"Langenargen","en":"Langenargen"}},{"name":"Langenau","state_code":"BW","latitude":"48.49616000","longitude":"10.11849000","population":15792,"timezone":"Europe/Berlin","type":"city","translations":{"es":"Langenau","en":"Langenau"}},{"name":"Langenbrettach","state_code":"BW","latitude":"49.22601000","longitude":"9.41842000","population":3888,"timezone":"Europe/Berlin","type":"adm4","translations":{"es":"Langenbrettach","en":"Langenbrettach"}},{"name":"Langenburg","state_code":"BW","latitude":"49.25401000","longitude":"9.85673000","population":1886,"timezone":"Europe/Berlin","type":"city","translations":{"es":"Langenburg","en":"Langenburg"}},{"name":"Langenenslingen","state_code":"BW","latitude":"48.14851000","longitude":"9.37765000","population":3631,"timezone":"Europe/Berlin","type":"adm4","translations":{"es":"Langenenslingen","en":"Langenenslingen"}},{"name":"Lauchheim","state_code":"BW","latitude":"48.87135000","longitude":"10.24222000","population":4905,"timezone":"Europe/Berlin","type":"city","translations":{"es":"Lauchheim","en":"Lauchheim"}},{"name":"Lauchringen","state_code":"BW","latitude":"47.62699000","longitude":"8.31442000","population":8079,"timezone":"Europe/Berlin","type":"adm4","translations":{"es":"Anillos de lanzamiento","en":"Lauchringen"}},{"name":"Lauda-Königshofen","state_code":"BW","latitude":"49.56526000","longitude":"9.70816000","population":14596,"timezone":"Europe/Berlin","type":"city","translations":{"es":"Lauda-Königshofen","en":"Lauda-Königshofen"}},{"name":"Laudenbach","state_code":"BW","latitude":"49.61333000","longitude":"8.65389000","population":6141,"timezone":"Europe/Berlin","type":"adm4","translations":{"es":"Laudenbach","en":"Laudenbach"}},{"name":"Lauf","state_code":"BW","latitude":"48.65000000","longitude":"8.13333000","population":4019,"timezone":"Europe/Berlin","type":"adm4","translations":{"es":"Reír","en":"Lauf"}},{"name":"Laufenburg","state_code":"BW","latitude":"47.56512000","longitude":"8.06045000","population":9182,"timezone":"Europe/Berlin","type":"city","translations":{"es":"Laufenburg","en":"Laufenburg"}},{"name":"Lauffen am Neckar","state_code":"BW","latitude":"49.07340000","longitude":"9.14567000","population":11863,"timezone":"Europe/Berlin","type":"city","translations":{"es":"Lauffen am Neckar","en":"Lauffen am Neckar"}},{"name":"Laupheim","state_code":"BW","latitude":"48.22786000","longitude":"9.87874000","population":23044,"timezone":"Europe/Berlin","type":"city","translations":{"es":"Laupheim","en":"Laupheim"}},{"name":"Lautenbach","state_code":"BW","latitude":"48.48185000","longitude":"8.02732000","population":1980,"timezone":"Europe/Berlin","type":"locality","translations":{"es":"Lautenbach","en":"Lautenbach"}},{"name":"Lauterbach/Schwarzwald","state_code":"BW","latitude":"48.22999000","longitude":"8.34240000","population":3193,"timezone":"Europe/Berlin","type":"adm4","translations":{"es":"Lauterbach/Selva Negra","en":"Lauterbach/Schwarzwald"}},{"name":"Lehrensteinsfeld","state_code":"BW","latitude":"49.13111000","longitude":"9.32722000","population":1986,"timezone":"Europe/Berlin","type":"adm4","translations":{"es":"Lehrensteinsfeld","en":"Lehrensteinsfeld"}},{"name":"Leibertingen","state_code":"BW","latitude":"48.04263000","longitude":"9.01308000","population":2143,"timezone":"Europe/Berlin","type":"adm4","translations":{"es":"Leibertingen","en":"Leibertingen"}},{"name":"Leimen","state_code":"BW","latitude":"49.34737000","longitude":"8.68733000","population":27142,"timezone":"Europe/Berlin","type":"city","translations":{"es":"Leimen","en":"Leimen"}},{"name":"Leinfelden-Echterdingen","state_code":"BW","latitude":"48.69406000","longitude":"9.16809000","population":41185,"timezone":"Europe/Berlin","type":"city","translations":{"es":"Leinfelden-Echterdingen","en":"Leinfelden-Echterdingen"}},{"name":"Leingarten","state_code":"BW","latitude":"49.14639000","longitude":"9.11694000","population":11772,"timezone":"Europe/Berlin","type":"adm4","translations":{"es":"Jardín de Leing","en":"Leingarten"}},{"name":"Leinzell","state_code":"BW","latitude":"48.84941000","longitude":"9.87750000","population":2055,"timezone":"Europe/Berlin","type":"adm4","translations":{"es":"Leinzell","en":"Leinzell"}},{"name":"Lenningen","state_code":"BW","latitude":"48.55048000","longitude":"9.47674000","population":8225,"timezone":"Europe/Berlin","type":"adm4","translations":{"es":"Lenningen","en":"Lenningen"}},{"name":"Lenzkirch","state_code":"BW","latitude":"47.86832000","longitude":"8.20211000","population":5171,"timezone":"Europe/Berlin","type":"adm4","translations":{"es":"Lenzkirch","en":"Lenzkirch"}},