[{"name":"Ali Sabieh","state_code":"AS","latitude":"11.15583000","longitude":"42.71250000","population":50006,"timezone":"Africa/Djibouti","type":"adm1","translations":{"es":"Ali Sabieh","en":"Ali Sabieh"}},{"name":"Goubétto","state_code":"AS","latitude":"11.42389000","longitude":"43.00028000","population":2003,"timezone":"Africa/Djibouti","type":"city","translations":{"es":"Goubétto","en":"Goubétto"}},{"name":"Holhol","state_code":"AS","latitude":"11.31028000","longitude":"42.92944000","population":3519,"timezone":"Africa/Djibouti","type":"city","translations":{"es":"Holhol","en":"Holhol"}},{"name":"Arta","state_code":"AR","latitude":"11.52639000","longitude":"42.85194000","population":17477,"timezone":"Africa/Djibouti","type":"adm1","translations":{"es":"Artá","en":"Arta"}},{"name":"Dikhil","state_code":"DI","latitude":"11.10454000","longitude":"42.36971000","population":35000,"timezone":"Africa/Djibouti","type":"adm1","translations":{"es":"Dikhil","en":"Dikhil"}},{"name":"Gâlâfi","state_code":"DI","latitude":"11.71583000","longitude":"41.83611000","population":1849,"timezone":"Africa/Djibouti","type":"city","translations":{"es":"Gâlâfi","en":"Gâlâfi"}},{"name":"Djibouti","state_code":"DJ","latitude":"11.58901000","longitude":"43.14503000","population":603900,"timezone":"Africa/Djibouti","type":"capital","translations":{"es":"Yibuti","en":"Djibouti"}},{"name":"Loyada","state_code":"DJ","latitude":"11.46111000","longitude":"43.25278000","population":1646,"timezone":"Africa/Djibouti","type":"city","translations":{"es":"Loyada","en":"Loyada"}},{"name":"Alaïli Ḏaḏḏa‘","state_code":"OB","latitude":"12.42167000","longitude":"42.89556000","population":1456,"timezone":"Africa/Djibouti","type":"city","translations":{"es":"Alaïli Ḏaḏḏa‘","en":"Alaïli Ḏaḏḏa‘"}},{"name":"Obock","state_code":"OB","latitude":"11.96693000","longitude":"43.28835000","population":15429,"timezone":"Africa/Djibouti","type":"adm1","translations":{"es":"Obock","en":"Obock"}},{"name":"Dorra","state_code":"TA","latitude":"12.15028000","longitude":"42.47624000","population":1873,"timezone":"Africa/Djibouti","type":"city","translations":{"es":"Dorra","en":"Dorra"}},{"name":"Tadjourah","state_code":"TA","latitude":"11.78778000","longitude":"42.88222000","population":19533,"timezone":"Africa/Djibouti","type":"adm1","translations":{"es":"Tadjourah","en":"Tadjourah"}}]