[{"name":"Aarhus","state_code":"82","latitude":"56.15674000","longitude":"10.21076000","population":290598,"timezone":"Europe/Copenhagen","type":"adm2","translations":{"es":"Aarhus","en":"Aarhus"}},{"name":"Aarhus Kommune","state_code":"82","latitude":"56.16317000","longitude":"10.16897000","population":1063,"timezone":"Europe/Copenhagen","type":"city","translations":{"es":"Comuna de Aarhus","en":"Aarhus Kommune"}},{"name":"Allingåbro","state_code":"82","latitude":"56.46432000","longitude":"10.31957000","population":1842,"timezone":"Europe/Copenhagen","type":"city","translations":{"es":"Allingåbro","en":"Allingåbro"}},{"name":"Assentoft","state_code":"82","latitude":"56.44210000","longitude":"10.15170000","population":3811,"timezone":"Europe/Copenhagen","type":"city","translations":{"es":"Assentoft","en":"Assentoft"}},{"name":"Auning","state_code":"82","latitude":"56.43079000","longitude":"10.37818000","population":3061,"timezone":"Europe/Copenhagen","type":"city","translations":{"es":"Auning","en":"Auning"}},{"name":"Avlum","state_code":"82","latitude":"56.26539000","longitude":"8.79256000","population":3249,"timezone":"Europe/Copenhagen","type":"city","translations":{"es":"Avlum","en":"Avlum"}},{"name":"Beder","state_code":"82","latitude":"56.06025000","longitude":"10.21179000","population":4214,"timezone":"Europe/Copenhagen","type":"city","translations":{"es":"Beder","en":"Beder"}},{"name":"Bjerringbro","state_code":"82","latitude":"56.37797000","longitude":"9.66065000","population":7437,"timezone":"Europe/Copenhagen","type":"city","translations":{"es":"Bjerringbro","en":"Bjerringbro"}},{"name":"Bording Kirkeby","state_code":"82","latitude":"56.16871000","longitude":"9.24384000","population":2104,"timezone":"Europe/Copenhagen","type":"city","translations":{"es":"Bording Kirkeby","en":"Bording Kirkeby"}},{"name":"Brande","state_code":"82","latitude":"55.94316000","longitude":"9.12798000","population":7449,"timezone":"Europe/Copenhagen","type":"city","translations":{"es":"Brande","en":"Brande"}},{"name":"Brædstrup","state_code":"82","latitude":"55.97153000","longitude":"9.61129000","population":3992,"timezone":"Europe/Copenhagen","type":"city","translations":{"es":"Brædstrup","en":"Brædstrup"}},{"name":"Ebeltoft","state_code":"82","latitude":"56.19442000","longitude":"10.68210000","population":7204,"timezone":"Europe/Copenhagen","type":"city","translations":{"es":"Ebeltoft","en":"Ebeltoft"}},{"name":"Favrskov Kommune","state_code":"82","latitude":"56.31667000","longitude":"9.94000000","population":null,"timezone":"Europe/Copenhagen","type":"city","translations":{"es":"Comuna de Favrskov","en":"Favrskov Kommune"}},{"name":"Framlev","state_code":"82","latitude":"56.15664000","longitude":"10.01318000","population":3067,"timezone":"Europe/Copenhagen","type":"city","translations":{"es":"Framlev","en":"Framlev"}},{"name":"Galten","state_code":"82","latitude":"56.15902000","longitude":"9.91691000","population":4895,"timezone":"Europe/Copenhagen","type":"city","translations":{"es":"Galten","en":"Galten"}},{"name":"Gjellerup","state_code":"82","latitude":"56.14616000","longitude":"9.05467000","population":3731,"timezone":"Europe/Copenhagen","type":"city","translations":{"es":"Gjellerup","en":"Gjellerup"}},{"name":"Grenaa","state_code":"82","latitude":"56.41578000","longitude":"10.87825000","population":14765,"timezone":"Europe/Copenhagen","type":"adm2","translations":{"es":"Granaa","en":"Grenaa"}},{"name":"Hadsten","state_code":"82","latitude":"56.32819000","longitude":"10.04931000","population":8254,"timezone":"Europe/Copenhagen","type":"city","translations":{"es":"Hadsten","en":"Hadsten"}},{"name":"Hammel","state_code":"82","latitude":"56.25762000","longitude":"9.86316000","population":7019,"timezone":"Europe/Copenhagen","type":"city","translations":{"es":"Hammel","en":"Hammel"}},{"name":"Hammerum","state_code":"82","latitude":"56.13361000","longitude":"9.06121000","population":3025,"timezone":"Europe/Copenhagen","type":"city","translations":{"es":"Hammerum","en":"Hammerum"}},{"name":"Harboøre","state_code":"82","latitude":"56.61752000","longitude":"8.18069000","population":1745,"timezone":"Europe/Copenhagen","type":"city","translations":{"es":"Puerto","en":"Harboøre"}},{"name":"Hedensted","state_code":"82","latitude":"55.77043000","longitude":"9.70110000","population":47099,"timezone":"Europe/Copenhagen","type":"adm2","translations":{"es":"Hedensted","en":"Hedensted"}},{"name":"Hedensted Kommune","state_code":"82","latitude":"55.79680000","longitude":"9.74400000","population":null,"timezone":"Europe/Copenhagen","type":"city","translations":{"es":"Comuna de Hedensted","en":"Hedensted Kommune"}},{"name":"Herning","state_code":"82","latitude":"56.13615000","longitude":"8.97662000","population":51312,"timezone":"Europe/Copenhagen","type":"adm2","translations":{"es":"Herning","en":"Herning"}},{"name":"Herning Kommune","state_code":"82","latitude":"56.14997000","longitude":"8.89712000","population":null,"timezone":"Europe/Copenhagen","type":"city","translations":{"es":"Comuna de Herning","en":"Herning Kommune"}},{"name":"Hinnerup","state_code":"82","latitude":"56.26608000","longitude":"10.06299000","population":8164,"timezone":"Europe/Copenhagen","type":"adm2","translations":{"es":"Hinnerup","en":"Hinnerup"}},{"name":"Hjortshøj","state_code":"82","latitude":"56.24811000","longitude":"10.26533000","population":3590,"timezone":"Europe/Copenhagen","type":"city","translations":{"es":"Hjortshøj","en":"Hjortshøj"}},{"name":"Holstebro","state_code":"82","latitude":"56.36009000","longitude":"8.61607000","population":37220,"timezone":"Europe/Copenhagen","type":"adm2","translations":{"es":"Holstebro","en":"Holstebro"}},{"name":"Holstebro Kommune","state_code":"82","latitude":"56.35916000","longitude":"8.59631000","population":null,"timezone":"Europe/Copenhagen","type":"adm2","translations":{"es":"Municipio de Holstebro","en":"Holstebro Kommune"}},{"name":"Hornslet","state_code":"82","latitude":"56.31550000","longitude":"10.32041000","population":6171,"timezone":"Europe/Copenhagen","type":"city","translations":{"es":"Hornslet","en":"Hornslet"}},{"name":"Hornsyld","state_code":"82","latitude":"55.75621000","longitude":"9.85643000","population":1634,"timezone":"Europe/Copenhagen","type":"city","translations":{"es":"Hornsyld","en":"Hornsyld"}},{"name":"Horsens","state_code":"82","latitude":"55.86066000","longitude":"9.85034000","population":64418,"timezone":"Europe/Copenhagen","type":"adm2","translations":{"es":"Caballos","en":"Horsens"}},{"name":"Horsens Kommune","state_code":"82","latitude":"55.92740000","longitude":"9.77377000","population":null,"timezone":"Europe/Copenhagen","type":"city","translations":{"es":"Comuna de Horsens","en":"Horsens Kommune"}},{"name":"Hørning","state_code":"82","latitude":"56.08701000","longitude":"10.03716000","population":8395,"timezone":"Europe/Copenhagen","type":"city","translations":{"es":"Horning","en":"Hørning"}},{"name":"Hvide Sande","state_code":"82","latitude":"55.99866000","longitude":"8.12605000","population":3059,"timezone":"Europe/Copenhagen","type":"city","translations":{"es":"Hvide Sande","en":"Hvide Sande"}},{"name":"Ikast","state_code":"82","latitude":"56.13883000","longitude":"9.15768000","population":15979,"timezone":"Europe/Copenhagen","type":"adm2","translations":{"es":"Ikast","en":"Ikast"}},{"name":"Ikast-Brande Kommune","state_code":"82","latitude":"55.98333000","longitude":"9.21667000","population":null,"timezone":"Europe/Copenhagen","type":"city","translations":{"es":"Municipio de Ikast-Brande","en":"Ikast-Brande Kommune"}},{"name":"Juelsminde","state_code":"82","latitude":"55.70876000","longitude":"10.01668000","population":3667,"timezone":"Europe/Copenhagen","type":"city","translations":{"es":"Juelsminde","en":"Juelsminde"}},{"name":"Karup","state_code":"82","latitude":"56.30673000","longitude":"9.16835000","population":2176,"timezone":"Europe/Copenhagen","type":"city","translations":{"es":"Karup","en":"Karup"}},{"name":"Kibæk","state_code":"82","latitude":"56.03170000","longitude":"8.85697000","population":2667,"timezone":"Europe/Copenhagen","type":"city","translations":{"es":"Kibæk","en":"Kibæk"}},{"name":"Kjellerup","state_code":"82","latitude":"56.28581000","longitude":"9.43528000","population":4514,"timezone":"Europe/Copenhagen","type":"city","translations":{"es":"Kjellerup","en":"Kjellerup"}},{"name":"Kolt","state_code":"82","latitude":"56.10845000","longitude":"10.06986000","population":5061,"timezone":"Europe/Copenhagen","type":"city","translations":{"es":"Kolt","en":"Kolt"}},{"name":"Langå","state_code":"82","latitude":"56.39026000","longitude":"9.89486000","population":2811,"timezone":"Europe/Copenhagen","type":"city","translations":{"es":"Largo","en":"Langå"}},{"name":"Lemvig","state_code":"82","latitude":"56.54856000","longitude":"8.31019000","population":6827,"timezone":"Europe/Copenhagen","type":"adm2","translations":{"es":"Lemvig","en":"Lemvig"}},{"name":"Lemvig Kommune","state_code":"82","latitude":"56.49136000","longitude":"8.29927000","population":null,"timezone":"Europe/Copenhagen","type":"adm2","translations":{"es":"Municipio de Lemvig","en":"Lemvig Kommune"}},{"name":"Lind","state_code":"82","latitude":"56.10600000","longitude":"8.97915000","population":3777,"timezone":"Europe/Copenhagen","type":"city","translations":{"es":"Lindo","en":"Lind"}},{"name":"Løgten","state_code":"82","latitude":"56.27459000","longitude":"10.31181000","population":8659,"timezone":"Europe/Copenhagen","type":"city","translations":{"es":"Løgten","en":"Løgten"}},{"name":"Lystrup","state_code":"82","latitude":"56.23750000","longitude":"10.23778000","population":10273,"timezone":"Europe/Copenhagen","type":"city","translations":{"es":"Lystrup","en":"Lystrup"}},{"name":"Malling","state_code":"82","latitude":"56.03632000","longitude":"10.19632000","population":6194,"timezone":"Europe/Copenhagen","type":"city","translations":{"es":"Malling","en":"Malling"}},{"name":"Mårslet","state_code":"82","latitude":"56.06690000","longitude":"10.16112000","population":5004,"timezone":"Europe/Copenhagen","type":"city","translations":{"es":"Marslet","en":"Mårslet"}},{"name":"Norddjurs Kommune","state_code":"82","latitude":"56.44124000","longitude":"10.76660000","population":null,"timezone":"Europe/Copenhagen","type":"city","translations":{"es":"Comuna de Norddjurs","en":"Norddjurs Kommune"}},{"name":"Odder","state_code":"82","latitude":"55.97313000","longitude":"10.15300000","population":11568,"timezone":"Europe/Copenhagen","type":"adm2","translations":{"es":"Más extraño","en":"Odder"}},{"name":"Odder Kommune","state_code":"82","latitude":"55.92967000","longitude":"10.15304000","population":12454,"timezone":"Europe/Copenhagen","type":"adm2","translations":{"es":"Odder Kommune","en":"Odder Kommune"}},{"name":"Randers","state_code":"82","latitude":"56.46070000","longitude":"10.03639000","population":64511,"timezone":"Europe/Copenhagen","type":"adm2","translations":{"es":"Randers","en":"Randers"}},{"name":"Randers Kommune","state_code":"82","latitude":"56.51561000","longitude":"10.06901000","population":null,"timezone":"Europe/Copenhagen","type":"city","translations":{"es":"Comuna de Randers","en":"Randers Kommune"}},{"name":"Ringkøbing","state_code":"82","latitude":"56.09006000","longitude":"8.24402000","population":9894,"timezone":"Europe/Copenhagen","type":"adm2","translations":{"es":"Ringkøbing","en":"Ringkøbing"}},{"name":"Ringkøbing-Skjern Kommune","state_code":"82","latitude":"56.01000000","longitude":"8.39667000","population":null,"timezone":"Europe/Copenhagen","type":"city","translations":{"es":"Municipio de Ringkøbing-Skjern","en":"Ringkøbing-Skjern Kommune"}},{"name":"Rønde","state_code":"82","latitude":"56.30145000","longitude":"10.47505000","population":3191,"timezone":"Europe/Copenhagen","type":"adm2","translations":{"es":"Ronda","en":"Rønde"}},{"name":"Ry","state_code":"82","latitude":"56.09038000","longitude":"9.76505000","population":7151,"timezone":"Europe/Copenhagen","type":"city","translations":{"es":"Ry","en":"Ry"}},{"name":"Ryomgård","state_code":"82","latitude":"56.38430000","longitude":"10.50295000","population":2498,"timezone":"Europe/Copenhagen","type":"city","translations":{"es":"Ryomgård","en":"Ryomgård"}},{"name":"Sabro","state_code":"82","latitude":"56.21333000","longitude":"10.03441000","population":3309,"timezone":"Europe/Copenhagen","type":"city","translations":{"es":"Sabro","en":"Sabro"}},{"name":"Samsø Kommune","state_code":"82","latitude":"55.85245000","longitude":"10.60045000","population":null,"timezone":"Europe/Copenhagen","type":"city","translations":{"es":"Samsø Kommune","en":"Samsø Kommune"}},{"name":"Silkeborg","state_code":"82","latitude":"56.16970000","longitude":"9.54508000","population":50866,"timezone":"Europe/Copenhagen","type":"adm2","translations":{"es":"Silkeborg","en":"Silkeborg"}},{"name":"Silkeborg Kommune","state_code":"82","latitude":"56.17495000","longitude":"9.54666000","population":49747,"timezone":"Europe/Copenhagen","type":"adm2","translations":{"es":"Municipio de Silkeborg","en":"Silkeborg Kommune"}},{"name":"Skanderborg","state_code":"82","latitude":"56.03434000","longitude":"9.93177000","population":13543,"timezone":"Europe/Copenhagen","type":"adm2","translations":{"es":"Skanderborg","en":"Skanderborg"}},{"name":"Skanderborg Kommune","state_code":"82","latitude":"56.07956000","longitude":"9.89868000","population":null,"timezone":"Europe/Copenhagen","type":"city","translations":{"es":"Comuna de Skanderborg","en":"Skanderborg Kommune"}},{"name":"Skive","state_code":"82","latitude":"56.56699000","longitude":"9.02707000","population":20176,"timezone":"Europe/Copenhagen","type":"adm2","translations":{"es":"Fumarse","en":"Skive"}},{"name":"Skive Kommune","state_code":"82","latitude":"56.64478000","longitude":"8.97660000","population":null,"timezone":"Europe/Copenhagen","type":"city","translations":{"es":"Comuna de Skive","en":"Skive Kommune"}},{"name":"Skjern","state_code":"82","latitude":"55.95000000","longitude":"8.50000000","population":7145,"timezone":"Europe/Copenhagen","type":"city","translations":{"es":"Skjern","en":"Skjern"}},{"name":"Skovby","state_code":"82","latitude":"56.15672000","longitude":"9.94523000","population":2489,"timezone":"Europe/Copenhagen","type":"city","translations":{"es":"Skovby","en":"Skovby"}},{"name":"Snejbjerg","state_code":"82","latitude":"56.13291000","longitude":"8.90353000","population":3513,"timezone":"Europe/Copenhagen","type":"city","translations":{"es":"Snejbjerg","en":"Snejbjerg"}},{"name":"Solbjerg","state_code":"82","latitude":"56.04271000","longitude":"10.08631000","population":4240,"timezone":"Europe/Copenhagen","type":"city","translations":{"es":"Solbjerg","en":"Solbjerg"}},{"name":"Søften","state_code":"82","latitude":"56.23801000","longitude":"10.08510000","population":3072,"timezone":"Europe/Copenhagen","type":"city","translations":{"es":"Ablandar","en":"Søften"}},{"name":"Spentrup","state_code":"82","latitude":"56.53703000","longitude":"10.03792000","population":2155,"timezone":"Europe/Copenhagen","type":"city","translations":{"es":"Gastado","en":"Spentrup"}},{"name":"Stavtrup","state_code":"82","latitude":"56.13124000","longitude":"10.11987000","population":3519,"timezone":"Europe/Copenhagen","type":"city","translations":{"es":"Stavtrup","en":"Stavtrup"}},{"name":"Stilling","state_code":"82","latitude":"56.06224000","longitude":"9.98822000","population":3655,"timezone":"Europe/Copenhagen","type":"city","translations":{"es":"Calmante","en":"Stilling"}},{"name":"Stoholm","state_code":"82","latitude":"56.48454000","longitude":"9.14617000","population":2533,"timezone":"Europe/Copenhagen","type":"city","translations":{"es":"Estocolmo","en":"Stoholm"}},{"name":"Struer","state_code":"82","latitude":"56.49205000","longitude":"8.59397000","population":11317,"timezone":"Europe/Copenhagen","type":"adm2","translations":{"es":"Más estruendoso","en":"Struer"}},{"name":"Struer Kommune","state_code":"82","latitude":"56.46667000","longitude":"8.58333000","population":null,"timezone":"Europe/Copenhagen","type":"adm2","translations":{"es":"Municipio de Struer","en":"Struer Kommune"}},{"name":"Sunds","state_code":"82","latitude":"56.20743000","longitude":"9.01386000","population":3525,"timezone":"Europe/Copenhagen","type":"city","translations":{"es":"Sunds","en":"Sunds"}},{"name":"Svejbæk","state_code":"82","latitude":"56.13255000","longitude":"9.63289000","population":3743,"timezone":"Europe/Copenhagen","type":"city","translations":{"es":"Svejbæk","en":"Svejbæk"}},{"name":"Syddjurs Kommune","state_code":"82","latitude":"56.31250000","longitude":"10.52083000","population":null,"timezone":"Europe/Copenhagen","type":"city","translations":{"es":"Comuna de Syddjurs","en":"Syddjurs Kommune"}},{"name":"Tarm","state_code":"82","latitude":"55.90861000","longitude":"8.53041000","population":4010,"timezone":"Europe/Copenhagen","type":"city","translations":{"es":"Tarm","en":"Tarm"}},{"name":"Thyborøn","state_code":"82","latitude":"56.69846000","longitude":"8.21238000","population":2007,"timezone":"Europe/Copenhagen","type":"city","translations":{"es":"Thyborøn","en":"Thyborøn"}},{"name":"Tørring","state_code":"82","latitude":"55.85000000","longitude":"9.48333000","population":2370,"timezone":"Europe/Copenhagen","type":"city","translations":{"es":"Tørring","en":"Tørring"}},{"name":"Tranbjerg","state_code":"82","latitude":"56.09519000","longitude":"10.13605000","population":7307,"timezone":"Europe/Copenhagen","type":"city","translations":{"es":"Tranbjerg","en":"Tranbjerg"}},{"name":"Trige","state_code":"82","latitude":"56.25291000","longitude":"10.14840000","population":3191,"timezone":"Europe/Copenhagen","type":"city","translations":{"es":"Trige","en":"Trige"}},{"name":"Ulfborg","state_code":"82","latitude":"56.26725000","longitude":"8.32167000","population":1994,"timezone":"Europe/Copenhagen","type":"city","translations":{"es":"Ulfborg","en":"Ulfborg"}},{"name":"Ulstrup","state_code":"82","latitude":"56.38994000","longitude":"9.79354000","population":1963,"timezone":"Europe/Copenhagen","type":"city","translations":{"es":"Ulstrup","en":"Ulstrup"}},{"name":"Viborg","state_code":"82","latitude":"56.45319000","longitude":"9.40201000","population":41079,"timezone":"Europe/Copenhagen","type":"adm1","translations":{"es":"Viborg","en":"Viborg"}},{"name":"Viborg Kommune","state_code":"82","latitude":"56.45000000","longitude":"9.36667000","population":null,"timezone":"Europe/Copenhagen","type":"city","translations":{"es":"Municipio de Viborg","en":"Viborg Kommune"}},{"name":"Videbæk","state_code":"82","latitude":"56.08760000","longitude":"8.62852000","population":4242,"timezone":"Europe/Copenhagen","type":"city","translations":{"es":"Videoteca","en":"Videbæk"}},{"name":"Vildbjerg","state_code":"82","latitude":"56.20000000","longitude":"8.76667000","population":3773,"timezone":"Europe/Copenhagen","type":"city","translations":{"es":"Vildbjerg","en":"Vildbjerg"}},{"name":"Vinderup","state_code":"82","latitude":"56.48176000","longitude":"8.77991000","population":3095,"timezone":"Europe/Copenhagen","type":"city","translations":{"es":"Vinderup","en":"Vinderup"}},{"name":"Virklund","state_code":"82","latitude":"56.13218000","longitude":"9.55582000","population":3113,"timezone":"Europe/Copenhagen","type":"city","translations":{"es":"Virklund","en":"Virklund"}},{"name":"Åkirkeby","state_code":"84","latitude":"55.07080000","longitude":"14.91978000","population":2119,"timezone":"Europe/Copenhagen","type":"city","translations":{"es":"Åkirkeby","en":"Åkirkeby"}},{"name":"Albertslund","state_code":"84","latitude":"55.65691000","longitude":"12.36381000","population":27692,"timezone":"Europe/Copenhagen","type":"adm2","translations":{"es":"Albertslund","en":"Albertslund"}},{"name":"Albertslund Kommune","state_code":"84","latitude":"55.68022000","longitude":"12.34797000","population":null,"timezone":"Europe/Copenhagen","type":"adm2","translations":{"es":"Comuna de Albertslund","en":"Albertslund Kommune"}},{"name":"Allerød Kommune","state_code":"84","latitude":"55.85856000","longitude":"12.32558000","population":null,"timezone":"Europe/Copenhagen","type":"city","translations":{"es":"Municipio de Allerød","en":"Allerød Kommune"}},{"name":"Ballerup","state_code":"84","latitude":"55.73165000","longitude":"12.36328000","population":40000,"timezone":"Europe/Copenhagen","type":"adm2","translations":{"es":"Bailarín","en":"Ballerup"}},{"name":"Ballerup Kommune","state_code":"84","latitude":"55.73248000","longitude":"12.35793000","population":null,"timezone":"Europe/Copenhagen","type":"adm2","translations":{"es":"Municipio de Ballerup","en":"Ballerup Kommune"}},{"name":"Birkerød","state_code":"84","latitude":"55.84759000","longitude":"12.42791000","population":20877,"timezone":"Europe/Copenhagen","type":"city","translations":{"es":"Birkerød","en":"Birkerød"}},{"name":"Blovstrød","state_code":"84","latitude":"55.87038000","longitude":"12.38640000","population":2968,"timezone":"Europe/Copenhagen","type":"city","translations":{"es":"Blovstrød","en":"Blovstrød"}},{"name":"Bornholm Kommune","state_code":"84","latitude":"55.12386000","longitude":"14.91115000","population":null,"timezone":"Europe/Copenhagen","type":"city","translations":{"es":"Municipio de Bornholm","en":"Bornholm Kommune"}},{"name":"Brøndby Kommune","state_code":"84","latitude":"55.64290000","longitude":"12.41101000","population":null,"timezone":"Europe/Copenhagen","type":"city","translations":{"es":"Municipio de Brøndby","en":"Brøndby Kommune"}},{"name":"Charlottenlund","state_code":"84","latitude":"55.75238000","longitude":"12.57450000","population":40000,"timezone":"Europe/Copenhagen","type":"adm2","translations":{"es":"Charlottenlund","en":"Charlottenlund"}},{"name":"Christianshavn","state_code":"84","latitude":"55.67383000","longitude":"12.59541000","population":10140,"timezone":"Europe/Copenhagen","type":"section","translations":{"es":"Christianshavn","en":"Christianshavn"}},{"name":"Christiansø","state_code":"84","latitude":"55.31982000","longitude":"15.18783000","population":90,"timezone":"Europe/Copenhagen","type":"adm2","translations":{"es":"Christiansø","en":"Christiansø"}},{"name":"Copenhagen","state_code":"84","latitude":"43.89343900","longitude":"-75.67382800","population":667099,"timezone":"Europe/Copenhagen","type":"city","translations":{"es":"Copenhague","en":"Copenhagen"}},{"name":"Dragør","state_code":"84","latitude":"55.59280000","longitude":"12.67221000","population":12401,"timezone":"Europe/Copenhagen","type":"adm2","translations":{"es":"Dragør","en":"Dragør"}},{"name":"Dragør Kommune","state_code":"84","latitude":"55.58233000","longitude":"12.62756000","population":null,"timezone":"Europe/Copenhagen","type":"city","translations":{"es":"Dragør Kommune","en":"Dragør Kommune"}},{"name":"Egedal Kommune","state_code":"84","latitude":"55.75556000","longitude":"12.22778000","population":null,"timezone":"Europe/Copenhagen","type":"city","translations":{"es":"Comuna de Egedal","en":"Egedal Kommune"}},{"name":"Espergærde","state_code":"84","latitude":"55.99464000","longitude":"12.54733000","population":11358,"timezone":"Europe/Copenhagen","type":"city","translations":{"es":"Espergærde","en":"Espergærde"}},{"name":"Farum","state_code":"84","latitude":"55.80858000","longitude":"12.36066000","population":20312,"timezone":"Europe/Copenhagen","type":"adm2","translations":{"es":"Farum","en":"Farum"}},{"name":"Fløng","state_code":"84","latitude":"55.66212000","longitude":"12.18698000","population":11108,"timezone":"Europe/Copenhagen","type":"city","translations":{"es":"Fløng","en":"Fløng"}},{"name":"Fredensborg","state_code":"84","latitude":"55.97558000","longitude":"12.40314000","population":8965,"timezone":"Europe/Copenhagen","type":"city","translations":{"es":"Fredensborg","en":"Fredensborg"}},{"name":"Fredensborg Kommune","state_code":"84","latitude":"55.95000000","longitude":"12.45000000","population":null,"timezone":"Europe/Copenhagen","type":"city","translations":{"es":"Municipio de Fredensborg","en":"Fredensborg Kommune"}},{"name":"Frederiksberg","state_code":"84","latitude":"55.67938000","longitude":"12.53463000","population":95029,"timezone":"Europe/Copenhagen","type":"adm2","translations":{"es":"Frederiksberg","en":"Frederiksberg"}},{"name":"Frederiksberg Kommune","state_code":"84","latitude":"55.67856000","longitude":"12.52216000","population":null,"timezone":"Europe/Copenhagen","type":"adm2","translations":{"es":"Municipio de Frederiksberg","en":"Frederiksberg Kommune"}},{"name":"Frederikssund","state_code":"84","latitude":"55.83956000","longitude":"12.06896000","population":16850,"timezone":"Europe/Copenhagen","type":"adm2","translations":{"es":"Frederikssund","en":"Frederikssund"}},{"name":"Frederikssund Kommune","state_code":"84","latitude":"55.80957000","longitude":"12.04038000","population":null,"timezone":"Europe/Copenhagen","type":"city","translations":{"es":"Municipio de Frederikssund","en":"Frederikssund Kommune"}},{"name":"Frederiksværk","state_code":"84","latitude":"55.97073000","longitude":"12.02250000","population":12815,"timezone":"Europe/Copenhagen","type":"adm2","translations":{"es":"Frederiksværk","en":"Frederiksværk"}},{"name":"Furesø Kommune","state_code":"84","latitude":"55.78333000","longitude":"12.34167000","population":null,"timezone":"Europe/Copenhagen","type":"adm2","translations":{"es":"Municipio de Furesø","en":"Furesø Kommune"}},{"name":"Ganløse","state_code":"84","latitude":"55.79124000","longitude":"12.26421000","population":2843,"timezone":"Europe/Copenhagen","type":"city","translations":{"es":"Ganløse","en":"Ganløse"}},{"name":"Gentofte Kommune","state_code":"84","latitude":"55.75000000","longitude":"12.55000000","population":null,"timezone":"Europe/Copenhagen","type":"section","translations":{"es":"Comuna de Gentofte","en":"Gentofte Kommune"}},{"name":"Gilleleje","state_code":"84","latitude":"56.12196000","longitude":"12.31056000","population":6781,"timezone":"Europe/Copenhagen","type":"city","translations":{"es":"Gilleleje","en":"Gilleleje"}},{"name":"Gladsaxe","state_code":"84","latitude":"55.76667000","longitude":"12.43333000","population":69429,"timezone":"Europe/Copenhagen","type":"municipality","translations":{"es":"Municipio de Gladsaxe","en":"Gladsaxe"}},{"name":"Glostrup","state_code":"84","latitude":"55.66660000","longitude":"12.40377000","population":23129,"timezone":"Europe/Copenhagen","type":"adm2","translations":{"es":"Glostrup","en":"Glostrup"}},{"name":"Glostrup Kommune","state_code":"84","latitude":"55.68188000","longitude":"12.41018000","population":20000,"timezone":"Europe/Copenhagen","type":"adm2","translations":{"es":"Municipio de Glostrup","en":"Glostrup Kommune"}},{"name":"Græsted","state_code":"84","latitude":"56.06558000","longitude":"12.28512000","population":3561,"timezone":"Europe/Copenhagen","type":"city","translations":{"es":"Græsted","en":"Græsted"}},{"name":"Gribskov Kommune","state_code":"84","latitude":"56.05833000","longitude":"12.24167000","population":null,"timezone":"Europe/Copenhagen","type":"city","translations":{"es":"Comuna de Gribskov","en":"Gribskov Kommune"}},{"name":"Halsnæs Kommune","state_code":"84","latitude":"55.96765000","longitude":"11.94214000","population":null,"timezone":"Europe/Copenhagen","type":"city","translations":{"es":"Municipio de Halsnæs","en":"Halsnæs Kommune"}},{"name":"Hedehusene","state_code":"84","latitude":"55.64801270","longitude":"12.19689260","population":13663,"timezone":"Europe/Copenhagen","type":"city","translations":{"es":"Hedehusene","en":"Hedehusene"}},{"name":"Hellebæk","state_code":"84","latitude":"56.06823000","longitude":"12.55782000","population":5790,"timezone":"Europe/Copenhagen","type":"city","translations":{"es":"Hellebæk","en":"Hellebæk"}},{"name":"Helsinge","state_code":"84","latitude":"56.02283000","longitude":"12.19752000","population":8616,"timezone":"Europe/Copenhagen","type":"adm2","translations":{"es":"Helsinge","en":"Helsinge"}},{"name":"Helsingør","state_code":"84","latitude":"56.03606000","longitude":"12.61360000","population":35048,"timezone":"Europe/Copenhagen","type":"adm2","translations":{"es":"Elsinor","en":"Helsingør"}},{"name":"Helsingør Kommune","state_code":"84","latitude":"56.05000000","longitude":"12.50000000","population":null,"timezone":"Europe/Copenhagen","type":"city","translations":{"es":"Municipio de Helsingør","en":"Helsingør Kommune"}},{"name":"Herlev Kommune","state_code":"84","latitude":"55.73317000","longitude":"12.43106000","population":null,"timezone":"Europe/Copenhagen","type":"adm2","translations":{"es":"Comuna de Herlev","en":"Herlev Kommune"}},{"name":"Hillerød","state_code":"84","latitude":"55.92791000","longitude":"12.30081000","population":36043,"timezone":"Europe/Copenhagen","type":"adm1","translations":{"es":"Hillerød","en":"Hillerød"}},{"name":"Hillerød Kommune","state_code":"84","latitude":"55.92319000","longitude":"12.23794000","population":null,"timezone":"Europe/Copenhagen","type":"city","translations":{"es":"Comuna de Hillerød","en":"Hillerød Kommune"}},{"name":"Hornbæk","state_code":"84","latitude":"56.09027000","longitude":"12.45693000","population":5334,"timezone":"Europe/Copenhagen","type":"city","translations":{"es":"Hornbæk","en":"Hornbæk"}},{"name":"Høje-Taastrup Kommune","state_code":"84","latitude":"55.65643000","longitude":"12.24854000","population":null,"timezone":"Europe/Copenhagen","type":"city","translations":{"es":"Høje-Taastrup Kommune","en":"Høje-Taastrup Kommune"}},{"name":"Hørsholm","state_code":"84","latitude":"55.88098000","longitude":"12.50111000","population":47489,"timezone":"Europe/Copenhagen","type":"adm2","translations":{"es":"Hørsholm","en":"Hørsholm"}},{"name":"Hørsholm Kommune","state_code":"84","latitude":"55.88759000","longitude":"12.48566000","population":null,"timezone":"Europe/Copenhagen","type":"adm2","translations":{"es":"Comuna de Hørsholm","en":"Hørsholm Kommune"}},{"name":"Humlebæk","state_code":"84","latitude":"55.96180000","longitude":"12.53410000","population":8965,"timezone":"Europe/Copenhagen","type":"city","translations":{"es":"Humlebæk","en":"Humlebæk"}},{"name":"Hundested","state_code":"84","latitude":"55.96397000","longitude":"11.85044000","population":8543,"timezone":"Europe/Copenhagen","type":"city","translations":{"es":"Cientos de personas","en":"Hundested"}},{"name":"Hvidovre","state_code":"84","latitude":"55.65719000","longitude":"12.47364000","population":53534,"timezone":"Europe/Copenhagen","type":"adm2","translations":{"es":"Hvidovre","en":"Hvidovre"}},{"name":"Hvidovre Kommune","state_code":"84","latitude":"55.63166000","longitude":"12.46615000","population":null,"timezone":"Europe/Copenhagen","type":"city","translations":{"es":"Comuna de Hvidovre","en":"Hvidovre Kommune"}},{"name":"Ishøj","state_code":"84","latitude":"55.61543000","longitude":"12.35182000","population":20017,"timezone":"Europe/Copenhagen","type":"adm2","translations":{"es":"Ishøj","en":"Ishøj"}},{"name":"Ishøj Kommune","state_code":"84","latitude":"55.62299000","longitude":"12.30567000","population":null,"timezone":"Europe/Copenhagen","type":"adm2","translations":{"es":"Municipio de Ishøj","en":"Ishøj Kommune"}},{"name":"Jægerspris","state_code":"84","latitude":"55.85248000","longitude":"11.98565000","population":4020,"timezone":"Europe/Copenhagen","type":"city","translations":{"es":"Precio cazador","en":"Jægerspris"}},{"name":"Kokkedal","state_code":"84","latitude":"55.91179000","longitude":"12.49952000","population":0,"timezone":"Europe/Copenhagen","type":"adm2","translations":{"es":"Kokkedal","en":"Kokkedal"}},{"name":"Kongens Lyngby","state_code":"84","latitude":"55.77044000","longitude":"12.50378000","population":11232,"timezone":"Europe/Copenhagen","type":"adm2","translations":{"es":"Kongens Lyngby","en":"Kongens Lyngby"}},{"name":"København","state_code":"84","latitude":"55.67110000","longitude":"12.56529000","population":1153615,"timezone":"Europe/Copenhagen","type":"capital","translations":{"es":"Copenhague","en":"København"}},{"name":"Lillerød","state_code":"84","latitude":"55.87496000","longitude":"12.34579000","population":16906,"timezone":"Europe/Copenhagen","type":"adm2","translations":{"es":"Lillerød","en":"Lillerød"}},{"name":"Liseleje","state_code":"84","latitude":"56.01295000","longitude":"11.96544000","population":2507,"timezone":"Europe/Copenhagen","type":"city","translations":{"es":"Liseleje","en":"Liseleje"}},{"name":"Lyngby-Tårbæk Kommune","state_code":"84","latitude":"55.78456000","longitude":"12.50508000","population":null,"timezone":"Europe/Copenhagen","type":"adm2","translations":{"es":"Lyngby-Tårbæk Kommune","en":"Lyngby-Tårbæk Kommune"}},{"name":"Lynge","state_code":"84","latitude":"55.83941000","longitude":"12.27725000","population":4163,"timezone":"Europe/Copenhagen","type":"city","translations":{"es":"Lynge","en":"Lynge"}},{"name":"Måløv","state_code":"84","latitude":"55.75528000","longitude":"12.32327000","population":8787,"timezone":"Europe/Copenhagen","type":"city","translations":{"es":"Malov","en":"Måløv"}},{"name":"Nexø","state_code":"84","latitude":"55.06067000","longitude":"15.13058000","population":3615,"timezone":"Europe/Copenhagen","type":"city","translations":{"es":"Nexo","en":"Nexø"}},{"name":"Nivå","state_code":"84","latitude":"55.93405000","longitude":"12.50485000","population":8048,"timezone":"Europe/Copenhagen","type":"city","translations":{"es":"Nivå","en":"Nivå"}},{"name":"Nødebo","state_code":"84","latitude":"55.97877000","longitude":"12.34685000","population":2093,"timezone":"Europe/Copenhagen","type":"city","translations":{"es":"Nødebo","en":"Nødebo"}},{"name":"Ølstykke","state_code":"84","latitude":"55.79567000","longitude":"12.15509000","population":5348,"timezone":"Europe/Copenhagen","type":"city","translations":{"es":"Ølstykke","en":"Ølstykke"}},{"name":"Rødovre","state_code":"84","latitude":"55.68062000","longitude":"12.45373000","population":40652,"timezone":"Europe/Copenhagen","type":"adm2","translations":{"es":"Rødovre","en":"Rødovre"}},{"name":"Rødovre Kommune","state_code":"84","latitude":"55.68852000","longitude":"12.44834000","population":null,"timezone":"Europe/Copenhagen","type":"adm2","translations":{"es":"Comuna de Rødovre","en":"Rødovre Kommune"}},{"name":"Rønne","state_code":"84","latitude":"55.10091000","longitude":"14.70664000","population":13759,"timezone":"Europe/Copenhagen","type":"adm2","translations":{"es":"Rønne","en":"Rønne"}},{"name":"Rudersdal Kommune","state_code":"84","latitude":"55.82500000","longitude":"12.49167000","population":null,"timezone":"Europe/Copenhagen","type":"adm2","translations":{"es":"Comuna de Rudersdal","en":"Rudersdal Kommune"}},{"name":"Skævinge","state_code":"84","latitude":"55.90785000","longitude":"12.15036000","population":2613,"timezone":"Europe/Copenhagen","type":"city","translations":{"es":"Skævinge","en":"Skævinge"}},{"name":"Skibby","state_code":"84","latitude":"55.75122000","longitude":"11.96083000","population":3120,"timezone":"Europe/Copenhagen","type":"city","translations":{"es":"Skibby","en":"Skibby"}},{"name":"Slangerup","state_code":"84","latitude":"55.85000000","longitude":"12.18333000","population":6826,"timezone":"Europe/Copenhagen","type":"city","translations":{"es":"Slangerup","en":"Slangerup"}},{"name":"Smørumnedre","state_code":"84","latitude":"55.74232000","longitude":"12.30276000","population":9507,"timezone":"Europe/Copenhagen","type":"city","translations":{"es":"Smørumnedre","en":"Smørumnedre"}},{"name":"Stavnsholt","state_code":"84","latitude":"55.81479000","longitude":"12.40545000","population":5658,"timezone":"Europe/Copenhagen","type":"city","translations":{"es":"Stavnsholt","en":"Stavnsholt"}},{"name":"Stenløse","state_code":"84","latitude":"55.76828000","longitude":"12.19723000","population":19998,"timezone":"Europe/Copenhagen","type":"adm2","translations":{"es":"Stenløse","en":"Stenløse"}},{"name":"Taastrup","state_code":"84","latitude":"55.65006000","longitude":"12.30160000","population":37231,"timezone":"Europe/Copenhagen","type":"adm2","translations":{"es":"Taastrup","en":"Taastrup"}},{"name":"Tårnby","state_code":"84","latitude":"55.63030000","longitude":"12.60035000","population":10000,"timezone":"Europe/Copenhagen","type":"adm2","translations":{"es":"Tårnby","en":"Tårnby"}},{"name":"Tårnby Kommune","state_code":"84","latitude":"55.60391000","longitude":"12.59599000","population":null,"timezone":"Europe/Copenhagen","type":"adm2","translations":{"es":"Municipio de Tårnby","en":"Tårnby Kommune"}},{"name":"Trørød","state_code":"84","latitude":"55.83946000","longitude":"12.54432000","population":8576,"timezone":"Europe/Copenhagen","type":"city","translations":{"es":"Trørød","en":"Trørød"}},{"name":"Vallensbæk Kommune","state_code":"84","latitude":"55.63128000","longitude":"12.37369000","population":null,"timezone":"Europe/Copenhagen","type":"adm2","translations":{"es":"Municipio de Vallensbæk","en":"Vallensbæk Kommune"}},{"name":"Vallensbæk Strand","state_code":"84","latitude":"55.62199000","longitude":"12.38511000","population":0,"timezone":"Europe/Copenhagen","type":"city","translations":{"es":"Playa de Vallensbæk","en":"Vallensbæk Strand"}},{"name":"Vanløse","state_code":"84","latitude":"55.68361000","longitude":"12.48713000","population":37115,"timezone":"Europe/Copenhagen","type":"section","translations":{"es":"Vanløse","en":"Vanløse"}},{"name":"Værløse","state_code":"84","latitude":"55.78251000","longitude":"12.36856000","population":13069,"timezone":"Europe/Copenhagen","type":"city","translations":{"es":"Værløse","en":"Værløse"}},{"name":"Veksø","state_code":"84","latitude":"55.75473000","longitude":"12.23837000","population":1792,"timezone":"Europe/Copenhagen","type":"city","translations":{"es":"Veksø","en":"Veksø"}},{"name":"Aalborg","state_code":"81","latitude":"57.04800000","longitude":"9.91870000","population":121878,"timezone":"Europe/Copenhagen","type":"adm1","translations":{"es":"Aalborg","en":"Aalborg"}},{"name":"Aars","state_code":"81","latitude":"56.80399000","longitude":"9.51441000","population":8246,"timezone":"Europe/Copenhagen","type":"adm2","translations":{"es":"Aars","en":"Aars"}},{"name":"Åbybro","state_code":"81","latitude":"57.16249000","longitude":"9.72996000","population":6318,"timezone":"Europe/Copenhagen","type":"adm2","translations":{"es":"Abybro","en":"Åbybro"}},{"name":"Ålborg Kommune","state_code":"81","latitude":"57.00000000","longitude":"9.95000000","population":null,"timezone":"Europe/Copenhagen","type":"city","translations":{"es":"Municipio de Ålborg","en":"Ålborg Kommune"}},{"name":"Ålestrup","state_code":"81","latitude":"56.69470000","longitude":"9.49336000","population":2780,"timezone":"Europe/Copenhagen","type":"city","translations":{"es":"Ålestrup","en":"Ålestrup"}},{"name":"Arden","state_code":"81","latitude":"56.76899000","longitude":"9.86184000","population":2516,"timezone":"Europe/Copenhagen","type":"city","translations":{"es":"Arden","en":"Arden"}},{"name":"Brovst","state_code":"81","latitude":"57.09750000","longitude":"9.52264000","population":2624,"timezone":"Europe/Copenhagen","type":"city","translations":{"es":"Brovst","en":"Brovst"}},{"name":"Brønderslev","state_code":"81","latitude":"57.27021000","longitude":"9.94102000","population":12549,"timezone":"Europe/Copenhagen","type":"adm2","translations":{"es":"Brønderslev","en":"Brønderslev"}},{"name":"Brønderslev Kommune","state_code":"81","latitude":"57.23506000","longitude":"10.10061000","population":null,"timezone":"Europe/Copenhagen","type":"city","translations":{"es":"Municipio de Brønderslev","en":"Brønderslev Kommune"}},{"name":"Dronninglund","state_code":"81","latitude":"57.16035000","longitude":"10.29287000","population":3487,"timezone":"Europe/Copenhagen","type":"city","translations":{"es":"Dronninglund","en":"Dronninglund"}},{"name":"Farsø","state_code":"81","latitude":"56.77276000","longitude":"9.33925000","population":3349,"timezone":"Europe/Copenhagen","type":"city","translations":{"es":"Farsø","en":"Farsø"}},{"name":"Fjerritslev","state_code":"81","latitude":"57.08822000","longitude":"9.26622000","population":3326,"timezone":"Europe/Copenhagen","type":"city","translations":{"es":"Fjerritslev","en":"Fjerritslev"}},{"name":"Frederikshavn","state_code":"81","latitude":"57.44073000","longitude":"10.53661000","population":23501,"timezone":"Europe/Copenhagen","type":"adm2","translations":{"es":"Frederikshavn","en":"Frederikshavn"}},{"name":"Frederikshavn Kommune","state_code":"81","latitude":"57.43347000","longitude":"10.42507000","population":null,"timezone":"Europe/Copenhagen","type":"city","translations":{"es":"Comuna de Frederikshavn","en":"Frederikshavn Kommune"}},{"name":"Frejlev","state_code":"81","latitude":"57.00623000","longitude":"9.81711000","population":3056,"timezone":"Europe/Copenhagen","type":"city","translations":{"es":"Frejlev","en":"Frejlev"}},{"name":"Gistrup","state_code":"81","latitude":"56.99430000","longitude":"9.99085000","population":3664,"timezone":"Europe/Copenhagen","type":"city","translations":{"es":"Gistrup","en":"Gistrup"}},{"name":"Hadsund","state_code":"81","latitude":"56.71482000","longitude":"10.11682000","population":5051,"timezone":"Europe/Copenhagen","type":"city","translations":{"es":"Hadsund","en":"Hadsund"}},{"name":"Hals","state_code":"81","latitude":"56.99609000","longitude":"10.30807000","population":2388,"timezone":"Europe/Copenhagen","type":"city","translations":{"es":"Hals","en":"Hals"}},{"name":"Hanstholm","state_code":"81","latitude":"57.11667000","longitude":"8.61667000","population":2154,"timezone":"Europe/Copenhagen","type":"city","translations":{"es":"Hanstholm","en":"Hanstholm"}},{"name":"Hirtshals","state_code":"81","latitude":"57.58812000","longitude":"9.95922000","population":5532,"timezone":"Europe/Copenhagen","type":"city","translations":{"es":"Hirtshals","en":"Hirtshals"}},{"name":"Hjallerup","state_code":"81","latitude":"57.16466000","longitude":"10.14571000","population":4235,"timezone":"Europe/Copenhagen","type":"city","translations":{"es":"Hjallerup","en":"Hjallerup"}},{"name":"Hjørring","state_code":"81","latitude":"57.46417000","longitude":"9.98229000","population":25917,"timezone":"Europe/Copenhagen","type":"adm2","translations":{"es":"Hjørring","en":"Hjørring"}},{"name":"Hjørring Kommune","state_code":"81","latitude":"57.45682000","longitude":"10.05859000","population":null,"timezone":"Europe/Copenhagen","type":"city","translations":{"es":"Comuna de Hjørring","en":"Hjørring Kommune"}},{"name":"Hobro","state_code":"81","latitude":"56.64306000","longitude":"9.79029000","population":12071,"timezone":"Europe/Copenhagen","type":"adm2","translations":{"es":"Hobro","en":"Hobro"}},{"name":"Hurup","state_code":"81","latitude":"56.74944000","longitude":"8.41953000","population":2769,"timezone":"Europe/Copenhagen","type":"city","translations":{"es":"Hurup","en":"Hurup"}},{"name":"Jammerbugt Kommune","state_code":"81","latitude":"57.14583000","longitude":"9.56250000","population":null,"timezone":"Europe/Copenhagen","type":"city","translations":{"es":"Comuna de Jammerbugt","en":"Jammerbugt Kommune"}},{"name":"Kås","state_code":"81","latitude":"57.19774000","longitude":"9.67173000","population":1990,"timezone":"Europe/Copenhagen","type":"city","translations":{"es":"Kås","en":"Kås"}},{"name":"Klarup","state_code":"81","latitude":"57.01194000","longitude":"10.05617000","population":4969,"timezone":"Europe/Copenhagen","type":"city","translations":{"es":"Klarup","en":"Klarup"}},{"name":"Læso Kommune","state_code":"81","latitude":"57.26774000","longitude":"11.02265000","population":null,"timezone":"Europe/Copenhagen","type":"city","translations":{"es":"Læso Kommune","en":"Læso Kommune"}},{"name":"Løgstør","state_code":"81","latitude":"56.96245000","longitude":"9.25830000","population":3967,"timezone":"Europe/Copenhagen","type":"city","translations":{"es":"Løgstør","en":"Løgstør"}},{"name":"Løkken","state_code":"81","latitude":"57.37047000","longitude":"9.71466000","population":8828,"timezone":"Europe/Copenhagen","type":"city","translations":{"es":"Løkken","en":"Løkken"}},{"name":"Mariager","state_code":"81","latitude":"56.64985000","longitude":"9.97515000","population":2506,"timezone":"Europe/Copenhagen","type":"city","translations":{"es":"Mariager","en":"Mariager"}},{"name":"Mariagerfjord Kommune","state_code":"81","latitude":"56.69722000","longitude":"9.84722000","population":null,"timezone":"Europe/Copenhagen","type":"city","translations":{"es":"Municipio de Mariagerfjord","en":"Mariagerfjord Kommune"}},{"name":"Morsø Kommune","state_code":"81","latitude":"56.79622000","longitude":"8.73272000","population":null,"timezone":"Europe/Copenhagen","type":"city","translations":{"es":"Municipio de Morsø","en":"Morsø Kommune"}},{"name":"Nibe","state_code":"81","latitude":"56.98150000","longitude":"9.63917000","population":5433,"timezone":"Europe/Copenhagen","type":"city","translations":{"es":"Nibe","en":"Nibe"}},{"name":"Nørresundby","state_code":"81","latitude":"57.05877000","longitude":"9.92284000","population":23718,"timezone":"Europe/Copenhagen","type":"city","translations":{"es":"Nørresundby","en":"Nørresundby"}},{"name":"Nykøbing Mors","state_code":"81","latitude":"56.79334000","longitude":"8.85282000","population":9031,"timezone":"Europe/Copenhagen","type":"adm2","translations":{"es":"Nykøbing Mors","en":"Nykøbing Mors"}},{"name":"Pandrup","state_code":"81","latitude":"57.22147000","longitude":"9.67569000","population":2862,"timezone":"Europe/Copenhagen","type":"city","translations":{"es":"Pandrup","en":"Pandrup"}},{"name":"Rebild Kommune","state_code":"81","latitude":"56.80556000","longitude":"9.77778000","population":null,"timezone":"Europe/Copenhagen","type":"adm2","translations":{"es":"Comunidad de Rebild","en":"Rebild Kommune"}},{"name":"Sæby","state_code":"81","latitude":"57.33188000","longitude":"10.52251000","population":8838,"timezone":"Europe/Copenhagen","type":"city","translations":{"es":"Saeby","en":"Sæby"}},{"name":"Sindal","state_code":"81","latitude":"57.47117000","longitude":"10.20312000","population":3095,"timezone":"Europe/Copenhagen","type":"city","translations":{"es":"Sindal","en":"Sindal"}},{"name":"Skagen","state_code":"81","latitude":"57.72093000","longitude":"10.58394000","population":8198,"timezone":"Europe/Copenhagen","type":"city","translations":{"es":"Skagen","en":"Skagen"}},{"name":"Skørping","state_code":"81","latitude":"56.83626000","longitude":"9.89255000","population":2971,"timezone":"Europe/Copenhagen","type":"city","translations":{"es":"Skørping","en":"Skørping"}},{"name":"Storvorde","state_code":"81","latitude":"57.00392000","longitude":"10.10125000","population":3425,"timezone":"Europe/Copenhagen","type":"city","translations":{"es":"Storvorde","en":"Storvorde"}},{"name":"Støvring","state_code":"81","latitude":"56.88536000","longitude":"9.83839000","population":9089,"timezone":"Europe/Copenhagen","type":"adm2","translations":{"es":"Støvring","en":"Støvring"}},{"name":"Strandby","state_code":"81","latitude":"57.49150000","longitude":"10.49609000","population":2518,"timezone":"Europe/Copenhagen","type":"city","translations":{"es":"Strandby","en":"Strandby"}},{"name":"Svenstrup","state_code":"81","latitude":"56.97230000","longitude":"9.84806000","population":7650,"timezone":"Europe/Copenhagen","type":"city","translations":{"es":"Svenstrup","en":"Svenstrup"}},{"name":"Tårs","state_code":"81","latitude":"57.38333000","longitude":"10.11667000","population":1932,"timezone":"Europe/Copenhagen","type":"city","translations":{"es":"Tars","en":"Tårs"}},{"name":"Thisted","state_code":"81","latitude":"56.95523000","longitude":"8.69491000","population":13461,"timezone":"Europe/Copenhagen","type":"adm2","translations":{"es":"Thisted","en":"Thisted"}},{"name":"Thisted Kommune","state_code":"81","latitude":"57.00397000","longitude":"8.61834000","population":null,"timezone":"Europe/Copenhagen","type":"city","translations":{"es":"Comuna de Thisted","en":"Thisted Kommune"}},{"name":"Vadum","state_code":"81","latitude":"57.11790000","longitude":"9.85700000","population":1978,"timezone":"Europe/Copenhagen","type":"locality","translations":{"es":"Vadum","en":"Vadum"}},{"name":"Vestbjerg","state_code":"81","latitude":"57.13166000","longitude":"9.95942000","population":2888,"timezone":"Europe/Copenhagen","type":"city","translations":{"es":"Vestbjerg","en":"Vestbjerg"}},{"name":"Vester Hassing","state_code":"81","latitude":"57.06767000","longitude":"10.12558000","population":2589,"timezone":"Europe/Copenhagen","type":"city","translations":{"es":"Vester Hassing","en":"Vester Hassing"}},{"name":"Vesthimmerland Kommune","state_code":"81","latitude":"56.80000000","longitude":"9.37083000","population":null,"timezone":"Europe/Copenhagen","type":"city","translations":{"es":"Municipio de Vesthimmerland","en":"Vesthimmerland Kommune"}},{"name":"Vodskov","state_code":"81","latitude":"57.10854000","longitude":"10.02215000","population":4663,"timezone":"Europe/Copenhagen","type":"city","translations":{"es":"Vodskov","en":"Vodskov"}},{"name":"Vrå","state_code":"81","latitude":"57.35370000","longitude":"9.94176000","population":2509,"timezone":"Europe/Copenhagen","type":"city","translations":{"es":"Vrå","en":"Vrå"}},{"name":"Aabenraa","state_code":"83","latitude":"55.04434000","longitude":"9.41741000","population":15967,"timezone":"Europe/Copenhagen","type":"adm2","translations":{"es":"Aabenraa","en":"Aabenraa"}},{"name":"Aabenraa Kommune","state_code":"83","latitude":"54.98980000","longitude":"9.31282000","population":null,"timezone":"Europe/Copenhagen","type":"city","translations":{"es":"Comuna de Aabenraa","en":"Aabenraa Kommune"}},{"name":"Årslev","state_code":"83","latitude":"55.30353000","longitude":"10.46428000","population":4193,"timezone":"Europe/Copenhagen","type":"city","translations":{"es":"Årslev","en":"Årslev"}},{"name":"Årup","state_code":"83","latitude":"55.37315000","longitude":"10.04131000","population":3259,"timezone":"Europe/Copenhagen","type":"city","translations":{"es":"Årup","en":"Årup"}},{"name":"Assens","state_code":"83","latitude":"55.27023000","longitude":"9.90081000","population":6050,"timezone":"Europe/Copenhagen","type":"adm2","translations":{"es":"Assens","en":"Assens"}},{"name":"Assens Kommune","state_code":"83","latitude":"55.29958000","longitude":"10.07952000","population":null,"timezone":"Europe/Copenhagen","type":"city","translations":{"es":"Comuna de Assens","en":"Assens Kommune"}},{"name":"Augustenborg","state_code":"83","latitude":"54.95201000","longitude":"9.87216000","population":3288,"timezone":"Europe/Copenhagen","type":"city","translations":{"es":"Augustenborg","en":"Augustenborg"}},{"name":"Ærø Kommune","state_code":"83","latitude":"54.85833000","longitude":"10.43333000","population":null,"timezone":"Europe/Copenhagen","type":"city","translations":{"es":"Comuna de Ærø","en":"Ærø Kommune"}},{"name":"Ærøskøbing","state_code":"83","latitude":"54.88803000","longitude":"10.41117000","population":937,"timezone":"Europe/Copenhagen","type":"adm2","translations":{"es":"Ærøskøbing","en":"Ærøskøbing"}},{"name":"Bellinge","state_code":"83","latitude":"55.33535000","longitude":"10.32045000","population":5483,"timezone":"Europe/Copenhagen","type":"city","translations":{"es":"Bellinge","en":"Bellinge"}},{"name":"Billund","state_code":"83","latitude":"55.73349000","longitude":"9.10785000","population":6194,"timezone":"Europe/Copenhagen","type":"city","translations":{"es":"Billund","en":"Billund"}},{"name":"Billund Kommune","state_code":"83","latitude":"55.73079000","longitude":"8.96844000","population":null,"timezone":"Europe/Copenhagen","type":"city","translations":{"es":"Municipio de Billund","en":"Billund Kommune"}},{"name":"Bogense","state_code":"83","latitude":"55.56691000","longitude":"10.08863000","population":4059,"timezone":"Europe/Copenhagen","type":"adm2","translations":{"es":"Bogense","en":"Bogense"}},{"name":"Børkop","state_code":"83","latitude":"55.64195000","longitude":"9.64958000","population":3561,"timezone":"Europe/Copenhagen","type":"city","translations":{"es":"Børkop","en":"Børkop"}},{"name":"Bramming","state_code":"83","latitude":"55.46946000","longitude":"8.70007000","population":7111,"timezone":"Europe/Copenhagen","type":"city","translations":{"es":"Bramming","en":"Bramming"}},{"name":"Brejning","state_code":"83","latitude":"55.66594000","longitude":"9.67217000","population":2220,"timezone":"Europe/Copenhagen","type":"city","translations":{"es":"Brejning","en":"Brejning"}},{"name":"Brenderup","state_code":"83","latitude":"55.48407000","longitude":"9.97908000","population":1366,"timezone":"Europe/Copenhagen","type":"city","translations":{"es":"Brenderup","en":"Brenderup"}},{"name":"Broager","state_code":"83","latitude":"54.88940000","longitude":"9.67465000","population":3238,"timezone":"Europe/Copenhagen","type":"city","translations":{"es":"Broager","en":"Broager"}},{"name":"Brørup","state_code":"83","latitude":"55.48194000","longitude":"9.01756000","population":4516,"timezone":"Europe/Copenhagen","type":"city","translations":{"es":"Brorup","en":"Brørup"}},{"name":"Bullerup","state_code":"83","latitude":"55.42686000","longitude":"10.47137000","population":2982,"timezone":"Europe/Copenhagen","type":"city","translations":{"es":"Bullerup","en":"Bullerup"}},{"name":"Christiansfeld","state_code":"83","latitude":"55.35817000","longitude":"9.48701000","population":2855,"timezone":"Europe/Copenhagen","type":"city","translations":{"es":"Christiansfeld","en":"Christiansfeld"}},{"name":"Dybbøl","state_code":"83","latitude":"54.91079000","longitude":"9.73601000","population":2448,"timezone":"Europe/Copenhagen","type":"city","translations":{"es":"Dybbøl","en":"Dybbøl"}},{"name":"Egtved","state_code":"83","latitude":"55.61613000","longitude":"9.30763000","population":2446,"timezone":"Europe/Copenhagen","type":"city","translations":{"es":"Egtved","en":"Egtved"}},{"name":"Ejby","state_code":"83","latitude":"55.43010000","longitude":"9.92973000","population":1996,"timezone":"Europe/Copenhagen","type":"city","translations":{"es":"Ejby","en":"Ejby"}},{"name":"Esbjerg","state_code":"83","latitude":"55.47028000","longitude":"8.45187000","population":71554,"timezone":"Europe/Copenhagen","type":"adm2","translations":{"es":"Esbjerg","en":"Esbjerg"}},{"name":"Esbjerg Kommune","state_code":"83","latitude":"55.46893000","longitude":"8.46222000","population":null,"timezone":"Europe/Copenhagen","type":"adm2","translations":{"es":"Comuna de Esbjerg","en":"Esbjerg Kommune"}},{"name":"Faaborg","state_code":"83","latitude":"55.09510000","longitude":"10.24226000","population":7178,"timezone":"Europe/Copenhagen","type":"city","translations":{"es":"Faaborg","en":"Faaborg"}},{"name":"Faaborg-Midtfyn Kommune","state_code":"83","latitude":"55.22667000","longitude":"10.40667000","population":null,"timezone":"Europe/Copenhagen","type":"city","translations":{"es":"Comuna de Faaborg-Midtfyn","en":"Faaborg-Midtfyn Kommune"}},{"name":"Fanø Kommune","state_code":"83","latitude":"55.41667000","longitude":"8.41667000","population":null,"timezone":"Europe/Copenhagen","type":"city","translations":{"es":"Comuna de Fanø","en":"Fanø Kommune"}},{"name":"Fredericia","state_code":"83","latitude":"55.56568000","longitude":"9.75257000","population":41243,"timezone":"Europe/Copenhagen","type":"adm2","translations":{"es":"Fredericia","en":"Fredericia"}},{"name":"Fredericia Kommune","state_code":"83","latitude":"55.57271000","longitude":"9.69489000","population":null,"timezone":"Europe/Copenhagen","type":"city","translations":{"es":"Comuna de Fredericia","en":"Fredericia Kommune"}},{"name":"Give","state_code":"83","latitude":"55.84523000","longitude":"9.23769000","population":4550,"timezone":"Europe/Copenhagen","type":"city","translations":{"es":"Dar","en":"Give"}},{"name":"Glamsbjerg","state_code":"83","latitude":"55.27237000","longitude":"10.10483000","population":3344,"timezone":"Europe/Copenhagen","type":"city","translations":{"es":"Glamsbjerg","en":"Glamsbjerg"}},{"name":"Gram","state_code":"83","latitude":"55.28948000","longitude":"9.04913000","population":2521,"timezone":"Europe/Copenhagen","type":"city","translations":{"es":"Gramo","en":"Gram"}},{"name":"Gråsten","state_code":"83","latitude":"54.91918000","longitude":"9.59523000","population":4274,"timezone":"Europe/Copenhagen","type":"city","translations":{"es":"Gråsten","en":"Gråsten"}},{"name":"Grindsted","state_code":"83","latitude":"55.75726000","longitude":"8.92750000","population":9750,"timezone":"Europe/Copenhagen","type":"adm2","translations":{"es":"Grindsted","en":"Grindsted"}},{"name":"Guderup","state_code":"83","latitude":"54.98978000","longitude":"9.87174000","population":2372,"timezone":"Europe/Copenhagen","type":"city","translations":{"es":"Guderup","en":"Guderup"}},{"name":"Haderslev","state_code":"83","latitude":"55.24943000","longitude":"9.48771000","population":22182,"timezone":"Europe/Copenhagen","type":"adm2","translations":{"es":"Haderslev","en":"Haderslev"}},{"name":"Haderslev Kommune","state_code":"83","latitude":"55.24441000","longitude":"9.32261000","population":null,"timezone":"Europe/Copenhagen","type":"city","translations":{"es":"Comuna de Haderslev","en":"Haderslev Kommune"}},{"name":"Hårby","state_code":"83","latitude":"55.22357000","longitude":"10.12268000","population":2400,"timezone":"Europe/Copenhagen","type":"city","translations":{"es":"Hårby","en":"Hårby"}},{"name":"Holsted","state_code":"83","latitude":"55.51086000","longitude":"8.91872000","population":3046,"timezone":"Europe/Copenhagen","type":"city","translations":{"es":"Holsted","en":"Holsted"}},{"name":"Højby","state_code":"83","latitude":"55.33177000","longitude":"10.43725000","population":4406,"timezone":"Europe/Copenhagen","type":"city","translations":{"es":"Højby","en":"Højby"}},{"name":"Høruphav","state_code":"83","latitude":"54.91017000","longitude":"9.89872000","population":2701,"timezone":"Europe/Copenhagen","type":"city","translations":{"es":"Høruphav","en":"Høruphav"}},{"name":"Jelling","state_code":"83","latitude":"55.75588000","longitude":"9.42580000","population":3370,"timezone":"Europe/Copenhagen","type":"city","translations":{"es":"Gelificación","en":"Jelling"}},{"name":"Kerteminde","state_code":"83","latitude":"55.44903000","longitude":"10.65769000","population":5872,"timezone":"Europe/Copenhagen","type":"adm2","translations":{"es":"Kerteminde","en":"Kerteminde"}},{"name":"Kerteminde Kommune","state_code":"83","latitude":"55.45498000","longitude":"10.62220000","population":null,"timezone":"Europe/Copenhagen","type":"city","translations":{"es":"Comuna de Kerteminde","en":"Kerteminde Kommune"}},{"name":"Kolding","state_code":"83","latitude":"55.49040000","longitude":"9.47216000","population":63645,"timezone":"Europe/Copenhagen","type":"adm2","translations":{"es":"Kolding","en":"Kolding"}},{"name":"Kolding Kommune","state_code":"83","latitude":"55.45006000","longitude":"9.45807000","population":null,"timezone":"Europe/Copenhagen","type":"adm2","translations":{"es":"Comuna de Kolding","en":"Kolding Kommune"}},{"name":"Kruså","state_code":"83","latitude":"54.85097000","longitude":"9.40129000","population":1613,"timezone":"Europe/Copenhagen","type":"city","translations":{"es":"Kruså","en":"Kruså"}},{"name":"Langeland Kommune","state_code":"83","latitude":"54.90000000","longitude":"10.77222000","population":null,"timezone":"Europe/Copenhagen","type":"city","translations":{"es":"Comuna de Langeland","en":"Langeland Kommune"}},{"name":"Langeskov","state_code":"83","latitude":"55.35655000","longitude":"10.58447000","population":4222,"timezone":"Europe/Copenhagen","type":"city","translations":{"es":"Langeskov","en":"Langeskov"}},{"name":"Løgumkloster","state_code":"83","latitude":"55.05941000","longitude":"8.95508000","population":3480,"timezone":"Europe/Copenhagen","type":"city","translations":{"es":"Løgumkloster","en":"Løgumkloster"}},{"name":"Løjt Kirkeby","state_code":"83","latitude":"55.08959000","longitude":"9.46084000","population":1975,"timezone":"Europe/Copenhagen","type":"city","translations":{"es":"Løjt Kirkeby","en":"Løjt Kirkeby"}},{"name":"Lunderskov","state_code":"83","latitude":"55.48375000","longitude":"9.29917000","population":2687,"timezone":"Europe/Copenhagen","type":"city","translations":{"es":"Lunderskov","en":"Lunderskov"}},{"name":"Marstal","state_code":"83","latitude":"54.85621000","longitude":"10.51726000","population":2120,"timezone":"Europe/Copenhagen","type":"city","translations":{"es":"Marstal","en":"Marstal"}},{"name":"Middelfart","state_code":"83","latitude":"55.50591000","longitude":"9.73054000","population":16277,"timezone":"Europe/Copenhagen","type":"adm2","translations":{"es":"Middelfart","en":"Middelfart"}},{"name":"Middelfart Kommune","state_code":"83","latitude":"55.45782000","longitude":"9.88100000","population":3133,"timezone":"Europe/Copenhagen","type":"city","translations":{"es":"Comuna de Middelfart","en":"Middelfart Kommune"}},{"name":"Munkebo","state_code":"83","latitude":"55.45553000","longitude":"10.55433000","population":5571,"timezone":"Europe/Copenhagen","type":"city","translations":{"es":"Munkebo","en":"Munkebo"}},{"name":"Neder Holluf","state_code":"83","latitude":"55.36451000","longitude":"10.44824000","population":5612,"timezone":"Europe/Copenhagen","type":"city","translations":{"es":"Neder Holluf","en":"Neder Holluf"}},{"name":"Nordborg","state_code":"83","latitude":"55.05732000","longitude":"9.74080000","population":5709,"timezone":"Europe/Copenhagen","type":"city","translations":{"es":"Nordborg","en":"Nordborg"}},{"name":"Nordby","state_code":"83","latitude":"55.44603000","longitude":"8.39786000","population":2736,"timezone":"Europe/Copenhagen","type":"adm2","translations":{"es":"Nordby","en":"Nordby"}},{"name":"Nordfyns Kommune","state_code":"83","latitude":"55.52222000","longitude":"10.22222000","population":null,"timezone":"Europe/Copenhagen","type":"city","translations":{"es":"Comuna de Nordfyns","en":"Nordfyns Kommune"}},{"name":"Nørre Åby","state_code":"83","latitude":"55.46107000","longitude":"9.87940000","population":3133,"timezone":"Europe/Copenhagen","type":"city","translations":{"es":"Nørre Åby","en":"Nørre Åby"}},{"name":"Nyborg","state_code":"83","latitude":"55.31274000","longitude":"10.78964000","population":17415,"timezone":"Europe/Copenhagen","type":"adm2","translations":{"es":"Nyborg","en":"Nyborg"}},{"name":"Nyborg Kommune","state_code":"83","latitude":"55.29473000","longitude":"10.70310000","population":null,"timezone":"Europe/Copenhagen","type":"adm2","translations":{"es":"Comuna de Nyborg","en":"Nyborg Kommune"}},{"name":"Odense","state_code":"83","latitude":"55.39594000","longitude":"10.38831000","population":185480,"timezone":"Europe/Copenhagen","type":"adm2","translations":{"es":"Odense","en":"Odense"}},{"name":"Odense Kommune","state_code":"83","latitude":"55.39570000","longitude":"10.37761000","population":null,"timezone":"Europe/Copenhagen","type":"adm2","translations":{"es":"Comuna de Odense","en":"Odense Kommune"}},{"name":"Oksbøl","state_code":"83","latitude":"55.62680000","longitude":"8.28757000","population":2825,"timezone":"Europe/Copenhagen","type":"city","translations":{"es":"Oksbøl","en":"Oksbøl"}},{"name":"Otterup","state_code":"83","latitude":"55.51527000","longitude":"10.39756000","population":5083,"timezone":"Europe/Copenhagen","type":"city","translations":{"es":"Otterup","en":"Otterup"}},{"name":"Ølgod","state_code":"83","latitude":"55.80682000","longitude":"8.62859000","population":3705,"timezone":"Europe/Copenhagen","type":"city","translations":{"es":"Dios mío","en":"Ølgod"}},{"name":"Padborg","state_code":"83","latitude":"54.82657000","longitude":"9.36247000","population":4393,"timezone":"Europe/Copenhagen","type":"city","translations":{"es":"Padborg","en":"Padborg"}},{"name":"Ribe","state_code":"83","latitude":"55.33051000","longitude":"8.76966000","population":8317,"timezone":"Europe/Copenhagen","type":"city","translations":{"es":"Ribera","en":"Ribe"}},{"name":"Ringe","state_code":"83","latitude":"55.23828000","longitude":"10.47860000","population":6729,"timezone":"Europe/Copenhagen","type":"adm2","translations":{"es":"Anillos","en":"Ringe"}},{"name":"Rødding","state_code":"83","latitude":"55.36569000","longitude":"9.06316000","population":2712,"timezone":"Europe/Copenhagen","type":"city","translations":{"es":"Rodamiento","en":"Rødding"}},{"name":"Rødekro","state_code":"83","latitude":"55.07076000","longitude":"9.33531000","population":5950,"timezone":"Europe/Copenhagen","type":"city","translations":{"es":"Rødekro","en":"Rødekro"}},{"name":"Rudkøbing","state_code":"83","latitude":"54.93639000","longitude":"10.71019000","population":4521,"timezone":"Europe/Copenhagen","type":"adm2","translations":{"es":"Rudkøbing","en":"Rudkøbing"}},{"name":"Seden","state_code":"83","latitude":"55.42648000","longitude":"10.44265000","population":3350,"timezone":"Europe/Copenhagen","type":"city","translations":{"es":"Seden","en":"Seden"}},{"name":"Skaerbaek","state_code":"83","latitude":"55.15735000","longitude":"8.76901000","population":3062,"timezone":"Europe/Copenhagen","type":"city","translations":{"es":"Skaerbaek","en":"Skaerbaek"}},{"name":"Snoghøj","state_code":"83","latitude":"55.52253000","longitude":"9.72125000","population":2371,"timezone":"Europe/Copenhagen","type":"city","translations":{"es":"Snoghøj","en":"Snoghøj"}},{"name":"Sønder Bjert","state_code":"83","latitude":"55.45272000","longitude":"9.56741000","population":2025,"timezone":"Europe/Copenhagen","type":"city","translations":{"es":"Sonder Bjert","en":"Sønder Bjert"}},{"name":"Sønderborg","state_code":"83","latitude":"54.90896000","longitude":"9.78917000","population":27595,"timezone":"Europe/Copenhagen","type":"adm2","translations":{"es":"Sønderborg","en":"Sønderborg"}},{"name":"Sønderborg Kommune","state_code":"83","latitude":"54.91667000","longitude":"9.80000000","population":null,"timezone":"Europe/Copenhagen","type":"adm2","translations":{"es":"Municipio de Sønderborg","en":"Sønderborg Kommune"}},{"name":"Søndersø","state_code":"83","latitude":"55.48526000","longitude":"10.25540000","population":3319,"timezone":"Europe/Copenhagen","type":"city","translations":{"es":"Søndersø","en":"Søndersø"}},{"name":"Starup","state_code":"83","latitude":"55.24097000","longitude":"9.53503000","population":2091,"timezone":"Europe/Copenhagen","type":"city","translations":{"es":"Puesta en marcha","en":"Starup"}},{"name":"Stige","state_code":"83","latitude":"55.43941000","longitude":"10.40940000","population":2182,"timezone":"Europe/Copenhagen","type":"city","translations":{"es":"Stige","en":"Stige"}},{"name":"Strib","state_code":"83","latitude":"55.54021000","longitude":"9.76748000","population":4872,"timezone":"Europe/Copenhagen","type":"city","translations":{"es":"Strib","en":"Strib"}},{"name":"Svendborg","state_code":"83","latitude":"55.05982000","longitude":"10.60677000","population":27210,"timezone":"Europe/Copenhagen","type":"adm2","translations":{"es":"Svendborg","en":"Svendborg"}},{"name":"Svendborg Kommune","state_code":"83","latitude":"55.08410000","longitude":"10.61391000","population":null,"timezone":"Europe/Copenhagen","type":"adm2","translations":{"es":"Municipio de Svendborg","en":"Svendborg Kommune"}},{"name":"Taulov","state_code":"83","latitude":"55.54582000","longitude":"9.61553000","population":3402,"timezone":"Europe/Copenhagen","type":"city","translations":{"es":"Taulov","en":"Taulov"}},{"name":"Thurø By","state_code":"83","latitude":"55.04740000","longitude":"10.66385000","population":3350,"timezone":"Europe/Copenhagen","type":"city","translations":{"es":"Thurø Por","en":"Thurø By"}},{"name":"Tinglev","state_code":"83","latitude":"54.93788000","longitude":"9.25547000","population":2731,"timezone":"Europe/Copenhagen","type":"city","translations":{"es":"Tinglev","en":"Tinglev"}},{"name":"Tjæreborg","state_code":"83","latitude":"55.46457000","longitude":"8.57968000","population":2904,"timezone":"Europe/Copenhagen","type":"city","translations":{"es":"Tjæreborg","en":"Tjæreborg"}},{"name":"Toftlund","state_code":"83","latitude":"55.18858000","longitude":"9.06925000","population":3438,"timezone":"Europe/Copenhagen","type":"city","translations":{"es":"Toftlund","en":"Toftlund"}},{"name":"Tommerup","state_code":"83","latitude":"55.31952000","longitude":"10.20659000","population":1583,"timezone":"Europe/Copenhagen","type":"city","translations":{"es":"Mañana","en":"Tommerup"}},{"name":"Tommerup Stationsby","state_code":"83","latitude":"55.34535000","longitude":"10.17594000","population":2482,"timezone":"Europe/Copenhagen","type":"city","translations":{"es":"Estaciones de Tommerup","en":"Tommerup Stationsby"}},{"name":"Tønder","state_code":"83","latitude":"54.93306000","longitude":"8.86674000","population":16401,"timezone":"Europe/Copenhagen","type":"adm2","translations":{"es":"Tønder","en":"Tønder"}},{"name":"Tønder Kommune","state_code":"83","latitude":"55.07304000","longitude":"8.87214000","population":null,"timezone":"Europe/Copenhagen","type":"adm2","translations":{"es":"Municipio de Tønder","en":"Tønder Kommune"}},{"name":"Ullerslev","state_code":"83","latitude":"55.36172000","longitude":"10.65190000","population":2640,"timezone":"Europe/Copenhagen","type":"city","translations":{"es":"Ullerslev","en":"Ullerslev"}},{"name":"Vamdrup","state_code":"83","latitude":"55.42764000","longitude":"9.28435000","population":4809,"timezone":"Europe/Copenhagen","type":"city","translations":{"es":"Vamdrup","en":"Vamdrup"}},{"name":"Varde","state_code":"83","latitude":"55.62112000","longitude":"8.48069000","population":14039,"timezone":"Europe/Copenhagen","type":"adm2","translations":{"es":"Varde","en":"Varde"}},{"name":"Varde Kommune","state_code":"83","latitude":"55.61667000","longitude":"8.50000000","population":null,"timezone":"Europe/Copenhagen","type":"city","translations":{"es":"Comuna de Varde","en":"Varde Kommune"}},{"name":"Vejen","state_code":"83","latitude":"55.48117000","longitude":"9.13795000","population":8525,"timezone":"Europe/Copenhagen","type":"adm2","translations":{"es":"Vejen","en":"Vejen"}},{"name":"Vejen Kommune","state_code":"83","latitude":"55.46312000","longitude":"9.05004000","population":null,"timezone":"Europe/Copenhagen","type":"city","translations":{"es":"Vejen Kommune","en":"Vejen Kommune"}},{"name":"Vejle","state_code":"83","latitude":"55.70927000","longitude":"9.53570000","population":62011,"timezone":"Europe/Copenhagen","type":"adm1","translations":{"es":"Vejle","en":"Vejle"}},{"name":"Vejle Kommune","state_code":"83","latitude":"55.74874000","longitude":"9.40421000","population":null,"timezone":"Europe/Copenhagen","type":"city","translations":{"es":"Vejle Kommune","en":"Vejle Kommune"}},{"name":"Vester-Skerninge","state_code":"83","latitude":"55.07322000","longitude":"10.45536000","population":1315,"timezone":"Europe/Copenhagen","type":"city","translations":{"es":"Vester-Skerninge","en":"Vester-Skerninge"}},{"name":"Vindeby","state_code":"83","latitude":"55.04489000","longitude":"10.61309000","population":2339,"timezone":"Europe/Copenhagen","type":"city","translations":{"es":"Vindeby","en":"Vindeby"}},{"name":"Vissenbjerg","state_code":"83","latitude":"55.38482000","longitude":"10.13784000","population":3232,"timezone":"Europe/Copenhagen","type":"city","translations":{"es":"Vissenbjerg","en":"Vissenbjerg"}},{"name":"Vojens","state_code":"83","latitude":"55.24639000","longitude":"9.30603000","population":7504,"timezone":"Europe/Copenhagen","type":"city","translations":{"es":"Vojens","en":"Vojens"}},{"name":"Asnæs","state_code":"85","latitude":"55.81229000","longitude":"11.50129000","population":3100,"timezone":"Europe/Copenhagen","type":"city","translations":{"es":"Asnæs","en":"Asnæs"}},{"name":"Bjæverskov","state_code":"85","latitude":"55.45756000","longitude":"12.03651000","population":2988,"timezone":"Europe/Copenhagen","type":"city","translations":{"es":"Bjæverskov","en":"Bjæverskov"}},{"name":"Borup","state_code":"85","latitude":"55.49472000","longitude":"11.97584000","population":4728,"timezone":"Europe/Copenhagen","type":"city","translations":{"es":"Borup","en":"Borup"}},{"name":"Dianalund","state_code":"85","latitude":"55.53133000","longitude":"11.49250000","population":3605,"timezone":"Europe/Copenhagen","type":"city","translations":{"es":"Dianalund","en":"Dianalund"}},{"name":"Ejby","state_code":"85","latitude":"55.48580000","longitude":"12.08171000","population":3131,"timezone":"Europe/Copenhagen","type":"city","translations":{"es":"Ejby","en":"Ejby"}},{"name":"Faxe","state_code":"85","latitude":"55.25561000","longitude":"12.11926000","population":4246,"timezone":"Europe/Copenhagen","type":"city","translations":{"es":"Fax","en":"Faxe"}},{"name":"Faxe Kommune","state_code":"85","latitude":"55.29444000","longitude":"12.06111000","population":null,"timezone":"Europe/Copenhagen","type":"city","translations":{"es":"Faxe Kommune","en":"Faxe Kommune"}},{"name":"Faxe Ladeplads","state_code":"85","latitude":"55.21981000","longitude":"12.17013000","population":2884,"timezone":"Europe/Copenhagen","type":"city","translations":{"es":"Faxe Ladeplads","en":"Faxe Ladeplads"}},{"name":"Fensmark","state_code":"85","latitude":"55.27919000","longitude":"11.80382000","population":4203,"timezone":"Europe/Copenhagen","type":"city","translations":{"es":"Fensmark","en":"Fensmark"}},{"name":"Forlev","state_code":"85","latitude":"55.37445000","longitude":"11.25966000","population":2058,"timezone":"Europe/Copenhagen","type":"city","translations":{"es":"Forlev","en":"Forlev"}},{"name":"Frederiksberg","state_code":"85","latitude":"55.41618000","longitude":"11.56934000","population":3142,"timezone":"Europe/Copenhagen","type":"city","translations":{"es":"Frederiksberg","en":"Frederiksberg"}},{"name":"Fuglebjerg","state_code":"85","latitude":"55.30604000","longitude":"11.54766000","population":2268,"timezone":"Europe/Copenhagen","type":"city","translations":{"es":"Fuglebjerg","en":"Fuglebjerg"}},{"name":"Gørlev","state_code":"85","latitude":"55.53926000","longitude":"11.22708000","population":2397,"timezone":"Europe/Copenhagen","type":"city","translations":{"es":"Gørlev","en":"Gørlev"}},{"name":"Greve","state_code":"85","latitude":"55.58333000","longitude":"12.30000000","population":49518,"timezone":"Europe/Copenhagen","type":"adm2","translations":{"es":"Greve","en":"Greve"}},{"name":"Greve Kommune","state_code":"85","latitude":"55.58770000","longitude":"12.25060000","population":null,"timezone":"Europe/Copenhagen","type":"city","translations":{"es":"Greve Kommune","en":"Greve Kommune"}},{"name":"Guldborgsund Kommune","state_code":"85","latitude":"54.76944000","longitude":"11.83611000","population":null,"timezone":"Europe/Copenhagen","type":"city","translations":{"es":"Comuna de Guldborgsund","en":"Guldborgsund Kommune"}},{"name":"Gundsømagle","state_code":"85","latitude":"55.73565000","longitude":"12.15158000","population":2770,"timezone":"Europe/Copenhagen","type":"city","translations":{"es":"Gundsømagle","en":"Gundsømagle"}},{"name":"Hårlev","state_code":"85","latitude":"55.34936000","longitude":"12.23382000","population":2865,"timezone":"Europe/Copenhagen","type":"city","translations":{"es":"Hårlev","en":"Hårlev"}},{"name":"Haslev","state_code":"85","latitude":"55.32346000","longitude":"11.96389000","population":12119,"timezone":"Europe/Copenhagen","type":"adm2","translations":{"es":"Haslev","en":"Haslev"}},{"name":"Havdrup","state_code":"85","latitude":"55.54481000","longitude":"12.12392000","population":4365,"timezone":"Europe/Copenhagen","type":"city","translations":{"es":"Havdrup","en":"Havdrup"}},{"name":"Holbæk","state_code":"85","latitude":"55.71750000","longitude":"11.71279000","population":29608,"timezone":"Europe/Copenhagen","type":"adm2","translations":{"es":"Holbæk","en":"Holbæk"}},{"name":"Holbæk Kommune","state_code":"85","latitude":"55.65919000","longitude":"11.62049000","population":null,"timezone":"Europe/Copenhagen","type":"city","translations":{"es":"Comuna de Holbæk","en":"Holbæk Kommune"}},{"name":"Holeby","state_code":"85","latitude":"54.71148000","longitude":"11.46416000","population":1400,"timezone":"Europe/Copenhagen","type":"city","translations":{"es":"Holeby","en":"Holeby"}},{"name":"Høng","state_code":"85","latitude":"55.50736000","longitude":"11.28873000","population":4355,"timezone":"Europe/Copenhagen","type":"city","translations":{"es":"Hong","en":"Høng"}},{"name":"Hørve","state_code":"85","latitude":"55.75292000","longitude":"11.45298000","population":2382,"timezone":"Europe/Copenhagen","type":"city","translations":{"es":"Hora","en":"Hørve"}},{"name":"Jyderup","state_code":"85","latitude":"55.66399000","longitude":"11.42029000","population":4303,"timezone":"Europe/Copenhagen","type":"city","translations":{"es":"Jyderup","en":"Jyderup"}},{"name":"Jyllinge","state_code":"85","latitude":"55.75295000","longitude":"12.10315000","population":10134,"timezone":"Europe/Copenhagen","type":"city","translations":{"es":"Jyllinge","en":"Jyllinge"}},{"name":"Kalundborg","state_code":"85","latitude":"55.67954000","longitude":"11.08864000","population":16211,"timezone":"Europe/Copenhagen","type":"adm2","translations":{"es":"Kalundborg","en":"Kalundborg"}},{"name":"Kalundborg Kommune","state_code":"85","latitude":"55.63545000","longitude":"11.19993000","population":null,"timezone":"Europe/Copenhagen","type":"city","translations":{"es":"Municipio de Kalundborg","en":"Kalundborg Kommune"}},{"name":"Kirke Hvalsø","state_code":"85","latitude":"55.59170000","longitude":"11.86253000","population":4294,"timezone":"Europe/Copenhagen","type":"adm2","translations":{"es":"Iglesia de Hvalsø","en":"Kirke Hvalsø"}},{"name":"Korsør","state_code":"85","latitude":"55.32993000","longitude":"11.13857000","population":14463,"timezone":"Europe/Copenhagen","type":"city","translations":{"es":"Korsør","en":"Korsør"}},{"name":"Køge","state_code":"85","latitude":"55.45802000","longitude":"12.18214000","population":38588,"timezone":"Europe/Copenhagen","type":"adm2","translations":{"es":"Køge","en":"Køge"}},{"name":"Køge Kommune","state_code":"85","latitude":"55.45668000","longitude":"12.07332000","population":null,"timezone":"Europe/Copenhagen","type":"city","translations":{"es":"Municipio de Køge","en":"Køge Kommune"}},{"name":"Lejre","state_code":"85","latitude":"55.60461000","longitude":"11.97477000","population":3127,"timezone":"Europe/Copenhagen","type":"city","translations":{"es":"Lejre","en":"Lejre"}},{"name":"Lejre Kommune","state_code":"85","latitude":"55.63375000","longitude":"11.92234000","population":null,"timezone":"Europe/Copenhagen","type":"city","translations":{"es":"Lejre Kommune","en":"Lejre Kommune"}},{"name":"Lolland Kommune","state_code":"85","latitude":"54.80238000","longitude":"11.29524000","population":null,"timezone":"Europe/Copenhagen","type":"city","translations":{"es":"Comuna de Lolland","en":"Lolland Kommune"}},{"name":"Maribo","state_code":"85","latitude":"54.77662000","longitude":"11.50017000","population":5722,"timezone":"Europe/Copenhagen","type":"adm2","translations":{"es":"Maribo","en":"Maribo"}},{"name":"Nakskov","state_code":"85","latitude":"54.83038000","longitude":"11.13567000","population":12495,"timezone":"Europe/Copenhagen","type":"city","translations":{"es":"Nakskov","en":"Nakskov"}},{"name":"Næstved","state_code":"85","latitude":"55.22992000","longitude":"11.76092000","population":44996,"timezone":"Europe/Copenhagen","type":"adm2","translations":{"es":"Siguiente","en":"Næstved"}},{"name":"Næstved Kommune","state_code":"85","latitude":"55.25855000","longitude":"11.74615000","population":null,"timezone":"Europe/Copenhagen","type":"adm2","translations":{"es":"Næstved Kommune","en":"Næstved Kommune"}},{"name":"Neder Vindinge","state_code":"85","latitude":"55.03211000","longitude":"11.88356000","population":1900,"timezone":"Europe/Copenhagen","type":"city","translations":{"es":"Neder Vindinge","en":"Neder Vindinge"}},{"name":"Nørre Alslev","state_code":"85","latitude":"54.89784000","longitude":"11.88414000","population":2379,"timezone":"Europe/Copenhagen","type":"city","translations":{"es":"Norte de Alslev","en":"Nørre Alslev"}},{"name":"Nykøbing Falster","state_code":"85","latitude":"54.76906000","longitude":"11.87425000","population":16405,"timezone":"Europe/Copenhagen","type":"adm2","translations":{"es":"Nykøbing Falster","en":"Nykøbing Falster"}},{"name":"Nykøbing Sjælland","state_code":"85","latitude":"55.92491000","longitude":"11.67109000","population":5002,"timezone":"Europe/Copenhagen","type":"city","translations":{"es":"Nykøbing Sjælland","en":"Nykøbing Sjælland"}},{"name":"Nyråd","state_code":"85","latitude":"55.00511000","longitude":"11.96060000","population":2224,"timezone":"Europe/Copenhagen","type":"city","translations":{"es":"Nyråd","en":"Nyråd"}},{"name":"Odsherred Kommune","state_code":"85","latitude":"55.88333000","longitude":"11.59444000","population":null,"timezone":"Europe/Copenhagen","type":"city","translations":{"es":"Comuna de Odsherred","en":"Odsherred Kommune"}},{"name":"Osted","state_code":"85","latitude":"55.56228000","longitude":"11.95786000","population":2204,"timezone":"Europe/Copenhagen","type":"city","translations":{"es":"Osted","en":"Osted"}},{"name":"Ørslev","state_code":"85","latitude":"55.04356000","longitude":"11.96792000","population":1801,"timezone":"Europe/Copenhagen","type":"city","translations":{"es":"Ørslev","en":"Ørslev"}},{"name":"Præstø","state_code":"85","latitude":"55.12374000","longitude":"12.04477000","population":3857,"timezone":"Europe/Copenhagen","type":"city","translations":{"es":"Præstø","en":"Præstø"}},{"name":"Ringsted","state_code":"85","latitude":"55.44260000","longitude":"11.79011000","population":23086,"timezone":"Europe/Copenhagen","type":"adm2","translations":{"es":"Ringsted","en":"Ringsted"}},{"name":"Ringsted Kommune","state_code":"85","latitude":"55.44721000","longitude":"11.81720000","population":null,"timezone":"Europe/Copenhagen","type":"city","translations":{"es":"Municipio de Ringsted","en":"Ringsted Kommune"}},{"name":"Roskilde","state_code":"85","latitude":"55.64152000","longitude":"12.08035000","population":53354,"timezone":"Europe/Copenhagen","type":"adm2","translations":{"es":"Roskilde","en":"Roskilde"}},{"name":"Roskilde Kommune","state_code":"85","latitude":"55.65000000","longitude":"12.10000000","population":null,"timezone":"Europe/Copenhagen","type":"city","translations":{"es":"Comuna de Roskilde","en":"Roskilde Kommune"}},{"name":"Rødby","state_code":"85","latitude":"54.69495000","longitude":"11.38885000","population":2066,"timezone":"Europe/Copenhagen","type":"city","translations":{"es":"Rodby","en":"Rødby"}},{"name":"Rødbyhavn","state_code":"85","latitude":"54.65944000","longitude":"11.35504000","population":1544,"timezone":"Europe/Copenhagen","type":"city","translations":{"es":"Rødbyhavn","en":"Rødbyhavn"}},{"name":"Rødvig","state_code":"85","latitude":"55.25540000","longitude":"12.37936000","population":1783,"timezone":"Europe/Copenhagen","type":"city","translations":{"es":"Rødvig","en":"Rødvig"}},{"name":"Rønnede","state_code":"85","latitude":"55.25710000","longitude":"12.02125000","population":2746,"timezone":"Europe/Copenhagen","type":"city","translations":{"es":"Rønnede","en":"Rønnede"}},{"name":"Sakskøbing","state_code":"85","latitude":"54.79970000","longitude":"11.62599000","population":4595,"timezone":"Europe/Copenhagen","type":"city","translations":{"es":"Sakskøbing","en":"Sakskøbing"}},{"name":"Skælskør","state_code":"85","latitude":"55.25058000","longitude":"11.29352000","population":6472,"timezone":"Europe/Copenhagen","type":"city","translations":{"es":"Skælskør","en":"Skælskør"}},{"name":"Slagelse","state_code":"85","latitude":"55.40276000","longitude":"11.35459000","population":31896,"timezone":"Europe/Copenhagen","type":"adm2","translations":{"es":"Slagelse","en":"Slagelse"}},{"name":"Slagelse Kommune","state_code":"85","latitude":"55.34546000","longitude":"11.33390000","population":null,"timezone":"Europe/Copenhagen","type":"city","translations":{"es":"Municipio de Slagelse","en":"Slagelse Kommune"}},{"name":"Solrød","state_code":"85","latitude":"55.53628000","longitude":"12.18270000","population":2000,"timezone":"Europe/Copenhagen","type":"adm2","translations":{"es":"Solrød","en":"Solrød"}},{"name":"Solrød Kommune","state_code":"85","latitude":"55.53553000","longitude":"12.17337000","population":null,"timezone":"Europe/Copenhagen","type":"adm2","translations":{"es":"Municipio de Solrød","en":"Solrød Kommune"}},{"name":"Solrød Strand","state_code":"85","latitude":"55.53285000","longitude":"12.22227000","population":17337,"timezone":"Europe/Copenhagen","type":"section","translations":{"es":"Playa de Solrød","en":"Solrød Strand"}},{"name":"Sorø","state_code":"85","latitude":"55.43184000","longitude":"11.55547000","population":7999,"timezone":"Europe/Copenhagen","type":"adm1","translations":{"es":"Sorø","en":"Sorø"}},{"name":"Sorø Kommune","state_code":"85","latitude":"55.48268000","longitude":"11.55693000","population":7999,"timezone":"Europe/Copenhagen","type":"adm1","translations":{"es":"Municipio de Sorø","en":"Sorø Kommune"}},{"name":"Stege","state_code":"85","latitude":"54.98704000","longitude":"12.28461000","population":3792,"timezone":"Europe/Copenhagen","type":"city","translations":{"es":"Stege","en":"Stege"}},{"name":"Stenlille","state_code":"85","latitude":"55.53888000","longitude":"11.59120000","population":1905,"timezone":"Europe/Copenhagen","type":"city","translations":{"es":"Stenlille","en":"Stenlille"}},{"name":"Stevns Kommune","state_code":"85","latitude":"55.33373000","longitude":"12.30692000","population":null,"timezone":"Europe/Copenhagen","type":"city","translations":{"es":"Comuna de Stevns","en":"Stevns Kommune"}},{"name":"Store Heddinge","state_code":"85","latitude":"55.30965000","longitude":"12.38885000","population":3668,"timezone":"Europe/Copenhagen","type":"adm2","translations":{"es":"Tienda Heddinge","en":"Store Heddinge"}},{"name":"Strøby Egede","state_code":"85","latitude":"55.41382000","longitude":"12.24502000","population":2700,"timezone":"Europe/Copenhagen","type":"city","translations":{"es":"Strøby Egede","en":"Strøby Egede"}},{"name":"Stubbekøbing","state_code":"85","latitude":"54.88875000","longitude":"12.04102000","population":2268,"timezone":"Europe/Copenhagen","type":"city","translations":{"es":"Stubbekøbing","en":"Stubbekøbing"}},{"name":"Sundby","state_code":"85","latitude":"54.76711000","longitude":"11.84979000","population":3065,"timezone":"Europe/Copenhagen","type":"city","translations":{"es":"Sundby","en":"Sundby"}},{"name":"Svebølle","state_code":"85","latitude":"55.65183000","longitude":"11.28658000","population":2186,"timezone":"Europe/Copenhagen","type":"city","translations":{"es":"Svebølle","en":"Svebølle"}},{"name":"Svinninge","state_code":"85","latitude":"55.72111000","longitude":"11.46547000","population":2376,"timezone":"Europe/Copenhagen","type":"city","translations":{"es":"Svinninge","en":"Svinninge"}},{"name":"Svogerslev","state_code":"85","latitude":"55.63423000","longitude":"12.01465000","population":4267,"timezone":"Europe/Copenhagen","type":"city","translations":{"es":"Svogerslev","en":"Svogerslev"}},{"name":"Tølløse","state_code":"85","latitude":"55.61250000","longitude":"11.77034000","population":3759,"timezone":"Europe/Copenhagen","type":"city","translations":{"es":"Tølløse","en":"Tølløse"}},{"name":"Tune","state_code":"85","latitude":"55.59287000","longitude":"12.16968000","population":5300,"timezone":"Europe/Copenhagen","type":"city","translations":{"es":"Melodía","en":"Tune"}},{"name":"Viby","state_code":"85","latitude":"55.54872000","longitude":"12.02391000","population":4773,"timezone":"Europe/Copenhagen","type":"city","translations":{"es":"Viby","en":"Viby"}},{"name":"Vindinge","state_code":"85","latitude":"55.62298000","longitude":"12.13870000","population":3059,"timezone":"Europe/Copenhagen","type":"city","translations":{"es":"Vindinge","en":"Vindinge"}},{"name":"Vipperød","state_code":"85","latitude":"55.66768000","longitude":"11.73967000","population":2345,"timezone":"Europe/Copenhagen","type":"city","translations":{"es":"Vipperød","en":"Vipperød"}},{"name":"Vordingborg","state_code":"85","latitude":"55.00801000","longitude":"11.91057000","population":17868,"timezone":"Europe/Copenhagen","type":"adm2","translations":{"es":"Vordingborg","en":"Vordingborg"}},{"name":"Vordingborg Kommune","state_code":"85","latitude":"55.01383000","longitude":"12.10008000","population":null,"timezone":"Europe/Copenhagen","type":"city","translations":{"es":"Comuna de Vordingborg","en":"Vordingborg Kommune"}}]