[{"name":"Azua","state_code":"02","latitude":"18.45319000","longitude":"-70.73490000","population":59139,"timezone":"America/Santo_Domingo","type":"adm1","translations":{"es":"Azua","en":"Azua"}},{"name":"El Guayabal","state_code":"02","latitude":"18.74960000","longitude":"-70.83690000","population":2835,"timezone":"America/Santo_Domingo","type":"city","translations":{"es":"El Guayabal","en":"El Guayabal"}},{"name":"Estebanía","state_code":"02","latitude":"18.45770000","longitude":"-70.64350000","population":5640,"timezone":"America/Santo_Domingo","type":"city","translations":{"es":"Estebanía","en":"Estebanía"}},{"name":"Las Charcas","state_code":"02","latitude":"18.45026000","longitude":"-70.61724000","population":4720,"timezone":"America/Santo_Domingo","type":"city","translations":{"es":"Las Charcas","en":"Las Charcas"}},{"name":"Padre Las Casas","state_code":"02","latitude":"18.75000000","longitude":"-70.88333000","population":20041,"timezone":"America/Santo_Domingo","type":"city","translations":{"es":"Padre Las Casas","en":"Padre Las Casas"}},{"name":"Palmar de Ocoa","state_code":"02","latitude":"18.29656000","longitude":"-70.58635000","population":1997,"timezone":"America/Santo_Domingo","type":"city","translations":{"es":"Palmar de Ocoa","en":"Palmar de Ocoa"}},{"name":"Peralta","state_code":"02","latitude":"18.58164000","longitude":"-70.77029000","population":7236,"timezone":"America/Santo_Domingo","type":"city","translations":{"es":"Peralta","en":"Peralta"}},{"name":"Pueblo Viejo","state_code":"02","latitude":"18.40000000","longitude":"-70.76765000","population":4192,"timezone":"America/Santo_Domingo","type":"city","translations":{"es":"Pueblo Viejo","en":"Pueblo Viejo"}},{"name":"Sabana Yegua","state_code":"02","latitude":"18.71667000","longitude":"-71.01667000","population":11235,"timezone":"America/Santo_Domingo","type":"city","translations":{"es":"Sabana Yegua","en":"Sabana Yegua"}},{"name":"Tábara Arriba","state_code":"02","latitude":"18.56999000","longitude":"-70.87978000","population":3736,"timezone":"America/Santo_Domingo","type":"city","translations":{"es":"Tábara Arriba","en":"Tábara Arriba"}},{"name":"Villarpando","state_code":"02","latitude":"18.65860000","longitude":"-71.03916000","population":3016,"timezone":"America/Santo_Domingo","type":"city","translations":{"es":"Villarpando","en":"Villarpando"}},{"name":"Yayas de Viajama","state_code":"02","latitude":"18.60710000","longitude":"-70.92753000","population":5669,"timezone":"America/Santo_Domingo","type":"city","translations":{"es":"Yayas de Viajama","en":"Yayas de Viajama"}},{"name":"El Palmar","state_code":"03","latitude":"18.41139000","longitude":"-71.24558000","population":2445,"timezone":"America/Santo_Domingo","type":"city","translations":{"es":"El Palmar","en":"El Palmar"}},{"name":"Galván","state_code":"03","latitude":"18.50228000","longitude":"-71.34271000","population":6027,"timezone":"America/Santo_Domingo","type":"city","translations":{"es":"Galván","en":"Galván"}},{"name":"La Uvilla","state_code":"03","latitude":"18.36186000","longitude":"-71.21046000","population":2178,"timezone":"America/Santo_Domingo","type":"city","translations":{"es":"La Uvilla","en":"La Uvilla"}},{"name":"Los Ríos","state_code":"03","latitude":"18.52131000","longitude":"-71.59106000","population":4440,"timezone":"America/Santo_Domingo","type":"city","translations":{"es":"Los Ríos","en":"Los Ríos"}},{"name":"Neiba","state_code":"03","latitude":"18.48137000","longitude":"-71.41965000","population":18670,"timezone":"America/Santo_Domingo","type":"adm1","translations":{"es":"Neiba","en":"Neiba"}},{"name":"Tamayo","state_code":"03","latitude":"18.50000000","longitude":"-71.16667000","population":6429,"timezone":"America/Santo_Domingo","type":"city","translations":{"es":"Tamayo","en":"Tamayo"}},{"name":"Villa Jaragua","state_code":"03","latitude":"18.49077000","longitude":"-71.48377000","population":9248,"timezone":"America/Santo_Domingo","type":"city","translations":{"es":"Villa Jaragua","en":"Villa Jaragua"}},{"name":"Cabral","state_code":"04","latitude":"18.19991000","longitude":"-71.24660000","population":14823,"timezone":"America/Santo_Domingo","type":"city","translations":{"es":"Cabral","en":"Cabral"}},{"name":"Cachón","state_code":"04","latitude":"18.24833000","longitude":"-71.18912000","population":1903,"timezone":"America/Santo_Domingo","type":"city","translations":{"es":"Cachón","en":"Cachón"}},{"name":"Canoa","state_code":"04","latitude":"18.35499000","longitude":"-71.15851000","population":2371,"timezone":"America/Santo_Domingo","type":"city","translations":{"es":"Canoa","en":"Canoa"}},{"name":"El Peñón","state_code":"04","latitude":"18.29643000","longitude":"-71.18410000","population":3970,"timezone":"America/Santo_Domingo","type":"city","translations":{"es":"El Peñón","en":"El Peñón"}},{"name":"Enriquillo","state_code":"04","latitude":"17.91667000","longitude":"-71.25000000","population":12523,"timezone":"America/Santo_Domingo","type":"city","translations":{"es":"Enriquillo","en":"Enriquillo"}},{"name":"Fundación","state_code":"04","latitude":"18.28668000","longitude":"-71.18147000","population":2511,"timezone":"America/Santo_Domingo","type":"adm2","translations":{"es":"Fundación","en":"Fundación"}},{"name":"Jaquimeyes","state_code":"04","latitude":"18.31173000","longitude":"-71.16145000","population":3038,"timezone":"America/Santo_Domingo","type":"city","translations":{"es":"Jaquimeyes","en":"Jaquimeyes"}},{"name":"La Ciénaga","state_code":"04","latitude":"18.06858000","longitude":"-71.10651000","population":2875,"timezone":"America/Santo_Domingo","type":"city","translations":{"es":"La Ciénaga","en":"La Ciénaga"}},{"name":"Las Salinas","state_code":"04","latitude":"18.27485000","longitude":"-71.31596000","population":4703,"timezone":"America/Santo_Domingo","type":"city","translations":{"es":"Las Salinas","en":"Las Salinas"}},{"name":"Paraíso","state_code":"04","latitude":"18.02652000","longitude":"-71.20889000","population":15390,"timezone":"America/Santo_Domingo","type":"city","translations":{"es":"Paraíso","en":"Paraíso"}},{"name":"Pescadería","state_code":"04","latitude":"18.26766000","longitude":"-71.16612000","population":2116,"timezone":"America/Santo_Domingo","type":"city","translations":{"es":"Pescadería","en":"Pescadería"}},{"name":"Polo","state_code":"04","latitude":"18.07873000","longitude":"-71.28723000","population":2121,"timezone":"America/Santo_Domingo","type":"city","translations":{"es":"Polo","en":"Polo"}},{"name":"Santa Cruz de Barahona","state_code":"04","latitude":"18.20854000","longitude":"-71.10077000","population":77160,"timezone":"America/Santo_Domingo","type":"adm1","translations":{"es":"Santa Cruz de Barahona","en":"Santa Cruz de Barahona"}},{"name":"Vicente Noble","state_code":"04","latitude":"18.38443000","longitude":"-71.18009000","population":11060,"timezone":"America/Santo_Domingo","type":"city","translations":{"es":"Vicente Noble","en":"Vicente Noble"}},{"name":"Dajabón","state_code":"05","latitude":"19.54878000","longitude":"-71.70829000","population":16398,"timezone":"America/Santo_Domingo","type":"adm1","translations":{"es":"Dajabón","en":"Dajabón"}},{"name":"El Pino","state_code":"05","latitude":"19.43537000","longitude":"-71.47540000","population":1529,"timezone":"America/Santo_Domingo","type":"city","translations":{"es":"El Pino","en":"El Pino"}},{"name":"Loma de Cabrera","state_code":"05","latitude":"19.41667000","longitude":"-71.58333000","population":15624,"timezone":"America/Santo_Domingo","type":"city","translations":{"es":"Loma de Cabrera","en":"Loma de Cabrera"}},{"name":"Partido","state_code":"05","latitude":"19.48403000","longitude":"-71.54730000","population":2170,"timezone":"America/Santo_Domingo","type":"city","translations":{"es":"Partido","en":"Partido"}},{"name":"Restauración","state_code":"05","latitude":"19.31532000","longitude":"-71.69239000","population":2031,"timezone":"America/Santo_Domingo","type":"city","translations":{"es":"Restauración","en":"Restauración"}},{"name":"Bella Vista","state_code":"01","latitude":"18.45539000","longitude":"-69.94540000","population":175683,"timezone":"America/Santo_Domingo","type":"section","translations":{"es":"Bella Vista","en":"Bella Vista"}},{"name":"Ciudad Nueva","state_code":"01","latitude":"18.46707000","longitude":"-69.89339000","population":18756,"timezone":"America/Santo_Domingo","type":"section","translations":{"es":"Ciudad Nueva","en":"Ciudad Nueva"}},{"name":"Cristo Rey","state_code":"01","latitude":"18.50168720","longitude":"-69.92613430","population":57084,"timezone":"America/Santo_Domingo","type":"section","translations":{"es":"Cristo Rey","en":"Cristo Rey"}},{"name":"Ensanche Luperón","state_code":"01","latitude":"18.50000000","longitude":"-69.90000000","population":8576,"timezone":"America/Santo_Domingo","type":"section","translations":{"es":"Ensanche Luperón","en":"Ensanche Luperón"}},{"name":"La Agustina","state_code":"01","latitude":"18.49202970","longitude":"-69.93251000","population":10457,"timezone":"America/Santo_Domingo","type":"section","translations":{"es":"La Agustina","en":"La Agustina"}},{"name":"La Julia","state_code":"01","latitude":"18.46667000","longitude":"-69.93333000","population":12575,"timezone":"America/Santo_Domingo","type":"city","translations":{"es":"La Julia","en":"La Julia"}},{"name":"San Carlos","state_code":"01","latitude":"18.47873240","longitude":"-69.89495630","population":13456,"timezone":"America/Santo_Domingo","type":"section","translations":{"es":"San Carlos","en":"San Carlos"}},{"name":"Santo Domingo","state_code":"01","latitude":"18.47186000","longitude":"-69.89232000","population":2201941,"timezone":"America/Santo_Domingo","type":"capital","translations":{"es":"Santo Domingo","en":"Santo Domingo"}},{"name":"Villa Consuelo","state_code":"01","latitude":"18.48425830","longitude":"-69.89988700","population":28621,"timezone":"America/Santo_Domingo","type":"section","translations":{"es":"Villa Consuelo","en":"Villa Consuelo"}},{"name":"Villa Francisca","state_code":"01","latitude":"18.48278000","longitude":"-69.88914000","population":50185,"timezone":"America/Santo_Domingo","type":"section","translations":{"es":"Villa Francisca","en":"Villa Francisca"}},{"name":"Agua Santa del Yuna","state_code":"06","latitude":"19.15072000","longitude":"-69.80069000","population":1830,"timezone":"America/Santo_Domingo","type":"city","translations":{"es":"Agua Santa del Yuna","en":"Agua Santa del Yuna"}},{"name":"Arenoso","state_code":"06","latitude":"19.18732000","longitude":"-69.85917000","population":2897,"timezone":"America/Santo_Domingo","type":"city","translations":{"es":"Arenoso","en":"Arenoso"}},{"name":"Castillo","state_code":"06","latitude":"19.25000000","longitude":"-70.00000000","population":15709,"timezone":"America/Santo_Domingo","type":"city","translations":{"es":"Castillo","en":"Castillo"}},{"name":"Hostos","state_code":"06","latitude":"19.18043000","longitude":"-70.02046000","population":1813,"timezone":"America/Santo_Domingo","type":"city","translations":{"es":"Hostos","en":"Hostos"}},{"name":"Las Guáranas","state_code":"06","latitude":"19.19310000","longitude":"-70.20835000","population":9586,"timezone":"America/Santo_Domingo","type":"city","translations":{"es":"Las Guaranas","en":"Las Guáranas"}},{"name":"Pimentel","state_code":"06","latitude":"19.21667000","longitude":"-70.16667000","population":17864,"timezone":"America/Santo_Domingo","type":"city","translations":{"es":"Pimentel","en":"Pimentel"}},{"name":"San Francisco de Macorís","state_code":"06","latitude":"19.30099000","longitude":"-70.25259000","population":124763,"timezone":"America/Santo_Domingo","type":"adm1","translations":{"es":"San Francisco de Macorís","en":"San Francisco de Macorís"}},{"name":"Villa Riva","state_code":"06","latitude":"19.15051000","longitude":"-69.88370000","population":33663,"timezone":"America/Santo_Domingo","type":"city","translations":{"es":"Villa Riva","en":"Villa Riva"}},{"name":"Miches","state_code":"08","latitude":"18.98364000","longitude":"-69.04760000","population":9273,"timezone":"America/Santo_Domingo","type":"city","translations":{"es":"Miches","en":"Miches"}},{"name":"Pedro Sánchez","state_code":"08","latitude":"18.86375000","longitude":"-69.10868000","population":1621,"timezone":"America/Santo_Domingo","type":"city","translations":{"es":"Pedro Sánchez","en":"Pedro Sánchez"}},{"name":"Santa Cruz de El Seibo","state_code":"08","latitude":"18.76559000","longitude":"-69.03886000","population":23547,"timezone":"America/Santo_Domingo","type":"adm1","translations":{"es":"Santa Cruz de El Seibo","en":"Santa Cruz de El Seibo"}},{"name":"Cayetano Germosén","state_code":"09","latitude":"19.34285000","longitude":"-70.47573000","population":6911,"timezone":"America/Santo_Domingo","type":"city","translations":{"es":"Cayetano Germosén","en":"Cayetano Germosén"}},{"name":"Gaspar Hernández","state_code":"09","latitude":"19.62748000","longitude":"-70.27772000","population":6506,"timezone":"America/Santo_Domingo","type":"city","translations":{"es":"Gaspar Hernández","en":"Gaspar Hernández"}},{"name":"Jamao al Norte","state_code":"09","latitude":"19.63552000","longitude":"-70.44664000","population":2216,"timezone":"America/Santo_Domingo","type":"city","translations":{"es":"Jamao al Norte","en":"Jamao al Norte"}},{"name":"Joba Arriba","state_code":"09","latitude":"19.56667000","longitude":"-70.26667000","population":1471,"timezone":"America/Santo_Domingo","type":"city","translations":{"es":"Joba Arriba","en":"Joba Arriba"}},{"name":"Juan López Abajo","state_code":"09","latitude":"19.43333000","longitude":"-70.50000000","population":1535,"timezone":"America/Santo_Domingo","type":"city","translations":{"es":"Juan López Abajo","en":"Juan López Abajo"}},{"name":"Moca","state_code":"09","latitude":"19.50000000","longitude":"-70.50000000","population":1535,"timezone":"America/Santo_Domingo","type":"city","translations":{"es":"Moca","en":"Moca"}},{"name":"San Víctor Arriba","state_code":"09","latitude":"19.47741000","longitude":"-70.53585000","population":5624,"timezone":"America/Santo_Domingo","type":"city","translations":{"es":"San Víctor Arriba","en":"San Víctor Arriba"}},{"name":"Veragua Arriba","state_code":"09","latitude":"19.58333000","longitude":"-70.33333000","population":5858,"timezone":"America/Santo_Domingo","type":"city","translations":{"es":"Veragua Arriba","en":"Veragua Arriba"}},{"name":"El Valle","state_code":"30","latitude":"18.93333000","longitude":"-69.38333000","population":7228,"timezone":"America/Santo_Domingo","type":"city","translations":{"es":"El Valle","en":"El Valle"}},{"name":"Guayabo Dulce","state_code":"30","latitude":"18.65000000","longitude":"-69.28333000","population":3897,"timezone":"America/Santo_Domingo","type":"city","translations":{"es":"Guayabo Dulce","en":"Guayabo Dulce"}},{"name":"Hato Mayor del Rey","state_code":"30","latitude":"18.76278000","longitude":"-69.25681000","population":35999,"timezone":"America/Santo_Domingo","type":"adm1","translations":{"es":"Hato Mayor del Rey","en":"Hato Mayor del Rey"}},{"name":"Sabana de la Mar","state_code":"30","latitude":"19.03333000","longitude":"-69.41667000","population":16272,"timezone":"America/Santo_Domingo","type":"city","translations":{"es":"Sabana de la Mar","en":"Sabana de la Mar"}},{"name":"Salcedo","state_code":"19","latitude":"19.41667000","longitude":"-70.38333000","population":39557,"timezone":"America/Santo_Domingo","type":"adm1","translations":{"es":"Salcedo","en":"Salcedo"}},{"name":"Salsipuedes","state_code":"19","latitude":"19.40552000","longitude":"-70.37985000","population":11675,"timezone":"America/Santo_Domingo","type":"city","translations":{"es":"Salsipuedes","en":"Salsipuedes"}},{"name":"Tenares","state_code":"19","latitude":"19.37439000","longitude":"-70.35087000","population":7390,"timezone":"America/Santo_Domingo","type":"city","translations":{"es":"Tenares","en":"Tenares"}},{"name":"Villa Tapia","state_code":"19","latitude":"19.30084000","longitude":"-70.42199000","population":3113,"timezone":"America/Santo_Domingo","type":"city","translations":{"es":"Villa Tapia","en":"Villa Tapia"}},{"name":"Cristóbal","state_code":"10","latitude":"18.29405000","longitude":"-71.29298000","population":2735,"timezone":"America/Santo_Domingo","type":"city","translations":{"es":"Cristóbal","en":"Cristóbal"}},{"name":"Duvergé","state_code":"10","latitude":"18.31634000","longitude":"-71.59451000","population":12029,"timezone":"America/Santo_Domingo","type":"city","translations":{"es":"Duvergé","en":"Duvergé"}},{"name":"Guayabal","state_code":"10","latitude":"18.59810000","longitude":"-71.64184000","population":1504,"timezone":"America/Santo_Domingo","type":"city","translations":{"es":"Guayabal","en":"Guayabal"}},{"name":"Jimaní","state_code":"10","latitude":"18.49169000","longitude":"-71.85022000","population":6567,"timezone":"America/Santo_Domingo","type":"adm1","translations":{"es":"Jimaní","en":"Jimaní"}},{"name":"La Descubierta","state_code":"10","latitude":"18.57053000","longitude":"-71.72967000","population":5521,"timezone":"America/Santo_Domingo","type":"city","translations":{"es":"La Descubierta","en":"La Descubierta"}},{"name":"Mella","state_code":"10","latitude":"18.35871000","longitude":"-71.41716000","population":2024,"timezone":"America/Santo_Domingo","type":"city","translations":{"es":"Mella","en":"Mella"}},{"name":"Postrer Río","state_code":"10","latitude":"18.54374000","longitude":"-71.63561000","population":3078,"timezone":"America/Santo_Domingo","type":"city","translations":{"es":"Postrer Río","en":"Postrer Río"}},{"name":"Boca de Yuma","state_code":"11","latitude":"18.37825000","longitude":"-68.60900000","population":1991,"timezone":"America/Santo_Domingo","type":"city","translations":{"es":"Boca de Yuma","en":"Boca de Yuma"}},{"name":"Higüey","state_code":"11","latitude":"18.70000000","longitude":"-68.66667000","population":6071,"timezone":"America/Santo_Domingo","type":"city","translations":{"es":"Higüey","en":"Higüey"}},{"name":"Otra Banda","state_code":"11","latitude":"18.65017000","longitude":"-68.66281000","population":6071,"timezone":"America/Santo_Domingo","type":"city","translations":{"es":"Otra Banda","en":"Otra Banda"}},{"name":"Punta Cana","state_code":"11","latitude":"18.58182000","longitude":"-68.40431000","population":100023,"timezone":"America/Santo_Domingo","type":"city","translations":{"es":"Punta Cana","en":"Punta Cana"}},{"name":"Salvaleón de Higüey","state_code":"11","latitude":"18.61501000","longitude":"-68.70798000","population":123787,"timezone":"America/Santo_Domingo","type":"adm1","translations":{"es":"Salvaleón de Higüey","en":"Salvaleón de Higüey"}},{"name":"San Rafael del Yuma","state_code":"11","latitude":"18.42993000","longitude":"-68.67390000","population":5285,"timezone":"America/Santo_Domingo","type":"city","translations":{"es":"San Rafael del Yuma","en":"San Rafael del Yuma"}},{"name":"Guaymate","state_code":"12","latitude":"18.58793000","longitude":"-68.97867000","population":6224,"timezone":"America/Santo_Domingo","type":"city","translations":{"es":"Guaymate","en":"Guaymate"}},{"name":"La Romana","state_code":"12","latitude":"18.42733000","longitude":"-68.97285000","population":139238,"timezone":"America/Santo_Domingo","type":"adm1","translations":{"es":"La Romana","en":"La Romana"}},{"name":"Concepción de La Vega","state_code":"13","latitude":"19.22207000","longitude":"-70.52956000","population":102426,"timezone":"America/Santo_Domingo","type":"adm1","translations":{"es":"Concepción de La Vega","en":"Concepción de La Vega"}},{"name":"Constanza","state_code":"13","latitude":"18.90919000","longitude":"-70.74499000","population":29481,"timezone":"America/Santo_Domingo","type":"city","translations":{"es":"Constanza","en":"Constanza"}},{"name":"Jarabacoa","state_code":"13","latitude":"19.11683000","longitude":"-70.63595000","population":29983,"timezone":"America/Santo_Domingo","type":"city","translations":{"es":"Jarabacoa","en":"Jarabacoa"}},{"name":"Jima Abajo","state_code":"13","latitude":"19.13292000","longitude":"-70.37607000","population":6299,"timezone":"America/Santo_Domingo","type":"city","translations":{"es":"Jima Abajo","en":"Jima Abajo"}},{"name":"Rincón","state_code":"13","latitude":"19.11938000","longitude":"-70.40632000","population":5909,"timezone":"America/Santo_Domingo","type":"city","translations":{"es":"Rincón","en":"Rincón"}},{"name":"Río Verde Arriba","state_code":"13","latitude":"19.31583000","longitude":"-70.56643000","population":3613,"timezone":"America/Santo_Domingo","type":"city","translations":{"es":"Río Verde Arriba","en":"Río Verde Arriba"}},{"name":"Tireo Arriba","state_code":"13","latitude":"18.93537000","longitude":"-70.68850000","population":3816,"timezone":"America/Santo_Domingo","type":"city","translations":{"es":"Tireo Arriba","en":"Tireo Arriba"}},{"name":"Arroyo Salado","state_code":"14","latitude":"19.50000000","longitude":"-69.90000000","population":1990,"timezone":"America/Santo_Domingo","type":"city","translations":{"es":"Arroyo Salado","en":"Arroyo Salado"}},{"name":"Cabrera","state_code":"14","latitude":"19.64260000","longitude":"-69.90489000","population":4947,"timezone":"America/Santo_Domingo","type":"city","translations":{"es":"Cabrera","en":"Cabrera"}},{"name":"El Factor","state_code":"14","latitude":"19.31834000","longitude":"-69.88827000","population":7014,"timezone":"America/Santo_Domingo","type":"city","translations":{"es":"El Factor","en":"El Factor"}},{"name":"La Entrada","state_code":"14","latitude":"19.55367000","longitude":"-69.90762000","population":1112,"timezone":"America/Santo_Domingo","type":"city","translations":{"es":"La Entrada","en":"La Entrada"}},{"name":"Nagua","state_code":"14","latitude":"19.38320000","longitude":"-69.84740000","population":33862,"timezone":"America/Santo_Domingo","type":"adm1","translations":{"es":"Nagua","en":"Nagua"}},{"name":"Río San Juan","state_code":"14","latitude":"19.55022000","longitude":"-70.07703000","population":15168,"timezone":"America/Santo_Domingo","type":"city","translations":{"es":"Río San Juan","en":"Río San Juan"}},{"name":"Bonao","state_code":"28","latitude":"18.91667000","longitude":"-70.46667000","population":158034,"timezone":"America/Santo_Domingo","type":"city","translations":{"es":"Bonao","en":"Bonao"}},{"name":"Juan Adrián","state_code":"28","latitude":"18.76365000","longitude":"-70.33732000","population":1371,"timezone":"America/Santo_Domingo","type":"city","translations":{"es":"Juan Adrián","en":"Juan Adrián"}},{"name":"Maimón","state_code":"28","latitude":"18.88333000","longitude":"-70.30000000","population":23885,"timezone":"America/Santo_Domingo","type":"city","translations":{"es":"Maimón","en":"Maimón"}},{"name":"Piedra Blanca","state_code":"28","latitude":"18.84431000","longitude":"-70.31688000","population":8531,"timezone":"America/Santo_Domingo","type":"city","translations":{"es":"Piedra Blanca","en":"Piedra Blanca"}},{"name":"Sabana del Puerto","state_code":"28","latitude":"19.06667000","longitude":"-70.41667000","population":1223,"timezone":"America/Santo_Domingo","type":"city","translations":{"es":"Sabana del Puerto","en":"Sabana del Puerto"}},{"name":"Cana Chapetón","state_code":"15","latitude":"19.60703000","longitude":"-71.25734000","population":1758,"timezone":"America/Santo_Domingo","type":"city","translations":{"es":"Cana Chapetón","en":"Cana Chapetón"}},{"name":"Castañuelas","state_code":"15","latitude":"19.71387000","longitude":"-71.49876000","population":4209,"timezone":"America/Santo_Domingo","type":"city","translations":{"es":"Castañuelas","en":"Castañuelas"}},{"name":"Guayubín","state_code":"15","latitude":"19.61667000","longitude":"-71.33333000","population":35923,"timezone":"America/Santo_Domingo","type":"city","translations":{"es":"Guayubín","en":"Guayubín"}},{"name":"Hatillo Palma","state_code":"15","latitude":"19.66256000","longitude":"-71.19406000","population":3574,"timezone":"America/Santo_Domingo","type":"city","translations":{"es":"Hatillo Palma","en":"Hatillo Palma"}},{"name":"Las Matas de Santa Cruz","state_code":"15","latitude":"19.67119000","longitude":"-71.50471000","population":11114,"timezone":"America/Santo_Domingo","type":"city","translations":{"es":"Las Matas de Santa Cruz","en":"Las Matas de Santa Cruz"}},{"name":"Monte Cristi","state_code":"15","latitude":"19.83333000","longitude":"-71.61667000","population":24674,"timezone":"America/Santo_Domingo","type":"city","translations":{"es":"Monte Cristi","en":"Monte Cristi"}},{"name":"Pepillo Salcedo","state_code":"15","latitude":"19.66667000","longitude":"-71.66667000","population":9136,"timezone":"America/Santo_Domingo","type":"city","translations":{"es":"Pepillo Salcedo","en":"Pepillo Salcedo"}},{"name":"San Fernando de Monte Cristi","state_code":"15","latitude":"19.84826000","longitude":"-71.64597000","population":17001,"timezone":"America/Santo_Domingo","type":"adm1","translations":{"es":"San Fernando de Monte Cristi","en":"San Fernando de Monte Cristi"}},{"name":"Villa Elisa","state_code":"15","latitude":"19.68560000","longitude":"-71.27007000","population":1143,"timezone":"America/Santo_Domingo","type":"city","translations":{"es":"Villa Elisa","en":"Villa Elisa"}},{"name":"Villa Vásquez","state_code":"15","latitude":"19.80791000","longitude":"-71.44000000","population":14424,"timezone":"America/Santo_Domingo","type":"city","translations":{"es":"Villa Vásquez","en":"Villa Vásquez"}},{"name":"Bayaguana","state_code":"29","latitude":"18.78333000","longitude":"-69.60000000","population":31889,"timezone":"America/Santo_Domingo","type":"city","translations":{"es":"Bayaguana","en":"Bayaguana"}},{"name":"Don Juan","state_code":"29","latitude":"18.82774000","longitude":"-69.94629000","population":2396,"timezone":"America/Santo_Domingo","type":"city","translations":{"es":"Don Juan","en":"Don Juan"}},{"name":"Esperalvillo","state_code":"29","latitude":"18.81509000","longitude":"-70.03557000","population":5445,"timezone":"America/Santo_Domingo","type":"city","translations":{"es":"Esperalvillo","en":"Esperalvillo"}},{"name":"Gonzalo","state_code":"29","latitude":"18.95147000","longitude":"-69.75114000","population":2027,"timezone":"America/Santo_Domingo","type":"city","translations":{"es":"Gonzalo","en":"Gonzalo"}},{"name":"Los Botados","state_code":"29","latitude":"18.73226000","longitude":"-69.99536000","population":4054,"timezone":"America/Santo_Domingo","type":"city","translations":{"es":"Los Botados","en":"Los Botados"}},{"name":"Majagual","state_code":"29","latitude":"19.04134000","longitude":"-69.83616000","population":1430,"timezone":"America/Santo_Domingo","type":"city","translations":{"es":"Majagual","en":"Majagual"}},{"name":"Monte Plata","state_code":"29","latitude":"18.80700000","longitude":"-69.78399000","population":15532,"timezone":"America/Santo_Domingo","type":"adm1","translations":{"es":"Monte Plata","en":"Monte Plata"}},{"name":"Sabana Grande de Boyá","state_code":"29","latitude":"18.94498000","longitude":"-69.79331000","population":16834,"timezone":"America/Santo_Domingo","type":"city","translations":{"es":"Sabana Grande de Boyá","en":"Sabana Grande de Boyá"}},{"name":"Yamasá","state_code":"29","latitude":"18.77315000","longitude":"-70.02583000","population":11595,"timezone":"America/Santo_Domingo","type":"city","translations":{"es":"Yamasá","en":"Yamasá"}},{"name":"Juancho","state_code":"16","latitude":"17.85782000","longitude":"-71.29311000","population":1623,"timezone":"America/Santo_Domingo","type":"city","translations":{"es":"Juancho","en":"Juancho"}},{"name":"Oviedo","state_code":"16","latitude":"17.80136000","longitude":"-71.40100000","population":2671,"timezone":"America/Santo_Domingo","type":"city","translations":{"es":"Oviedo","en":"Oviedo"}},{"name":"Pedernales","state_code":"16","latitude":"18.08333000","longitude":"-71.60000000","population":11072,"timezone":"America/Santo_Domingo","type":"city","translations":{"es":"Pedernales","en":"Pedernales"}},{"name":"Baní","state_code":"17","latitude":"18.27964000","longitude":"-70.33185000","population":66709,"timezone":"America/Santo_Domingo","type":"adm1","translations":{"es":"Baní","en":"Baní"}},{"name":"Matanzas","state_code":"17","latitude":"18.24297000","longitude":"-70.41768000","population":4124,"timezone":"America/Santo_Domingo","type":"city","translations":{"es":"Matanzas","en":"Matanzas"}},{"name":"Nizao","state_code":"17","latitude":"18.24697000","longitude":"-70.21053000","population":6530,"timezone":"America/Santo_Domingo","type":"city","translations":{"es":"Nizao","en":"Nizao"}},{"name":"Paya","state_code":"17","latitude":"18.26196000","longitude":"-70.29560000","population":6916,"timezone":"America/Santo_Domingo","type":"city","translations":{"es":"Paya","en":"Paya"}},{"name":"Pizarrete","state_code":"17","latitude":"18.29935000","longitude":"-70.22648000","population":2695,"timezone":"America/Santo_Domingo","type":"city","translations":{"es":"Pizarrete","en":"Pizarrete"}},{"name":"Sabana Buey","state_code":"17","latitude":"18.27351000","longitude":"-70.52352000","population":2265,"timezone":"America/Santo_Domingo","type":"city","translations":{"es":"Sabana Buey","en":"Sabana Buey"}},{"name":"Altamira","state_code":"18","latitude":"19.70000000","longitude":"-70.83333000","population":8024,"timezone":"America/Santo_Domingo","type":"city","translations":{"es":"Altamira","en":"Altamira"}},{"name":"Cabarete","state_code":"18","latitude":"19.74982000","longitude":"-70.40829000","population":4094,"timezone":"America/Santo_Domingo","type":"city","translations":{"es":"Cabarete","en":"Cabarete"}},{"name":"Estero Hondo","state_code":"18","latitude":"19.82712000","longitude":"-71.17411000","population":1649,"timezone":"America/Santo_Domingo","type":"city","translations":{"es":"Estero Hondo","en":"Estero Hondo"}},{"name":"Guananico","state_code":"18","latitude":"19.72693000","longitude":"-70.92294000","population":2620,"timezone":"America/Santo_Domingo","type":"city","translations":{"es":"Guananico","en":"Guananico"}},{"name":"Imbert","state_code":"18","latitude":"19.75371000","longitude":"-70.82906000","population":8024,"timezone":"America/Santo_Domingo","type":"city","translations":{"es":"Imbert","en":"Imbert"}},{"name":"Los Hidalgos","state_code":"18","latitude":"19.73333000","longitude":"-71.03333000","population":2805,"timezone":"America/Santo_Domingo","type":"city","translations":{"es":"Los Hidalgos","en":"Los Hidalgos"}},{"name":"Luperón","state_code":"18","latitude":"19.89131000","longitude":"-70.96204000","population":4393,"timezone":"America/Santo_Domingo","type":"city","translations":{"es":"Luperón","en":"Luperón"}},{"name":"Monte Llano","state_code":"18","latitude":"19.73460000","longitude":"-70.59915000","population":19029,"timezone":"America/Santo_Domingo","type":"city","translations":{"es":"Monte Llano","en":"Monte Llano"}},{"name":"Puerto Plata","state_code":"18","latitude":"19.75119000","longitude":"-70.70251000","population":338339,"timezone":"America/Santo_Domingo","type":"adm1","translations":{"es":"Puerto Plata","en":"Puerto Plata"}},{"name":"Río Grande","state_code":"18","latitude":"19.66667000","longitude":"-70.76667000","population":20154,"timezone":"America/Santo_Domingo","type":"city","translations":{"es":"Río Grande","en":"Río Grande"}},{"name":"Sosúa","state_code":"18","latitude":"19.75220000","longitude":"-70.51995000","population":7713,"timezone":"America/Santo_Domingo","type":"city","translations":{"es":"Sosúa","en":"Sosúa"}},{"name":"Villa Isabela","state_code":"18","latitude":"19.81564000","longitude":"-71.06056000","population":3887,"timezone":"America/Santo_Domingo","type":"city","translations":{"es":"Villa Isabela","en":"Villa Isabela"}},{"name":"Las Terrenas","state_code":"20","latitude":"19.31102000","longitude":"-69.54280000","population":7713,"timezone":"America/Santo_Domingo","type":"city","translations":{"es":"Las Terrenas","en":"Las Terrenas"}},{"name":"Samaná","state_code":"20","latitude":"19.20561000","longitude":"-69.33685000","population":11432,"timezone":"America/Santo_Domingo","type":"adm1","translations":{"es":"Samaná","en":"Samaná"}},{"name":"Sánchez","state_code":"20","latitude":"19.22810000","longitude":"-69.61370000","population":11365,"timezone":"America/Santo_Domingo","type":"city","translations":{"es":"Sánchez","en":"Sánchez"}},{"name":"Bajos de Haina","state_code":"21","latitude":"18.41667000","longitude":"-70.03333000","population":66784,"timezone":"America/Santo_Domingo","type":"city","translations":{"es":"Bajos de Haina","en":"Bajos de Haina"}},{"name":"Cambita Garabitos","state_code":"21","latitude":"18.50000000","longitude":"-70.23333000","population":31057,"timezone":"America/Santo_Domingo","type":"adm2","translations":{"es":"Cambita Garabitos","en":"Cambita Garabitos"}},{"name":"El Cacao","state_code":"21","latitude":"18.52719000","longitude":"-70.29585000","population":1997,"timezone":"America/Santo_Domingo","type":"city","translations":{"es":"El Cacao","en":"El Cacao"}},{"name":"El Carril","state_code":"21","latitude":"18.44905000","longitude":"-70.02785000","population":2643,"timezone":"America/Santo_Domingo","type":"city","translations":{"es":"El Carril","en":"El Carril"}},{"name":"Sabana Grande de Palenque","state_code":"21","latitude":"18.26256000","longitude":"-70.14821000","population":4809,"timezone":"America/Santo_Domingo","type":"city","translations":{"es":"Sabana Grande de Palenque","en":"Sabana Grande de Palenque"}},{"name":"San Cristóbal","state_code":"21","latitude":"18.41667000","longitude":"-70.13333000","population":232769,"timezone":"America/Santo_Domingo","type":"adm1","translations":{"es":"San Cristóbal","en":"San Cristóbal"}},{"name":"San Gregorio de Nigua","state_code":"21","latitude":"18.38333000","longitude":"-70.08333000","population":40589,"timezone":"America/Santo_Domingo","type":"city","translations":{"es":"San Gregorio de Nigua","en":"San Gregorio de Nigua"}},{"name":"Villa Altagracia","state_code":"21","latitude":"18.63333000","longitude":"-70.25000000","population":84312,"timezone":"America/Santo_Domingo","type":"city","translations":{"es":"Villa Altagracia","en":"Villa Altagracia"}},{"name":"Yaguate","state_code":"21","latitude":"18.33333000","longitude":"-70.18333000","population":5610,"timezone":"America/Santo_Domingo","type":"city","translations":{"es":"Yaguate","en":"Yaguate"}},{"name":"San José de Ocoa","state_code":"31","latitude":"18.54661000","longitude":"-70.50631000","population":21148,"timezone":"America/Santo_Domingo","type":"adm1","translations":{"es":"San José de Ocoa","en":"San José de Ocoa"}},{"name":"Bohechío","state_code":"22","latitude":"18.77515000","longitude":"-70.98889000","population":2281,"timezone":"America/Santo_Domingo","type":"city","translations":{"es":"Bohechio","en":"Bohechío"}},{"name":"Cercado Abajo","state_code":"22","latitude":"18.72681000","longitude":"-71.51742000","population":5316,"timezone":"America/Santo_Domingo","type":"city","translations":{"es":"Cercado Abajo","en":"Cercado Abajo"}},{"name":"El Cercado","state_code":"22","latitude":"18.70000000","longitude":"-71.46667000","population":20843,"timezone":"America/Santo_Domingo","type":"city","translations":{"es":"El Cercado","en":"El Cercado"}},{"name":"Juan de Herrera","state_code":"22","latitude":"18.87402000","longitude":"-71.23830000","population":5543,"timezone":"America/Santo_Domingo","type":"city","translations":{"es":"Juan de Herrera","en":"Juan de Herrera"}},{"name":"Las Matas de Farfán","state_code":"22","latitude":"18.91667000","longitude":"-71.50000000","population":44163,"timezone":"America/Santo_Domingo","type":"city","translations":{"es":"Las Matas de Farfán","en":"Las Matas de Farfán"}},{"name":"Matayaya","state_code":"22","latitude":"18.89036000","longitude":"-71.59459000","population":1001,"timezone":"America/Santo_Domingo","type":"city","translations":{"es":"Matayaya","en":"Matayaya"}},{"name":"Pedro Corto","state_code":"22","latitude":"18.84856000","longitude":"-71.41041000","population":2067,"timezone":"America/Santo_Domingo","type":"city","translations":{"es":"Pedro Corto","en":"Pedro Corto"}},{"name":"San Juan de la Maguana","state_code":"22","latitude":"18.80588000","longitude":"-71.22991000","population":72950,"timezone":"America/Santo_Domingo","type":"adm1","translations":{"es":"San Juan de la Maguana","en":"San Juan de la Maguana"}},{"name":"Vallejuelo","state_code":"22","latitude":"18.65354000","longitude":"-71.33431000","population":5217,"timezone":"America/Santo_Domingo","type":"city","translations":{"es":"Vallejuelo","en":"Vallejuelo"}},{"name":"El Puerto","state_code":"23","latitude":"18.78333000","longitude":"-69.46667000","population":3278,"timezone":"America/Santo_Domingo","type":"city","translations":{"es":"El Puerto","en":"El Puerto"}},{"name":"Los Llanos","state_code":"23","latitude":"18.62035000","longitude":"-69.49581000","population":5529,"timezone":"America/Santo_Domingo","type":"city","translations":{"es":"Los Llanos","en":"Los Llanos"}},{"name":"Quisqueya","state_code":"23","latitude":"18.55542000","longitude":"-69.40814000","population":19034,"timezone":"America/Santo_Domingo","type":"city","translations":{"es":"Quisqueya","en":"Quisqueya"}},{"name":"Ramón Santana","state_code":"23","latitude":"18.54224000","longitude":"-69.17979000","population":2175,"timezone":"America/Santo_Domingo","type":"city","translations":{"es":"Ramón Santana","en":"Ramón Santana"}},{"name":"San Pedro de Macorís","state_code":"23","latitude":"18.45390000","longitude":"-69.30864000","population":217141,"timezone":"America/Santo_Domingo","type":"adm1","translations":{"es":"San Pedro de Macorís","en":"San Pedro de Macorís"}},{"name":"Cevicos","state_code":"24","latitude":"19.00449000","longitude":"-69.97896000","population":4064,"timezone":"America/Santo_Domingo","type":"city","translations":{"es":"Cevicos","en":"Cevicos"}},{"name":"Cotuí","state_code":"24","latitude":"19.05272000","longitude":"-70.14939000","population":41641,"timezone":"America/Santo_Domingo","type":"adm1","translations":{"es":"Cotuí","en":"Cotuí"}},{"name":"Fantino","state_code":"24","latitude":"19.11667000","longitude":"-70.30000000","population":10024,"timezone":"America/Santo_Domingo","type":"city","translations":{"es":"Fantino","en":"Fantino"}},{"name":"Baitoa","state_code":"25","latitude":"19.32512000","longitude":"-70.70357000","population":2013,"timezone":"America/Santo_Domingo","type":"city","translations":{"es":"Baitoa","en":"Baitoa"}},{"name":"Bisonó","state_code":"25","latitude":"19.58333000","longitude":"-70.86667000","population":42092,"timezone":"America/Santo_Domingo","type":"city","translations":{"es":"Bisonó","en":"Bisonó"}},{"name":"Juncalito Abajo","state_code":"25","latitude":"19.21990000","longitude":"-70.81905000","population":1229,"timezone":"America/Santo_Domingo","type":"city","translations":{"es":"Juncalito Abajo","en":"Juncalito Abajo"}},{"name":"La Canela","state_code":"25","latitude":"19.47341000","longitude":"-70.81629000","population":4026,"timezone":"America/Santo_Domingo","type":"city","translations":{"es":"La Canela","en":"La Canela"}},{"name":"Licey al Medio","state_code":"25","latitude":"19.45000000","longitude":"-70.60000000","population":6435,"timezone":"America/Santo_Domingo","type":"city","translations":{"es":"Licey al Medio","en":"Licey al Medio"}},{"name":"Palmar Arriba","state_code":"25","latitude":"19.53957000","longitude":"-70.73826000","population":3700,"timezone":"America/Santo_Domingo","type":"city","translations":{"es":"Palmar Arriba","en":"Palmar Arriba"}},{"name":"Pedro García","state_code":"25","latitude":"19.59202000","longitude":"-70.65256000","population":1457,"timezone":"America/Santo_Domingo","type":"city","translations":{"es":"Pedro García","en":"Pedro García"}},{"name":"Sabana Iglesia","state_code":"25","latitude":"19.32114000","longitude":"-70.75992000","population":5135,"timezone":"America/Santo_Domingo","type":"city","translations":{"es":"Sabana Iglesia","en":"Sabana Iglesia"}},{"name":"San José de Las Matas","state_code":"25","latitude":"19.33915000","longitude":"-70.93819000","population":9853,"timezone":"America/Santo_Domingo","type":"city","translations":{"es":"San José de Las Matas","en":"San José de Las Matas"}},{"name":"Santiago de los Caballeros","state_code":"25","latitude":"19.45170000","longitude":"-70.69703000","population":1343423,"timezone":"America/Santo_Domingo","type":"adm1","translations":{"es":"Santiago de los Caballeros","en":"Santiago de los Caballeros"}},{"name":"Santo Tomás de Jánico","state_code":"25","latitude":"19.23528000","longitude":"-70.79515000","population":null,"timezone":"America/Santo_Domingo","type":"city","translations":{"es":"Santo Tomás de Jánico","en":"Santo Tomás de Jánico"}},{"name":"Tamboril","state_code":"25","latitude":"19.48538000","longitude":"-70.61104000","population":23304,"timezone":"America/Santo_Domingo","type":"city","translations":{"es":"Tamboril","en":"Tamboril"}},{"name":"Villa Bisonó","state_code":"25","latitude":"19.56378000","longitude":"-70.87582000","population":33137,"timezone":"America/Santo_Domingo","type":"city","translations":{"es":"Villa Bisonó","en":"Villa Bisonó"}},{"name":"Villa González","state_code":"25","latitude":"19.54057000","longitude":"-70.78853000","population":10177,"timezone":"America/Santo_Domingo","type":"city","translations":{"es":"Villa González","en":"Villa González"}},{"name":"Monción","state_code":"26","latitude":"19.46667000","longitude":"-71.16667000","population":11753,"timezone":"America/Santo_Domingo","type":"city","translations":{"es":"Monción","en":"Monción"}},{"name":"Sabaneta","state_code":"26","latitude":"19.47793000","longitude":"-71.34125000","population":98453,"timezone":"America/Santo_Domingo","type":"city","translations":{"es":"Sabaneta","en":"Sabaneta"}},{"name":"San Ignacio de Sabaneta","state_code":"26","latitude":"19.38333000","longitude":"-71.35000000","population":null,"timezone":"America/Santo_Domingo","type":"adm1","translations":{"es":"San Ignacio de Sabaneta","en":"San Ignacio de Sabaneta"}},{"name":"Boca Chica","state_code":"32","latitude":"18.45000000","longitude":"-69.60000000","population":46300,"timezone":"America/Santo_Domingo","type":"adm3","translations":{"es":"Boca Chica","en":"Boca Chica"}},{"name":"Santo Domingo Este","state_code":"32","latitude":"18.48847000","longitude":"-69.85707000","population":948855,"timezone":"America/Santo_Domingo","type":"adm1","translations":{"es":"Santo Domingo Este","en":"Santo Domingo Este"}},{"name":"Santo Domingo Oeste","state_code":"32","latitude":"18.50000000","longitude":"-70.00000000","population":701269,"timezone":"America/Santo_Domingo","type":"city","translations":{"es":"Santo Domingo Oeste","en":"Santo Domingo Oeste"}},{"name":"Amina","state_code":"27","latitude":"19.54813000","longitude":"-70.99599000","population":1910,"timezone":"America/Santo_Domingo","type":"city","translations":{"es":"Amina","en":"Amina"}},{"name":"Esperanza","state_code":"27","latitude":"19.62379000","longitude":"-70.97141000","population":62205,"timezone":"America/Santo_Domingo","type":"city","translations":{"es":"Esperanza","en":"Esperanza"}},{"name":"Guatapanal","state_code":"27","latitude":"19.50705000","longitude":"-70.91713000","population":1657,"timezone":"America/Santo_Domingo","type":"city","translations":{"es":"Guatapanal","en":"Guatapanal"}},{"name":"Jaibón","state_code":"27","latitude":"19.61169000","longitude":"-71.14847000","population":4853,"timezone":"America/Santo_Domingo","type":"city","translations":{"es":"Jaibón","en":"Jaibón"}},{"name":"Jicomé","state_code":"27","latitude":"19.64955000","longitude":"-70.94927000","population":1725,"timezone":"America/Santo_Domingo","type":"city","translations":{"es":"Jicomé","en":"Jicomé"}},{"name":"La Caya","state_code":"27","latitude":"19.69981000","longitude":"-71.12084000","population":1005,"timezone":"America/Santo_Domingo","type":"city","translations":{"es":"La Caya","en":"La Caya"}},{"name":"Laguna Salada","state_code":"27","latitude":"19.70000000","longitude":"-71.13333000","population":23962,"timezone":"America/Santo_Domingo","type":"city","translations":{"es":"Laguna Salada","en":"Laguna Salada"}},{"name":"Maizal","state_code":"27","latitude":"19.63655000","longitude":"-71.02734000","population":3384,"timezone":"America/Santo_Domingo","type":"city","translations":{"es":"Maizal","en":"Maizal"}},{"name":"Mao","state_code":"27","latitude":"19.55186000","longitude":"-71.07813000","population":48297,"timezone":"America/Santo_Domingo","type":"adm1","translations":{"es":"Mao","en":"Mao"}}]