[{"name":"Keren","state_code":"AN","latitude":"15.77792000","longitude":"38.45107000","population":74800,"timezone":"Africa/Asmara","type":"adm1","translations":{"es":"Keren","en":"Keren"}},{"name":"Adi Keyh","state_code":"DU","latitude":"14.84444000","longitude":"39.37722000","population":13061,"timezone":"Africa/Asmara","type":"city","translations":{"es":"Adi Keyh","en":"Adi Keyh"}},{"name":"Dek’emhāre","state_code":"DU","latitude":"15.07000000","longitude":"39.04750000","population":10959,"timezone":"Africa/Asmara","type":"city","translations":{"es":"Dek’emhāre","en":"Dek’emhāre"}},{"name":"Mendefera","state_code":"DU","latitude":"14.88722000","longitude":"38.81528000","population":17781,"timezone":"Africa/Asmara","type":"adm1","translations":{"es":"Mendefera","en":"Mendefera"}},{"name":"Ak’ordat","state_code":"GB","latitude":"15.54798000","longitude":"37.88291000","population":8857,"timezone":"Africa/Asmara","type":"city","translations":{"es":"Ak'ordat","en":"Ak’ordat"}},{"name":"Barentu","state_code":"GB","latitude":"15.10582000","longitude":"37.59067000","population":15891,"timezone":"Africa/Asmara","type":"adm1","translations":{"es":"Barentu","en":"Barentu"}},{"name":"Teseney","state_code":"GB","latitude":"15.11000000","longitude":"36.65750000","population":3753,"timezone":"Africa/Asmara","type":"section","translations":{"es":"Teseney","en":"Teseney"}},{"name":"Asmara","state_code":"MA","latitude":"15.33805000","longitude":"38.93184000","population":563930,"timezone":"Africa/Asmara","type":"capital","translations":{"es":"Asmara","en":"Asmara"}},{"name":"Massawa","state_code":"SK","latitude":"15.60811000","longitude":"39.47455000","population":23100,"timezone":"Africa/Asmara","type":"adm1","translations":{"es":"Massawa","en":"Massawa"}},{"name":"Assab","state_code":"DK","latitude":"13.00917000","longitude":"42.73944000","population":21300,"timezone":"Africa/Asmara","type":"adm1","translations":{"es":"Assab","en":"Assab"}},{"name":"Edd","state_code":"DK","latitude":"13.93088000","longitude":"41.69380000","population":11259,"timezone":"Africa/Asmara","type":"city","translations":{"es":"Edd","en":"Edd"}}]