[{"name":"Naitasiri","state_code":"C","latitude":"-17.83333000","longitude":"178.25000000","population":null,"timezone":"Pacific/Fiji","type":"province","translations":{"es":"Provincia de Naitasiri","en":"Naitasiri"}},{"name":"Namosi","state_code":"C","latitude":"-18.05000000","longitude":"178.13333000","population":null,"timezone":"Pacific/Fiji","type":"province","translations":{"es":"Provincia de Namosi","en":"Namosi"}},{"name":"Rewa","state_code":"C","latitude":"-18.08333000","longitude":"178.33333000","population":null,"timezone":"Pacific/Fiji","type":"province","translations":{"es":"Provincia de Rewa","en":"Rewa"}},{"name":"Serua","state_code":"C","latitude":"-18.16667000","longitude":"178.00000000","population":null,"timezone":"Pacific/Fiji","type":"province","translations":{"es":"Provincia de Serua","en":"Serua"}},{"name":"Suva","state_code":"C","latitude":"-18.14161000","longitude":"178.44149000","population":88271,"timezone":"Pacific/Fiji","type":"capital","translations":{"es":"Suva","en":"Suva"}},{"name":"Tailevu","state_code":"C","latitude":"-17.83333000","longitude":"178.50000000","population":null,"timezone":"Pacific/Fiji","type":"province","translations":{"es":"Provincia de Tailevu","en":"Tailevu"}},{"name":"Kadavu","state_code":"E","latitude":"-18.99331000","longitude":"178.22021000","population":null,"timezone":"Pacific/Fiji","type":"province","translations":{"es":"Provincia de Kadavu","en":"Kadavu"}},{"name":"Lau","state_code":"E","latitude":"-18.20488000","longitude":"-178.79251000","population":null,"timezone":"Pacific/Fiji","type":"province","translations":{"es":"Provincia de Lau","en":"Lau"}},{"name":"Levuka","state_code":"E","latitude":"-18.06667000","longitude":"179.31667000","population":8360,"timezone":"Pacific/Fiji","type":"adm1","translations":{"es":"Levuka","en":"Levuka"}},{"name":"Lomaiviti","state_code":"E","latitude":"-17.66667000","longitude":"178.80000000","population":null,"timezone":"Pacific/Fiji","type":"province","translations":{"es":"Provincia de Lomaiviti","en":"Lomaiviti"}},{"name":"Bua","state_code":"N","latitude":"-16.83333000","longitude":"178.75000000","population":null,"timezone":"Pacific/Fiji","type":"province","translations":{"es":"Provincia de Bua","en":"Bua"}},{"name":"Cakaudrove","state_code":"N","latitude":"-16.66667000","longitude":"179.41667000","population":null,"timezone":"Pacific/Fiji","type":"province","translations":{"es":"Provincia de Cakaudrove","en":"Cakaudrove"}},{"name":"Labasa","state_code":"N","latitude":"-16.43320000","longitude":"179.36451000","population":27949,"timezone":"Pacific/Fiji","type":"adm1","translations":{"es":"Labasa","en":"Labasa"}},{"name":"Macuata","state_code":"N","latitude":"-16.50000000","longitude":"179.25000000","population":null,"timezone":"Pacific/Fiji","type":"province","translations":{"es":"Provincia de Macuata","en":"Macuata"}},{"name":"Ba","state_code":"W","latitude":"-17.53430000","longitude":"177.67407000","population":14596,"timezone":"Pacific/Fiji","type":"adm2","translations":{"es":"Licenciado en Letras","en":"Ba"}},{"name":"Ba Province","state_code":"W","latitude":"-17.66667000","longitude":"177.66667000","population":null,"timezone":"Pacific/Fiji","type":"province","translations":{"es":"Provincia de Ba","en":"Ba Province"}},{"name":"Lautoka","state_code":"W","latitude":"-17.61686000","longitude":"177.45049000","population":52220,"timezone":"Pacific/Fiji","type":"adm1","translations":{"es":"Lautoka","en":"Lautoka"}},{"name":"Nadi","state_code":"W","latitude":"-17.80309000","longitude":"177.41617000","population":42284,"timezone":"Pacific/Fiji","type":"city","translations":{"es":"Nadi","en":"Nadi"}},{"name":"Nandronga and Navosa","state_code":"W","latitude":"-18.00000000","longitude":"177.66667000","population":null,"timezone":"Pacific/Fiji","type":"province","translations":{"es":"Provincia de Nandronga y Navosa","en":"Nandronga and Navosa"}},{"name":"Ra","state_code":"W","latitude":"-17.50000000","longitude":"178.16667000","population":null,"timezone":"Pacific/Fiji","type":"province","translations":{"es":"Provincia de Ra","en":"Ra"}}]