[{"name":"Aberdeen","state_code":"ABE","latitude":"57.14369000","longitude":"-2.09814000","population":200680,"timezone":"Europe/London","type":"adm2","translations":{"es":"Aberdeen","en":"Aberdeen"}},{"name":"Balmedie","state_code":"ABE","latitude":"57.25052000","longitude":"-2.06163000","population":2560,"timezone":"Europe/London","type":"city","translations":{"es":"Balmedie","en":"Balmedie"}},{"name":"Boddam","state_code":"ABE","latitude":"57.47076000","longitude":"-1.78009000","population":1270,"timezone":"Europe/London","type":"city","translations":{"es":"Boddam","en":"Boddam"}},{"name":"Cove","state_code":"ABE","latitude":"57.10000000","longitude":"-2.08333000","population":7060,"timezone":"Europe/London","type":"city","translations":{"es":"Ensenada","en":"Cove"}},{"name":"Cruden Bay","state_code":"ABE","latitude":"57.41797000","longitude":"-1.85313000","population":1640,"timezone":"Europe/London","type":"city","translations":{"es":"Bahía Cruden","en":"Cruden Bay"}},{"name":"Cults","state_code":"ABE","latitude":"57.11667000","longitude":"-2.16667000","population":3500,"timezone":"Europe/London","type":"city","translations":{"es":"Cultos","en":"Cults"}},{"name":"Dyce","state_code":"ABE","latitude":"57.20522000","longitude":"-2.17676000","population":6190,"timezone":"Europe/London","type":"section","translations":{"es":"Dyce","en":"Dyce"}},{"name":"Ellon","state_code":"ABE","latitude":"57.36405000","longitude":"-2.07313000","population":10200,"timezone":"Europe/London","type":"city","translations":{"es":"Ellon","en":"Ellon"}},{"name":"Fraserburgh","state_code":"ABE","latitude":"57.68744000","longitude":"-2.01844000","population":13180,"timezone":"Europe/London","type":"city","translations":{"es":"Fraserburgh","en":"Fraserburgh"}},{"name":"Inverbervie","state_code":"ABE","latitude":"56.84463000","longitude":"-2.27997000","population":2410,"timezone":"Europe/London","type":"city","translations":{"es":"Inverbervie","en":"Inverbervie"}},{"name":"Kingswells","state_code":"ABE","latitude":"57.15798000","longitude":"-2.22426000","population":4740,"timezone":"Europe/London","type":"city","translations":{"es":"Kingswells","en":"Kingswells"}},{"name":"Kintore","state_code":"ABE","latitude":"57.23721000","longitude":"-2.34540000","population":4790,"timezone":"Europe/London","type":"city","translations":{"es":"kintore","en":"Kintore"}},{"name":"Milltimber","state_code":"ABE","latitude":"57.10424000","longitude":"-2.24099000","population":2780,"timezone":"Europe/London","type":"city","translations":{"es":"Madera aserrada","en":"Milltimber"}},{"name":"Mintlaw","state_code":"ABE","latitude":"57.52414000","longitude":"-2.00099000","population":2820,"timezone":"Europe/London","type":"city","translations":{"es":"Ley de menta","en":"Mintlaw"}},{"name":"New Pitsligo","state_code":"ABE","latitude":"57.59019000","longitude":"-2.19535000","population":1100,"timezone":"Europe/London","type":"city","translations":{"es":"Nuevo Pitsligo","en":"New Pitsligo"}},{"name":"Newmacher","state_code":"ABE","latitude":"57.26667000","longitude":"-2.18333000","population":2510,"timezone":"Europe/London","type":"city","translations":{"es":"Newmacher","en":"Newmacher"}},{"name":"Newtonhill","state_code":"ABE","latitude":"57.03333000","longitude":"-2.15000000","population":3140,"timezone":"Europe/London","type":"city","translations":{"es":"Newtonhill","en":"Newtonhill"}},{"name":"Oldmeldrum","state_code":"ABE","latitude":"57.33492000","longitude":"-2.31990000","population":3140,"timezone":"Europe/London","type":"city","translations":{"es":"Oldmeldrum","en":"Oldmeldrum"}},{"name":"Peterculter","state_code":"ABE","latitude":"57.09929000","longitude":"-2.26588000","population":4570,"timezone":"Europe/London","type":"city","translations":{"es":"Peterculter","en":"Peterculter"}},{"name":"Peterhead","state_code":"ABE","latitude":"57.50584000","longitude":"-1.79806000","population":19270,"timezone":"Europe/London","type":"city","translations":{"es":"Peterhead","en":"Peterhead"}},{"name":"Pitmedden","state_code":"ABE","latitude":"57.33691000","longitude":"-2.18022000","population":1440,"timezone":"Europe/London","type":"city","translations":{"es":"Pitmedden","en":"Pitmedden"}},{"name":"Port Erroll","state_code":"ABE","latitude":"57.41427000","longitude":"-1.84596000","population":1620,"timezone":"Europe/London","type":"city","translations":{"es":"Puerto Erroll","en":"Port Erroll"}},{"name":"Portlethen","state_code":"ABE","latitude":"57.06942000","longitude":"-2.13246000","population":9090,"timezone":"Europe/London","type":"city","translations":{"es":"Portlethen","en":"Portlethen"}},{"name":"Rosehearty","state_code":"ABE","latitude":"57.69700000","longitude":"-2.11322000","population":1320,"timezone":"Europe/London","type":"city","translations":{"es":"Rosa de corazón","en":"Rosehearty"}},{"name":"Stonehaven","state_code":"ABE","latitude":"56.96365000","longitude":"-2.21177000","population":11170,"timezone":"Europe/London","type":"city","translations":{"es":"Stonehaven","en":"Stonehaven"}},{"name":"Westhill","state_code":"ABE","latitude":"57.15263000","longitude":"-2.27966000","population":11600,"timezone":"Europe/London","type":"city","translations":{"es":"Westhill","en":"Westhill"}},{"name":"Aberdeenshire","state_code":"ABD","latitude":"57.16667000","longitude":"-2.66667000","population":261210,"timezone":"Europe/London","type":"city","translations":{"es":"Aberdeenshire","en":"Aberdeenshire"}},{"name":"Aboyne","state_code":"ABD","latitude":"57.07546000","longitude":"-2.78023000","population":2910,"timezone":"Europe/London","type":"city","translations":{"es":"Aboyne","en":"Aboyne"}},{"name":"Alford","state_code":"ABD","latitude":"57.23257000","longitude":"-2.70298000","population":2520,"timezone":"Europe/London","type":"city","translations":{"es":"Alford","en":"Alford"}},{"name":"Ballater","state_code":"ABD","latitude":"57.05011000","longitude":"-3.03798000","population":1460,"timezone":"Europe/London","type":"city","translations":{"es":"Ballater","en":"Ballater"}},{"name":"Banchory","state_code":"ABD","latitude":"57.05168000","longitude":"-2.48824000","population":7560,"timezone":"Europe/London","type":"city","translations":{"es":"Banchory","en":"Banchory"}},{"name":"Insch","state_code":"ABD","latitude":"57.34273000","longitude":"-2.61321000","population":2690,"timezone":"Europe/London","type":"city","translations":{"es":"Insch","en":"Insch"}},{"name":"Inverurie","state_code":"ABD","latitude":"57.28446000","longitude":"-2.37736000","population":13640,"timezone":"Europe/London","type":"city","translations":{"es":"Inverurie","en":"Inverurie"}},{"name":"Kemnay","state_code":"ABD","latitude":"57.23573000","longitude":"-2.44395000","population":3870,"timezone":"Europe/London","type":"city","translations":{"es":"Kemnay","en":"Kemnay"}},{"name":"Rothienorman","state_code":"ABD","latitude":"57.41145000","longitude":"-2.46455000","population":1100,"timezone":"Europe/London","type":"city","translations":{"es":"Rothienorman","en":"Rothienorman"}},{"name":"Torphins","state_code":"ABD","latitude":"57.10561000","longitude":"-2.62398000","population":1410,"timezone":"Europe/London","type":"city","translations":{"es":"Torfinas","en":"Torphins"}},{"name":"Turriff","state_code":"ABD","latitude":"57.53840000","longitude":"-2.45932000","population":4960,"timezone":"Europe/London","type":"city","translations":{"es":"Turriff","en":"Turriff"}},{"name":"Alyth","state_code":"ANS","latitude":"56.62209000","longitude":"-3.23005000","population":2400,"timezone":"Europe/London","type":"city","translations":{"es":"Alyth","en":"Alyth"}},{"name":"Angus","state_code":"ANS","latitude":"56.66667000","longitude":"-2.91667000","population":115820,"timezone":"Europe/London","type":"city","translations":{"es":"Angus","en":"Angus"}},{"name":"Arbroath","state_code":"ANS","latitude":"56.56317000","longitude":"-2.58736000","population":23940,"timezone":"Europe/London","type":"city","translations":{"es":"Arbroath","en":"Arbroath"}},{"name":"Brechin","state_code":"ANS","latitude":"56.72993000","longitude":"-2.65729000","population":7400,"timezone":"Europe/London","type":"city","translations":{"es":"Brechin","en":"Brechin"}},{"name":"Forfar","state_code":"ANS","latitude":"56.64382000","longitude":"-2.89001000","population":14230,"timezone":"Europe/London","type":"adm2","translations":{"es":"Para lejos","en":"Forfar"}},{"name":"Friockheim","state_code":"ANS","latitude":"56.63688000","longitude":"-2.66806000","population":980,"timezone":"Europe/London","type":"city","translations":{"es":"Friockheim","en":"Friockheim"}},{"name":"Hillside","state_code":"ANS","latitude":"56.74483000","longitude":"-2.47400000","population":1210,"timezone":"Europe/London","type":"city","translations":{"es":"Ladera","en":"Hillside"}},{"name":"Kirriemuir","state_code":"ANS","latitude":"56.67398000","longitude":"-3.00343000","population":6120,"timezone":"Europe/London","type":"city","translations":{"es":"Kirriemuir","en":"Kirriemuir"}},{"name":"Laurencekirk","state_code":"ANS","latitude":"56.83338000","longitude":"-2.46540000","population":3040,"timezone":"Europe/London","type":"city","translations":{"es":"Laurencekirk","en":"Laurencekirk"}},{"name":"Letham","state_code":"ANS","latitude":"56.62683000","longitude":"-2.77060000","population":1640,"timezone":"Europe/London","type":"city","translations":{"es":"Letham","en":"Letham"}},{"name":"Montrose","state_code":"ANS","latitude":"56.71683000","longitude":"-2.46695000","population":12100,"timezone":"Europe/London","type":"city","translations":{"es":"Montrose","en":"Montrose"}},{"name":"Saint Cyrus","state_code":"ANS","latitude":"56.77504000","longitude":"-2.41553000","population":1060,"timezone":"Europe/London","type":"city","translations":{"es":"San Ciro","en":"Saint Cyrus"}},{"name":"Antrim","state_code":"ANN","latitude":"54.70000000","longitude":"-6.20000000","population":19986,"timezone":"Europe/London","type":"adm2","translations":{"es":"Antrim","en":"Antrim"}},{"name":"Antrim and Newtownabbey","state_code":"ANN","latitude":"54.70177000","longitude":"-6.19770000","population":142492,"timezone":"Europe/London","type":"city","translations":{"es":"Antrim y Newtownabbey","en":"Antrim and Newtownabbey"}},{"name":"Ballyclare","state_code":"ANN","latitude":"54.75089000","longitude":"-5.99944000","population":9472,"timezone":"Europe/London","type":"city","translations":{"es":"Ballyclare","en":"Ballyclare"}},{"name":"Crumlin","state_code":"ANN","latitude":"54.62054000","longitude":"-6.21414000","population":5149,"timezone":"Europe/London","type":"city","translations":{"es":"Crumlin","en":"Crumlin"}},{"name":"Doagh","state_code":"ANN","latitude":"54.75000000","longitude":"-6.08333000","population":1151,"timezone":"Europe/London","type":"city","translations":{"es":"Doagh","en":"Doagh"}},{"name":"Glenavy","state_code":"ANN","latitude":"54.59231000","longitude":"-6.21371000","population":1089,"timezone":"Europe/London","type":"city","translations":{"es":"Glenavy","en":"Glenavy"}},{"name":"Randalstown","state_code":"ANN","latitude":"54.75000000","longitude":"-6.30000000","population":4956,"timezone":"Europe/London","type":"city","translations":{"es":"Randalstown","en":"Randalstown"}},{"name":"Templepatrick","state_code":"ANN","latitude":"54.68333000","longitude":"-6.08333000","population":1627,"timezone":"Europe/London","type":"city","translations":{"es":"Templepatrick","en":"Templepatrick"}},{"name":"Ards and North Down","state_code":"AND","latitude":"54.53439000","longitude":"-5.62947000","population":160864,"timezone":"Europe/London","type":"city","translations":{"es":"Ards y North Down","en":"Ards and North Down"}},{"name":"Ballywalter","state_code":"AND","latitude":"54.54329000","longitude":"-5.48475000","population":1572,"timezone":"Europe/London","type":"city","translations":{"es":"Ballywalter","en":"Ballywalter"}},{"name":"Bangor","state_code":"AND","latitude":"54.65338000","longitude":"-5.66895000","population":61011,"timezone":"Europe/London","type":"adm2","translations":{"es":"Bangor","en":"Bangor"}},{"name":"Donaghadee","state_code":"AND","latitude":"54.64126000","longitude":"-5.53591000","population":7369,"timezone":"Europe/London","type":"city","translations":{"es":"Donaghadee","en":"Donaghadee"}},{"name":"Greyabbey","state_code":"AND","latitude":"54.53483000","longitude":"-5.56028000","population":1030,"timezone":"Europe/London","type":"city","translations":{"es":"Abadía gris","en":"Greyabbey"}},{"name":"Kircubbin","state_code":"AND","latitude":"54.48739000","longitude":"-5.53385000","population":1237,"timezone":"Europe/London","type":"city","translations":{"es":"Kircubbin","en":"Kircubbin"}},{"name":"Millisle","state_code":"AND","latitude":"54.60638000","longitude":"-5.52973000","population":1914,"timezone":"Europe/London","type":"city","translations":{"es":"Millisle","en":"Millisle"}},{"name":"Newtownards","state_code":"AND","latitude":"54.59236000","longitude":"-5.69092000","population":29363,"timezone":"Europe/London","type":"adm2","translations":{"es":"Newtownards","en":"Newtownards"}},{"name":"Portaferry","state_code":"AND","latitude":"54.38086000","longitude":"-5.54569000","population":2525,"timezone":"Europe/London","type":"city","translations":{"es":"Portaferry","en":"Portaferry"}},{"name":"Portavogie","state_code":"AND","latitude":"54.45916000","longitude":"-5.44304000","population":1639,"timezone":"Europe/London","type":"city","translations":{"es":"Portavogie","en":"Portavogie"}},{"name":"Whitehead","state_code":"AND","latitude":"54.75371000","longitude":"-5.70933000","population":3697,"timezone":"Europe/London","type":"city","translations":{"es":"Cabeza blanca","en":"Whitehead"}},{"name":"Caol","state_code":"AGB","latitude":"56.83721000","longitude":"-5.10062000","population":3220,"timezone":"Europe/London","type":"city","translations":{"es":"Caol","en":"Caol"}},{"name":"Fort William","state_code":"AGB","latitude":"56.81648000","longitude":"-5.11208000","population":5830,"timezone":"Europe/London","type":"city","translations":{"es":"Fuerte William","en":"Fort William"}},{"name":"Isle of Islay","state_code":"AGB","latitude":"55.78526000","longitude":"-6.23886000","population":3457,"timezone":"Europe/London","type":"locality","translations":{"es":"Isla de Islay","en":"Isle of Islay"}},{"name":"Isle Of Mull","state_code":"AGB","latitude":"56.44703000","longitude":"-5.77404000","population":2667,"timezone":"Europe/London","type":"city","translations":{"es":"Isla de Mull","en":"Isle Of Mull"}},{"name":"Oban","state_code":"AGB","latitude":"56.41535000","longitude":"-5.47184000","population":8490,"timezone":"Europe/London","type":"city","translations":{"es":"Oban","en":"Oban"}},{"name":"Tobermory","state_code":"AGB","latitude":"56.62198000","longitude":"-6.07231000","population":1010,"timezone":"Europe/London","type":"city","translations":{"es":"Tobermory","en":"Tobermory"}},{"name":"Armagh","state_code":"ABC","latitude":"54.35000000","longitude":"-6.66667000","population":14777,"timezone":"Europe/London","type":"adm2","translations":{"es":"Armagh","en":"Armagh"}},{"name":"Armagh City Banbridge and Craigavon","state_code":"ABC","latitude":"54.36922000","longitude":"-6.45651000","population":null,"timezone":"Europe/London","type":"city","translations":{"es":"Ciudad de Armagh Banbridge y Craigavon","en":"Armagh City Banbridge and Craigavon"}},{"name":"Keady","state_code":"ABC","latitude":"54.25000000","longitude":"-6.70000000","population":3171,"timezone":"Europe/London","type":"city","translations":{"es":"Listo","en":"Keady"}},{"name":"Moy","state_code":"ABC","latitude":"54.45000000","longitude":"-6.66667000","population":1234,"timezone":"Europe/London","type":"city","translations":{"es":"Moy","en":"Moy"}},{"name":"Portadown","state_code":"ABC","latitude":"54.42302000","longitude":"-6.44434000","population":22000,"timezone":"Europe/London","type":"city","translations":{"es":"Portadown","en":"Portadown"}},{"name":"Tandragee","state_code":"ABC","latitude":"54.35486000","longitude":"-6.41396000","population":3122,"timezone":"Europe/London","type":"city","translations":{"es":"Tandragee","en":"Tandragee"}},{"name":"Becontree","state_code":"BDG","latitude":"51.55290000","longitude":"0.12900000","population":100000,"timezone":"Europe/London","type":"section","translations":{"es":"Becontree","en":"Becontree"}},{"name":"Chadwell Heath","state_code":"BDG","latitude":"51.57121000","longitude":"0.13271000","population":9598,"timezone":"Europe/London","type":"section","translations":{"es":"Chadwell Heath","en":"Chadwell Heath"}},{"name":"Collier Row","state_code":"BDG","latitude":"51.59893000","longitude":"0.16600000","population":10100,"timezone":"Europe/London","type":"section","translations":{"es":"Collier Row","en":"Collier Row"}},{"name":"Dagenham","state_code":"BDG","latitude":"51.55000000","longitude":"0.16667000","population":106247,"timezone":"Europe/London","type":"adm3","translations":{"es":"Dagenham","en":"Dagenham"}},{"name":"Romford","state_code":"BDG","latitude":"51.57515000","longitude":"0.18582000","population":95000,"timezone":"Europe/London","type":"adm3","translations":{"es":"Romford","en":"Romford"}},{"name":"Barnet","state_code":"BNE","latitude":"51.65000000","longitude":"-0.20000000","population":30000,"timezone":"Europe/London","type":"city","translations":{"es":"Barnet","en":"Barnet"}},{"name":"Borehamwood","state_code":"BNE","latitude":"51.65468000","longitude":"-0.27762000","population":32176,"timezone":"Europe/London","type":"city","translations":{"es":"Borehamwood","en":"Borehamwood"}},{"name":"Edgware","state_code":"BNE","latitude":"51.61280000","longitude":"-0.27539000","population":9832,"timezone":"Europe/London","type":"city","translations":{"es":"Edgware","en":"Edgware"}},{"name":"High Barnet","state_code":"BNE","latitude":"51.65621000","longitude":"-0.20768000","population":7062,"timezone":"Europe/London","type":"section","translations":{"es":"Alto Barnet","en":"High Barnet"}},{"name":"Shenley","state_code":"BNE","latitude":"51.69054000","longitude":"-0.28067000","population":4325,"timezone":"Europe/London","type":"city","translations":{"es":"Shenley","en":"Shenley"}},{"name":"Barnsley","state_code":"BNS","latitude":"53.53333000","longitude":"-1.50000000","population":245199,"timezone":"Europe/London","type":"adm2","translations":{"es":"Barnsley","en":"Barnsley"}},{"name":"Birdwell","state_code":"BNS","latitude":"53.51398000","longitude":"-1.47929000","population":3056,"timezone":"Europe/London","type":"city","translations":{"es":"Birdwell","en":"Birdwell"}},{"name":"Cawthorne","state_code":"BNS","latitude":"53.56687000","longitude":"-1.57259000","population":893,"timezone":"Europe/London","type":"adm3","translations":{"es":"Cawthorne","en":"Cawthorne"}},{"name":"Clayton West","state_code":"BNS","latitude":"53.59501000","longitude":"-1.61107000","population":8109,"timezone":"Europe/London","type":"city","translations":{"es":"Clayton Oeste","en":"Clayton West"}},{"name":"Cudworth","state_code":"BNS","latitude":"53.57131000","longitude":"-1.41595000","population":11903,"timezone":"Europe/London","type":"city","translations":{"es":"Cudworth","en":"Cudworth"}},{"name":"Darfield","state_code":"BNS","latitude":"53.53390000","longitude":"-1.37595000","population":8246,"timezone":"Europe/London","type":"city","translations":{"es":"Darfield","en":"Darfield"}},{"name":"Darton","state_code":"BNS","latitude":"53.58705000","longitude":"-1.52676000","population":15259,"timezone":"Europe/London","type":"city","translations":{"es":"Darton","en":"Darton"}},{"name":"Dodworth","state_code":"BNS","latitude":"53.54306000","longitude":"-1.52779000","population":5870,"timezone":"Europe/London","type":"city","translations":{"es":"Dodworth","en":"Dodworth"}},{"name":"Great Houghton","state_code":"BNS","latitude":"53.55352000","longitude":"-1.34952000","population":2487,"timezone":"Europe/London","type":"adm3","translations":{"es":"Gran Houghton","en":"Great Houghton"}},{"name":"Grimethorpe","state_code":"BNS","latitude":"53.57650000","longitude":"-1.37688000","population":4672,"timezone":"Europe/London","type":"city","translations":{"es":"Grimethorpe","en":"Grimethorpe"}},{"name":"Hemsworth","state_code":"BNS","latitude":"53.61267000","longitude":"-1.35424000","population":9246,"timezone":"Europe/London","type":"adm3","translations":{"es":"Hemsworth","en":"Hemsworth"}},{"name":"Hoyland Nether","state_code":"BNS","latitude":"53.50000000","longitude":"-1.45000000","population":15842,"timezone":"Europe/London","type":"city","translations":{"es":"Hoyland Nether","en":"Hoyland Nether"}},{"name":"Notton","state_code":"BNS","latitude":"53.61267000","longitude":"-1.47234000","population":479,"timezone":"Europe/London","type":"adm3","translations":{"es":"Notton","en":"Notton"}},{"name":"Penistone","state_code":"BNS","latitude":"53.52572000","longitude":"-1.63027000","population":12674,"timezone":"Europe/London","type":"adm3","translations":{"es":"Piedra del pene","en":"Penistone"}},{"name":"Silkstone","state_code":"BNS","latitude":"53.54808000","longitude":"-1.56381000","population":1764,"timezone":"Europe/London","type":"city","translations":{"es":"Piedra de seda","en":"Silkstone"}},{"name":"Stocksbridge","state_code":"BNS","latitude":"53.48249000","longitude":"-1.59373000","population":13301,"timezone":"Europe/London","type":"city","translations":{"es":"Stocksbridge","en":"Stocksbridge"}},{"name":"Wombwell","state_code":"BNS","latitude":"53.52189000","longitude":"-1.39698000","population":15518,"timezone":"Europe/London","type":"city","translations":{"es":"Pozo del útero","en":"Wombwell"}},{"name":"Woolley","state_code":"BNS","latitude":"53.61339000","longitude":"-1.51457000","population":365,"timezone":"Europe/London","type":"adm3","translations":{"es":"Woolley","en":"Woolley"}},{"name":"Atworth","state_code":"BAS","latitude":"51.39234000","longitude":"-2.19297000","population":1920,"timezone":"Europe/London","type":"city","translations":{"es":"Atworth","en":"Atworth"}},{"name":"Bath","state_code":"BAS","latitude":"51.37510000","longitude":"-2.36172000","population":94092,"timezone":"Europe/London","type":"adm2","translations":{"es":"Baño","en":"Bath"}},{"name":"Bath and North East Somerset","state_code":"BAS","latitude":"51.33333000","longitude":"-2.50000000","population":null,"timezone":"Europe/London","type":"city","translations":{"es":"Bath y el noreste de Somerset","en":"Bath and North East Somerset"}},{"name":"Bishop Sutton","state_code":"BAS","latitude":"51.33444000","longitude":"-2.59472000","population":1193,"timezone":"Europe/London","type":"city","translations":{"es":"Obispo Sutton","en":"Bishop Sutton"}},{"name":"Bitton","state_code":"BAS","latitude":"51.42479000","longitude":"-2.45965000","population":492,"timezone":"Europe/London","type":"adm3","translations":{"es":"Bitton","en":"Bitton"}},{"name":"Bourton","state_code":"BAS","latitude":"51.07444000","longitude":"-2.32778000","population":1480,"timezone":"Europe/London","type":"city","translations":{"es":"Bourton","en":"Bourton"}},{"name":"Box","state_code":"BAS","latitude":"51.41472000","longitude":"-2.24556000","population":0,"timezone":"Europe/London","type":"adm3","translations":{"es":"Caja","en":"Box"}},{"name":"Bradford-on-Avon","state_code":"BAS","latitude":"51.34772000","longitude":"-2.25065000","population":10406,"timezone":"Europe/London","type":"city","translations":{"es":"Bradford-on-Avon","en":"Bradford-on-Avon"}},{"name":"Bruton","state_code":"BAS","latitude":"51.11250000","longitude":"-2.45278000","population":2874,"timezone":"Europe/London","type":"city","translations":{"es":"Brutón","en":"Bruton"}},{"name":"Cameley","state_code":"BAS","latitude":"51.31616000","longitude":"-2.56079000","population":1286,"timezone":"Europe/London","type":"city","translations":{"es":"Cameley","en":"Cameley"}},{"name":"Castle Cary","state_code":"BAS","latitude":"51.09000000","longitude":"-2.51417000","population":3232,"timezone":"Europe/London","type":"city","translations":{"es":"Castillo Cary","en":"Castle Cary"}},{"name":"Chapmanslade","state_code":"BAS","latitude":"51.22917000","longitude":"-2.24889000","population":674,"timezone":"Europe/London","type":"adm3","translations":{"es":"Chapmanslade","en":"Chapmanslade"}},{"name":"Chew Magna","state_code":"BAS","latitude":"51.36611000","longitude":"-2.61028000","population":1249,"timezone":"Europe/London","type":"adm3","translations":{"es":"Masticar Magna","en":"Chew Magna"}},{"name":"Chilcompton","state_code":"BAS","latitude":"51.26391000","longitude":"-2.50502000","population":2283,"timezone":"Europe/London","type":"city","translations":{"es":"Chilcompton","en":"Chilcompton"}},{"name":"Clutton","state_code":"BAS","latitude":"51.32944000","longitude":"-2.54306000","population":2739,"timezone":"Europe/London","type":"adm3","translations":{"es":"Clutton","en":"Clutton"}},{"name":"Colerne","state_code":"BAS","latitude":"51.43833000","longitude":"-2.26280000","population":2701,"timezone":"Europe/London","type":"city","translations":{"es":"Colerne","en":"Colerne"}},{"name":"Corsham","state_code":"BAS","latitude":"51.43433000","longitude":"-2.18437000","population":13412,"timezone":"Europe/London","type":"city","translations":{"es":"Corsham","en":"Corsham"}},{"name":"Corston","state_code":"BAS","latitude":"51.38500000","longitude":"-2.44028000","population":501,"timezone":"Europe/London","type":"adm3","translations":{"es":"Corston","en":"Corston"}},{"name":"East Harptree","state_code":"BAS","latitude":"51.30111000","longitude":"-2.62167000","population":668,"timezone":"Europe/London","type":"adm3","translations":{"es":"Harptree del este","en":"East Harptree"}},{"name":"Evercreech","state_code":"BAS","latitude":"51.14806000","longitude":"-2.50556000","population":1845,"timezone":"Europe/London","type":"city","translations":{"es":"Evercreech","en":"Evercreech"}},{"name":"Frome","state_code":"BAS","latitude":"51.22834000","longitude":"-2.32211000","population":28567,"timezone":"Europe/London","type":"city","translations":{"es":"Desde","en":"Frome"}},{"name":"Holt","state_code":"BAS","latitude":"51.35556000","longitude":"-2.19722000","population":1554,"timezone":"Europe/London","type":"adm3","translations":{"es":"Bosquecillo","en":"Holt"}},{"name":"Keynsham","state_code":"BAS","latitude":"51.41387000","longitude":"-2.49780000","population":15641,"timezone":"Europe/London","type":"city","translations":{"es":"Keynsham","en":"Keynsham"}},{"name":"Limpley Stoke","state_code":"BAS","latitude":"51.34487000","longitude":"-2.31409000","population":1092,"timezone":"Europe/London","type":"city","translations":{"es":"Limpley Stoke","en":"Limpley Stoke"}},{"name":"Mendip","state_code":"BAS","latitude":"51.23720000","longitude":"-2.62660000","population":114881,"timezone":"Europe/London","type":"section","translations":{"es":"Mendip","en":"Mendip"}},{"name":"Mere","state_code":"BAS","latitude":"51.08889000","longitude":"-2.26694000","population":3106,"timezone":"Europe/London","type":"adm3","translations":{"es":"Mero","en":"Mere"}},{"name":"Midsomer Norton","state_code":"BAS","latitude":"51.28567000","longitude":"-2.48591000","population":12197,"timezone":"Europe/London","type":"city","translations":{"es":"Midsomer Norton","en":"Midsomer Norton"}},{"name":"Paulton","state_code":"BAS","latitude":"51.30472000","longitude":"-2.50028000","population":4873,"timezone":"Europe/London","type":"adm3","translations":{"es":"Paulton","en":"Paulton"}},{"name":"Peasedown Saint John","state_code":"BAS","latitude":"51.31667000","longitude":"-2.42417000","population":6263,"timezone":"Europe/London","type":"city","translations":{"es":"Peasedown San Juan","en":"Peasedown Saint John"}},{"name":"Priston","state_code":"BAS","latitude":"51.34306000","longitude":"-2.43917000","population":250,"timezone":"Europe/London","type":"adm3","translations":{"es":"Prisión","en":"Priston"}},{"name":"Publow","state_code":"BAS","latitude":"51.37877000","longitude":"-2.54351000","population":0,"timezone":"Europe/London","type":"adm3","translations":{"es":"Publow","en":"Publow"}},{"name":"Radstock","state_code":"BAS","latitude":"51.28862000","longitude":"-2.46003000","population":6149,"timezone":"Europe/London","type":"city","translations":{"es":"Radstock","en":"Radstock"}},{"name":"Redlynch","state_code":"BAS","latitude":"51.09861000","longitude":"-2.42667000","population":2655,"timezone":"Europe/London","type":"city","translations":{"es":"Redlynch","en":"Redlynch"}},{"name":"Rode","state_code":"BAS","latitude":"51.28390000","longitude":"-2.28141000","population":1070,"timezone":"Europe/London","type":"city","translations":{"es":"Montó","en":"Rode"}},{"name":"Saltford","state_code":"BAS","latitude":"51.40139000","longitude":"-2.45944000","population":4134,"timezone":"Europe/London","type":"adm3","translations":{"es":"Saltford","en":"Saltford"}},{"name":"Shepton Mallet","state_code":"BAS","latitude":"51.18972000","longitude":"-2.54722000","population":10592,"timezone":"Europe/London","type":"city","translations":{"es":"Shepton Mallet","en":"Shepton Mallet"}},{"name":"Southwick","state_code":"BAS","latitude":"51.29694000","longitude":"-2.23250000","population":2118,"timezone":"Europe/London","type":"adm3","translations":{"es":"Southwick","en":"Southwick"}},{"name":"Timsbury","state_code":"BAS","latitude":"51.32444000","longitude":"-2.47917000","population":2504,"timezone":"Europe/London","type":"adm3","translations":{"es":"Timsbury","en":"Timsbury"}},{"name":"Trowbridge","state_code":"BAS","latitude":"51.31889000","longitude":"-2.20861000","population":37647,"timezone":"Europe/London","type":"adm2","translations":{"es":"Trowbridge","en":"Trowbridge"}},{"name":"Wellow","state_code":"BAS","latitude":"51.32444000","longitude":"-2.37417000","population":463,"timezone":"Europe/London","type":"adm3","translations":{"es":"Wellow","en":"Wellow"}},{"name":"Wells","state_code":"BAS","latitude":"51.20794000","longitude":"-2.64896000","population":11145,"timezone":"Europe/London","type":"city","translations":{"es":"Pozos","en":"Wells"}},{"name":"Westwood","state_code":"BAS","latitude":"51.33462000","longitude":"-2.27975000","population":1128,"timezone":"Europe/London","type":"adm3","translations":{"es":"Westwood","en":"Westwood"}},{"name":"Wincanton","state_code":"BAS","latitude":"51.05676000","longitude":"-2.40574000","population":5435,"timezone":"Europe/London","type":"city","translations":{"es":"Wincanton","en":"Wincanton"}},{"name":"Bedford","state_code":"BDF","latitude":"52.18831000","longitude":"-0.45316000","population":92407,"timezone":"Europe/London","type":"city","translations":{"es":"Bedford","en":"Bedford"}},{"name":"Blunham","state_code":"BDF","latitude":"52.14695000","longitude":"-0.32178000","population":946,"timezone":"Europe/London","type":"adm3","translations":{"es":"Blunham","en":"Blunham"}},{"name":"Bozeat","state_code":"BDF","latitude":"52.22270000","longitude":"-0.67326000","population":2062,"timezone":"Europe/London","type":"city","translations":{"es":"Bozeat","en":"Bozeat"}},{"name":"Bromham","state_code":"BDF","latitude":"52.14508000","longitude":"-0.52906000","population":4670,"timezone":"Europe/London","type":"adm3","translations":{"es":"Bromham","en":"Bromham"}},{"name":"Buckden","state_code":"BDF","latitude":"52.29415000","longitude":"-0.24912000","population":2881,"timezone":"Europe/London","type":"city","translations":{"es":"Buckden","en":"Buckden"}},{"name":"Cardington","state_code":"BDF","latitude":"52.11742000","longitude":"-0.41289000","population":312,"timezone":"Europe/London","type":"adm3","translations":{"es":"Cardington","en":"Cardington"}},{"name":"Clapham","state_code":"BDF","latitude":"52.16085000","longitude":"-0.49529000","population":4560,"timezone":"Europe/London","type":"adm3","translations":{"es":"Clapham","en":"Clapham"}},{"name":"Cople","state_code":"BDF","latitude":"52.12342000","longitude":"-0.38933000","population":782,"timezone":"Europe/London","type":"adm3","translations":{"es":"Pareja","en":"Cople"}},{"name":"Earls Barton","state_code":"BDF","latitude":"52.26627000","longitude":"-0.75248000","population":6344,"timezone":"Europe/London","type":"city","translations":{"es":"Earls Barton","en":"Earls Barton"}},{"name":"Eaton Socon","state_code":"BDF","latitude":"52.21752000","longitude":"-0.28925000","population":12712,"timezone":"Europe/London","type":"city","translations":{"es":"Eaton Socon","en":"Eaton Socon"}},{"name":"Everton","state_code":"BDF","latitude":"52.14581000","longitude":"-0.24616000","population":523,"timezone":"Europe/London","type":"adm3","translations":{"es":"Everton","en":"Everton"}},{"name":"Finedon","state_code":"BDF","latitude":"52.33917000","longitude":"-0.65008000","population":4536,"timezone":"Europe/London","type":"city","translations":{"es":"Finedon","en":"Finedon"}},{"name":"Gamlingay","state_code":"BDF","latitude":"52.15561000","longitude":"-0.19303000","population":3751,"timezone":"Europe/London","type":"city","translations":{"es":"Gamlingay","en":"Gamlingay"}},{"name":"Great Barford","state_code":"BDF","latitude":"52.15791000","longitude":"-0.35235000","population":2252,"timezone":"Europe/London","type":"city","translations":{"es":"Gran Barford","en":"Great Barford"}},{"name":"Great Gransden","state_code":"BDF","latitude":"52.18546000","longitude":"-0.14574000","population":1319,"timezone":"Europe/London","type":"city","translations":{"es":"Gran Gransden","en":"Great Gransden"}},{"name":"Great Paxton","state_code":"BDF","latitude":"52.26057000","longitude":"-0.22818000","population":1003,"timezone":"Europe/London","type":"city","translations":{"es":"Gran Paxton","en":"Great Paxton"}},{"name":"Harrold","state_code":"BDF","latitude":"52.20127000","longitude":"-0.61038000","population":1667,"timezone":"Europe/London","type":"adm3","translations":{"es":"Harrold","en":"Harrold"}},{"name":"Higham Ferrers","state_code":"BDF","latitude":"52.30596000","longitude":"-0.59342000","population":6222,"timezone":"Europe/London","type":"city","translations":{"es":"Higham Ferrers","en":"Higham Ferrers"}},{"name":"Irchester","state_code":"BDF","latitude":"52.28108000","longitude":"-0.64510000","population":4913,"timezone":"Europe/London","type":"city","translations":{"es":"Irchester","en":"Irchester"}},{"name":"Irthlingborough","state_code":"BDF","latitude":"52.32674000","longitude":"-0.61129000","population":9311,"timezone":"Europe/London","type":"city","translations":{"es":"Irthlingborough","en":"Irthlingborough"}},{"name":"Kempston","state_code":"BDF","latitude":"52.11599000","longitude":"-0.50044000","population":20736,"timezone":"Europe/London","type":"adm3","translations":{"es":"Kempston","en":"Kempston"}},{"name":"Kimbolton","state_code":"BDF","latitude":"52.29704000","longitude":"-0.38916000","population":1357,"timezone":"Europe/London","type":"city","translations":{"es":"Kimbolton","en":"Kimbolton"}},{"name":"Lavendon","state_code":"BDF","latitude":"52.17279000","longitude":"-0.66109000","population":1431,"timezone":"Europe/London","type":"city","translations":{"es":"Lavendon","en":"Lavendon"}},{"name":"Little Paxton","state_code":"BDF","latitude":"52.25045000","longitude":"-0.25801000","population":3244,"timezone":"Europe/London","type":"city","translations":{"es":"El pequeño Paxton","en":"Little Paxton"}},{"name":"Oakley","state_code":"BDF","latitude":"52.16862000","longitude":"-0.52649000","population":2260,"timezone":"Europe/London","type":"adm3","translations":{"es":"Oakley","en":"Oakley"}},{"name":"Podington","state_code":"BDF","latitude":"52.25424000","longitude":"-0.62463000","population":384,"timezone":"Europe/London","type":"adm3","translations":{"es":"Podington","en":"Podington"}},{"name":"Potton","state_code":"BDF","latitude":"52.12911000","longitude":"-0.21561000","population":5728,"timezone":"Europe/London","type":"adm3","translations":{"es":"Potton","en":"Potton"}},{"name":"Raunds","state_code":"BDF","latitude":"52.34428000","longitude":"-0.53657000","population":10391,"timezone":"Europe/London","type":"city","translations":{"es":"Raunds","en":"Raunds"}},{"name":"Ringstead","state_code":"BDF","latitude":"52.36528000","longitude":"-0.55490000","population":1461,"timezone":"Europe/London","type":"city","translations":{"es":"Ringstead","en":"Ringstead"}},{"name":"Riseley","state_code":"BDF","latitude":"52.25213000","longitude":"-0.47928000","population":1286,"timezone":"Europe/London","type":"adm3","translations":{"es":"Riseley","en":"Riseley"}},{"name":"Roxton","state_code":"BDF","latitude":"52.17756000","longitude":"-0.31594000","population":348,"timezone":"Europe/London","type":"adm3","translations":{"es":"Roxton","en":"Roxton"}},{"name":"Rushden","state_code":"BDF","latitude":"52.28927000","longitude":"-0.60184000","population":31687,"timezone":"Europe/London","type":"city","translations":{"es":"Rushden","en":"Rushden"}},{"name":"Saint Neots","state_code":"BDF","latitude":"52.21667000","longitude":"-0.26667000","population":30811,"timezone":"Europe/London","type":"city","translations":{"es":"San Neots","en":"Saint Neots"}},{"name":"Sandy","state_code":"BDF","latitude":"52.12927000","longitude":"-0.28925000","population":12172,"timezone":"Europe/London","type":"adm3","translations":{"es":"Arenoso","en":"Sandy"}},{"name":"Sharnbrook","state_code":"BDF","latitude":"52.22606000","longitude":"-0.54425000","population":1795,"timezone":"Europe/London","type":"adm3","translations":{"es":"Sharnbrook","en":"Sharnbrook"}},{"name":"Stagsden","state_code":"BDF","latitude":"52.13046000","longitude":"-0.56678000","population":373,"timezone":"Europe/London","type":"adm3","translations":{"es":"Stagsden","en":"Stagsden"}},{"name":"Stanwick","state_code":"BDF","latitude":"52.33198000","longitude":"-0.56348000","population":1888,"timezone":"Europe/London","type":"city","translations":{"es":"Stanwick","en":"Stanwick"}},{"name":"Stevington","state_code":"BDF","latitude":"52.16848000","longitude":"-0.55515000","population":582,"timezone":"Europe/London","type":"adm3","translations":{"es":"Stevington","en":"Stevington"}},{"name":"Tempsford","state_code":"BDF","latitude":"52.17051000","longitude":"-0.29586000","population":603,"timezone":"Europe/London","type":"adm3","translations":{"es":"Tempsford","en":"Tempsford"}},{"name":"Thrapston","state_code":"BDF","latitude":"52.39675000","longitude":"-0.53920000","population":7248,"timezone":"Europe/London","type":"city","translations":{"es":"Thrapston","en":"Thrapston"}},{"name":"Wellingborough","state_code":"BDF","latitude":"52.30273000","longitude":"-0.69446000","population":54733,"timezone":"Europe/London","type":"city","translations":{"es":"Wellingborough","en":"Wellingborough"}},{"name":"Wollaston","state_code":"BDF","latitude":"52.25794000","longitude":"-0.67038000","population":3535,"timezone":"Europe/London","type":"city","translations":{"es":"Wollaston","en":"Wollaston"}},{"name":"Woodford","state_code":"BDF","latitude":"52.38231000","longitude":"-0.58099000","population":1461,"timezone":"Europe/London","type":"city","translations":{"es":"Woodford","en":"Woodford"}},{"name":"Ballygowan","state_code":"BFS","latitude":"54.50165000","longitude":"-5.79168000","population":2832,"timezone":"Europe/London","type":"city","translations":{"es":"Ballygowan","en":"Ballygowan"}},{"name":"Belfast","state_code":"BFS","latitude":"54.59682000","longitude":"-5.92541000","population":345006,"timezone":"Europe/London","type":"adm1","translations":{"es":"Belfast","en":"Belfast"}},{"name":"Carnmoney","state_code":"BFS","latitude":"54.68333000","longitude":"-5.95000000","population":2775,"timezone":"Europe/London","type":"city","translations":{"es":"Carnmoney","en":"Carnmoney"}},{"name":"Carrickfergus","state_code":"BFS","latitude":"54.71580000","longitude":"-5.80580000","population":29208,"timezone":"Europe/London","type":"adm2","translations":{"es":"Carrickfergus","en":"Carrickfergus"}},{"name":"Carryduff","state_code":"BFS","latitude":"54.51799000","longitude":"-5.88713000","population":7798,"timezone":"Europe/London","type":"city","translations":{"es":"Carryduff","en":"Carryduff"}},{"name":"Castlereagh","state_code":"BFS","latitude":"54.57350000","longitude":"-5.88472000","population":56679,"timezone":"Europe/London","type":"adm2","translations":{"es":"Castlereagh","en":"Castlereagh"}},{"name":"City of Belfast","state_code":"BFS","latitude":"54.58333000","longitude":"-5.91667000","population":null,"timezone":"Europe/London","type":"adm1","translations":{"es":"Ciudad de Belfast","en":"City of Belfast"}},{"name":"Comber","state_code":"BFS","latitude":"54.54937000","longitude":"-5.74379000","population":9190,"timezone":"Europe/London","type":"city","translations":{"es":"Combo","en":"Comber"}},{"name":"Dundonald","state_code":"BFS","latitude":"54.59196000","longitude":"-5.79803000","population":13985,"timezone":"Europe/London","type":"city","translations":{"es":"Dundonald","en":"Dundonald"}},{"name":"Greenisland","state_code":"BFS","latitude":"54.70081000","longitude":"-5.87479000","population":5073,"timezone":"Europe/London","type":"city","translations":{"es":"Groenlandia","en":"Greenisland"}},{"name":"Holywood","state_code":"BFS","latitude":"54.63863000","longitude":"-5.82473000","population":13109,"timezone":"Europe/London","type":"city","translations":{"es":"Hollywood","en":"Holywood"}},{"name":"Jordanstown","state_code":"BFS","latitude":"54.68333000","longitude":"-5.90000000","population":5494,"timezone":"Europe/London","type":"city","translations":{"es":"Jordanstown","en":"Jordanstown"}},{"name":"Newtownabbey","state_code":"BFS","latitude":"54.65983000","longitude":"-5.90858000","population":62056,"timezone":"Europe/London","type":"adm2","translations":{"es":"Abadía de Newtown","en":"Newtownabbey"}},{"name":"Belvedere","state_code":"BEX","latitude":"51.49114000","longitude":"0.15136000","population":11000,"timezone":"Europe/London","type":"section","translations":{"es":"Belvedere","en":"Belvedere"}},{"name":"Bexley","state_code":"BEX","latitude":"51.44162000","longitude":"0.14866000","population":228000,"timezone":"Europe/London","type":"locality","translations":{"es":"Bexley","en":"Bexley"}},{"name":"Darenth","state_code":"BEX","latitude":"51.42137000","longitude":"0.25784000","population":2481,"timezone":"Europe/London","type":"city","translations":{"es":"Darenth","en":"Darenth"}},{"name":"Dartford","state_code":"BEX","latitude":"51.44657000","longitude":"0.21423000","population":56694,"timezone":"Europe/London","type":"city","translations":{"es":"Dartford","en":"Dartford"}},{"name":"Erith","state_code":"BEX","latitude":"51.48315000","longitude":"0.17484000","population":9811,"timezone":"Europe/London","type":"city","translations":{"es":"Erith","en":"Erith"}},{"name":"Eynsford","state_code":"BEX","latitude":"51.36765000","longitude":"0.21132000","population":2791,"timezone":"Europe/London","type":"city","translations":{"es":"Eynsford","en":"Eynsford"}},{"name":"Greenhithe","state_code":"BEX","latitude":"51.45026000","longitude":"0.28539000","population":6567,"timezone":"Europe/London","type":"city","translations":{"es":"Greenhithe","en":"Greenhithe"}},{"name":"Hartley","state_code":"BEX","latitude":"51.38673000","longitude":"0.30367000","population":16302,"timezone":"Europe/London","type":"city","translations":{"es":"Hartley","en":"Hartley"}},{"name":"Horton Kirby","state_code":"BEX","latitude":"51.39481000","longitude":"0.24483000","population":1241,"timezone":"Europe/London","type":"city","translations":{"es":"Horton Kirby","en":"Horton Kirby"}},{"name":"Longfield","state_code":"BEX","latitude":"51.39690000","longitude":"0.30212000","population":16808,"timezone":"Europe/London","type":"city","translations":{"es":"Longfield","en":"Longfield"}},{"name":"Purfleet","state_code":"BEX","latitude":"51.48390000","longitude":"0.24247000","population":null,"timezone":"Europe/London","type":"city","translations":{"es":"Purfleet","en":"Purfleet"}},{"name":"Sidcup","state_code":"BEX","latitude":"51.42619000","longitude":"0.10360000","population":10400,"timezone":"Europe/London","type":"city","translations":{"es":"Sidcup","en":"Sidcup"}},{"name":"Swanley","state_code":"BEX","latitude":"51.39717000","longitude":"0.17321000","population":17805,"timezone":"Europe/London","type":"city","translations":{"es":"Swanley","en":"Swanley"}},{"name":"Welling","state_code":"BEX","latitude":"51.46246000","longitude":"0.10759000","population":42500,"timezone":"Europe/London","type":"city","translations":{"es":"Welling","en":"Welling"}},{"name":"West Kingsdown","state_code":"BEX","latitude":"51.34281000","longitude":"0.26127000","population":5463,"timezone":"Europe/London","type":"city","translations":{"es":"West Kingsdown","en":"West Kingsdown"}},{"name":"Aston","state_code":"BIR","latitude":"52.50000000","longitude":"-1.88333000","population":32286,"timezone":"Europe/London","type":"section","translations":{"es":"Aston","en":"Aston"}},{"name":"Barnt Green","state_code":"BIR","latitude":"52.35902000","longitude":"-2.00715000","population":5366,"timezone":"Europe/London","type":"city","translations":{"es":"Barnt Green","en":"Barnt Green"}},{"name":"Bartley Green","state_code":"BIR","latitude":"52.43532000","longitude":"-1.99707000","population":25473,"timezone":"Europe/London","type":"city","translations":{"es":"Bartley Green","en":"Bartley Green"}},{"name":"Birmingham","state_code":"BIR","latitude":"52.48142000","longitude":"-1.89983000","population":1137100,"timezone":"Europe/London","type":"adm2","translations":{"es":"Birmingham","en":"Birmingham"}},{"name":"Castle Vale","state_code":"BIR","latitude":"52.51879000","longitude":"-1.79683000","population":10000,"timezone":"Europe/London","type":"cities","translations":{"es":"Valle del castillo","en":"Castle Vale"}},{"name":"City and Borough of Birmingham","state_code":"BIR","latitude":"52.48048000","longitude":"-1.89823000","population":1157603,"timezone":"Europe/London","type":"adm2","translations":{"es":"Ciudad y distrito de Birmingham","en":"City and Borough of Birmingham"}},{"name":"Curdworth","state_code":"BIR","latitude":"52.53382000","longitude":"-1.73687000","population":1146,"timezone":"Europe/London","type":"city","translations":{"es":"Curdworth","en":"Curdworth"}},{"name":"Hockley","state_code":"BIR","latitude":"52.50000000","longitude":"-1.91667000","population":13919,"timezone":"Europe/London","type":"section","translations":{"es":"Hockley","en":"Hockley"}},{"name":"Kingsbury","state_code":"BIR","latitude":"52.56106000","longitude":"-1.67936000","population":3730,"timezone":"Europe/London","type":"city","translations":{"es":"Kingsbury","en":"Kingsbury"}},{"name":"Sutton Coldfield","state_code":"BIR","latitude":"52.56667000","longitude":"-1.81667000","population":96475,"timezone":"Europe/London","type":"city","translations":{"es":"Sutton Coldfield","en":"Sutton Coldfield"}},{"name":"Washwood Heath","state_code":"BIR","latitude":"52.50054000","longitude":"-1.82657000","population":32921,"timezone":"Europe/London","type":"section","translations":{"es":"Brezal de Washwood","en":"Washwood Heath"}},{"name":"Water Orton","state_code":"BIR","latitude":"52.51575000","longitude":"-1.74005000","population":3482,"timezone":"Europe/London","type":"city","translations":{"es":"Agua Orton","en":"Water Orton"}},{"name":"Accrington","state_code":"BBD","latitude":"53.75379000","longitude":"-2.35863000","population":35318,"timezone":"Europe/London","type":"city","translations":{"es":"Accrington","en":"Accrington"}},{"name":"Blackburn","state_code":"BBD","latitude":"53.75000000","longitude":"-2.48333000","population":117963,"timezone":"Europe/London","type":"adm2","translations":{"es":"Blackburn","en":"Blackburn"}},{"name":"Blackburn with Darwen","state_code":"BBD","latitude":"53.66667000","longitude":"-2.46667000","population":155762,"timezone":"Europe/London","type":"city","translations":{"es":"Blackburn con Darwen","en":"Blackburn with Darwen"}},{"name":"Brierfield","state_code":"BBD","latitude":"53.82468000","longitude":"-2.23415000","population":9472,"timezone":"Europe/London","type":"city","translations":{"es":"Brierfield","en":"Brierfield"}},{"name":"Brinscall","state_code":"BBD","latitude":"53.68900000","longitude":"-2.57208000","population":2286,"timezone":"Europe/London","type":"city","translations":{"es":"Brinscall","en":"Brinscall"}},{"name":"Burnley","state_code":"BBD","latitude":"53.80000000","longitude":"-2.23333000","population":149422,"timezone":"Europe/London","type":"adm4","translations":{"es":"Burnley","en":"Burnley"}},{"name":"Chorley","state_code":"BBD","latitude":"53.65000000","longitude":"-2.61667000","population":33888,"timezone":"Europe/London","type":"adm3","translations":{"es":"Chorley","en":"Chorley"}},{"name":"Church","state_code":"BBD","latitude":"53.75177000","longitude":"-2.39121000","population":5021,"timezone":"Europe/London","type":"city","translations":{"es":"Iglesia","en":"Church"}},{"name":"Clayton le Moors","state_code":"BBD","latitude":"53.76667000","longitude":"-2.38333000","population":8474,"timezone":"Europe/London","type":"city","translations":{"es":"Clayton le Moors","en":"Clayton le Moors"}},{"name":"Clayton-le-Woods","state_code":"BBD","latitude":"53.69689000","longitude":"-2.66818000","population":16041,"timezone":"Europe/London","type":"city","translations":{"es":"Clayton-le-Woods","en":"Clayton-le-Woods"}},{"name":"Darwen","state_code":"BBD","latitude":"53.69803000","longitude":"-2.46494000","population":28124,"timezone":"Europe/London","type":"city","translations":{"es":"Darwen","en":"Darwen"}},{"name":"Edgworth","state_code":"BBD","latitude":"53.64636000","longitude":"-2.39401000","population":2321,"timezone":"Europe/London","type":"city","translations":{"es":"Edgworth","en":"Edgworth"}},{"name":"Euxton","state_code":"BBD","latitude":"53.66990000","longitude":"-2.67615000","population":7863,"timezone":"Europe/London","type":"city","translations":{"es":"Euxton","en":"Euxton"}},{"name":"Great Harwood","state_code":"BBD","latitude":"53.78512000","longitude":"-2.40865000","population":10890,"timezone":"Europe/London","type":"city","translations":{"es":"Gran Harwood","en":"Great Harwood"}},{"name":"Hameldon Hill","state_code":"BBD","latitude":"53.75570000","longitude":"-2.29190000","population":1500,"timezone":"Europe/London","type":"section","translations":{"es":"Colina de Hameldon","en":"Hameldon Hill"}},{"name":"Hapton","state_code":"BBD","latitude":"53.78333000","longitude":"-2.31667000","population":1979,"timezone":"Europe/London","type":"city","translations":{"es":"Haptón","en":"Hapton"}},{"name":"Haslingden","state_code":"BBD","latitude":"53.70326000","longitude":"-2.32382000","population":15204,"timezone":"Europe/London","type":"city","translations":{"es":"Haslingden","en":"Haslingden"}},{"name":"Leyland","state_code":"BBD","latitude":"53.69786000","longitude":"-2.68758000","population":37614,"timezone":"Europe/London","type":"city","translations":{"es":"Leyland","en":"Leyland"}},{"name":"Padiham","state_code":"BBD","latitude":"53.80187000","longitude":"-2.31511000","population":10474,"timezone":"Europe/London","type":"city","translations":{"es":"Padiham","en":"Padiham"}},{"name":"Rishton","state_code":"BBD","latitude":"53.76806000","longitude":"-2.41444000","population":6625,"timezone":"Europe/London","type":"city","translations":{"es":"Rishton","en":"Rishton"}},{"name":"Askam in Furness","state_code":"BPL","latitude":"54.18718000","longitude":"-3.20467000","population":3274,"timezone":"Europe/London","type":"city","translations":{"es":"Askam en Furness","en":"Askam in Furness"}},{"name":"Banks","state_code":"BPL","latitude":"53.68333000","longitude":"-2.91667000","population":3572,"timezone":"Europe/London","type":"city","translations":{"es":"bancos","en":"Banks"}},{"name":"Barrow in Furness","state_code":"BPL","latitude":"54.11094000","longitude":"-3.22758000","population":45865,"timezone":"Europe/London","type":"city","translations":{"es":"Túmulo en Furness","en":"Barrow in Furness"}},{"name":"Blackpool","state_code":"BPL","latitude":"53.81667000","longitude":"-3.05000000","population":139305,"timezone":"Europe/London","type":"adm2","translations":{"es":"Blackpool","en":"Blackpool"}},{"name":"Cleveleys","state_code":"BPL","latitude":"53.87750000","longitude":"-3.03987000","population":15000,"timezone":"Europe/London","type":"city","translations":{"es":"Cleveleys","en":"Cleveleys"}},{"name":"Dalton in Furness","state_code":"BPL","latitude":"54.15796000","longitude":"-3.17977000","population":7827,"timezone":"Europe/London","type":"city","translations":{"es":"Dalton en Furness","en":"Dalton in Furness"}},{"name":"Elswick","state_code":"BPL","latitude":"53.83836000","longitude":"-2.88147000","population":1079,"timezone":"Europe/London","type":"city","translations":{"es":"Elswick","en":"Elswick"}},{"name":"Fleetwood","state_code":"BPL","latitude":"53.92527000","longitude":"-3.01085000","population":26226,"timezone":"Europe/London","type":"city","translations":{"es":"Fleetwood","en":"Fleetwood"}},{"name":"Flookburgh","state_code":"BPL","latitude":"54.17415000","longitude":"-2.97214000","population":1305,"timezone":"Europe/London","type":"city","translations":{"es":"Flookburgh","en":"Flookburgh"}},{"name":"Freckleton","state_code":"BPL","latitude":"53.75433000","longitude":"-2.86489000","population":8049,"timezone":"Europe/London","type":"adm4","translations":{"es":"Freckleton","en":"Freckleton"}},{"name":"Fylde","state_code":"BPL","latitude":"53.83333000","longitude":"-2.91667000","population":83008,"timezone":"Europe/London","type":"city","translations":{"es":"Fylde","en":"Fylde"}},{"name":"Grange-over-Sands","state_code":"BPL","latitude":"54.18508000","longitude":"-2.92488000","population":4277,"timezone":"Europe/London","type":"city","translations":{"es":"Grange-over-Sands","en":"Grange-over-Sands"}},{"name":"Great Eccleston","state_code":"BPL","latitude":"53.85315000","longitude":"-2.87026000","population":1777,"timezone":"Europe/London","type":"city","translations":{"es":"Gran Eccleston","en":"Great Eccleston"}},{"name":"Great Marton","state_code":"BPL","latitude":"53.81185000","longitude":"-3.02261000","population":1603,"timezone":"Europe/London","type":"city","translations":{"es":"Gran Marton","en":"Great Marton"}},{"name":"Haverigg","state_code":"BPL","latitude":"54.19973000","longitude":"-3.29263000","population":1849,"timezone":"Europe/London","type":"city","translations":{"es":"Haverigg","en":"Haverigg"}},{"name":"Heysham","state_code":"BPL","latitude":"54.04367000","longitude":"-2.89322000","population":17016,"timezone":"Europe/London","type":"city","translations":{"es":"Heysham","en":"Heysham"}},{"name":"Kirkham","state_code":"BPL","latitude":"53.78244000","longitude":"-2.87189000","population":11915,"timezone":"Europe/London","type":"city","translations":{"es":"Kirkham","en":"Kirkham"}},{"name":"Lytham St Annes","state_code":"BPL","latitude":"53.74260000","longitude":"-2.99700000","population":42954,"timezone":"Europe/London","type":"city","translations":{"es":"Lytham St Annes","en":"Lytham St Annes"}},{"name":"Millom","state_code":"BPL","latitude":"54.21072000","longitude":"-3.27200000","population":7240,"timezone":"Europe/London","type":"city","translations":{"es":"Millom","en":"Millom"}},{"name":"Poulton-le-Fylde","state_code":"BPL","latitude":"53.83333000","longitude":"-2.98333000","population":19914,"timezone":"Europe/London","type":"city","translations":{"es":"Poulton-le-Fylde","en":"Poulton-le-Fylde"}},{"name":"Preesall","state_code":"BPL","latitude":"53.91820000","longitude":"-2.96633000","population":5656,"timezone":"Europe/London","type":"city","translations":{"es":"Preesall","en":"Preesall"}},{"name":"Swarthmoor","state_code":"BPL","latitude":"54.18466000","longitude":"-3.11707000","population":1076,"timezone":"Europe/London","type":"city","translations":{"es":"Swarthmoor","en":"Swarthmoor"}},{"name":"Thornton-Cleveleys","state_code":"BPL","latitude":"53.87389000","longitude":"-3.02244000","population":31157,"timezone":"Europe/London","type":"locality","translations":{"es":"Thornton-Cleveleys","en":"Thornton-Cleveleys"}},{"name":"Ulverston","state_code":"BPL","latitude":"54.19594000","longitude":"-3.09626000","population":11822,"timezone":"Europe/London","type":"city","translations":{"es":"Ulverston","en":"Ulverston"}},{"name":"Wrea Green","state_code":"BPL","latitude":"53.77651000","longitude":"-2.91573000","population":1373,"timezone":"Europe/London","type":"city","translations":{"es":"Corona verde","en":"Wrea Green"}},{"name":"Abertillery","state_code":"BGW","latitude":"51.72981000","longitude":"-3.13432000","population":10925,"timezone":"Europe/London","type":"city","translations":{"es":"Abertillería","en":"Abertillery"}},{"name":"Blaenau Gwent","state_code":"BGW","latitude":"51.75000000","longitude":"-3.16667000","population":null,"timezone":"Europe/London","type":"adm3","translations":{"es":"Blaenau Gwent","en":"Blaenau Gwent"}},{"name":"Blaenavon","state_code":"BGW","latitude":"51.77402000","longitude":"-3.08537000","population":5647,"timezone":"Europe/London","type":"city","translations":{"es":"Blaenavon","en":"Blaenavon"}},{"name":"Brynmawr","state_code":"BGW","latitude":"51.80000000","longitude":"-3.18333000","population":14924,"timezone":"Europe/London","type":"adm3","translations":{"es":"Brynmawr","en":"Brynmawr"}},{"name":"Crickhowell","state_code":"BGW","latitude":"51.85992000","longitude":"-3.13771000","population":2116,"timezone":"Europe/London","type":"city","translations":{"es":"Crickhowell","en":"Crickhowell"}},{"name":"Cwm","state_code":"BGW","latitude":"51.74000000","longitude":"-3.18028000","population":2739,"timezone":"Europe/London","type":"adm3","translations":{"es":"Cwm","en":"Cwm"}},{"name":"Ebbw Vale","state_code":"BGW","latitude":"51.77714000","longitude":"-3.20792000","population":33068,"timezone":"Europe/London","type":"adm2","translations":{"es":"Ebbw Vale","en":"Ebbw Vale"}},{"name":"Gilwern","state_code":"BGW","latitude":"51.82475000","longitude":"-3.09355000","population":2263,"timezone":"Europe/London","type":"city","translations":{"es":"Gilwern","en":"Gilwern"}},{"name":"Govilon","state_code":"BGW","latitude":"51.81928000","longitude":"-3.06295000","population":1447,"timezone":"Europe/London","type":"city","translations":{"es":"Govilón","en":"Govilon"}},{"name":"Llangynidr","state_code":"BGW","latitude":"51.86730000","longitude":"-3.22762000","population":1035,"timezone":"Europe/London","type":"city","translations":{"es":"Llangynidr","en":"Llangynidr"}},{"name":"New Tredegar","state_code":"BGW","latitude":"51.72051000","longitude":"-3.24130000","population":4650,"timezone":"Europe/London","type":"city","translations":{"es":"Nuevo Tredegar","en":"New Tredegar"}},{"name":"Talgarth","state_code":"BGW","latitude":"51.99588000","longitude":"-3.23205000","population":1268,"timezone":"Europe/London","type":"city","translations":{"es":"Talgarth","en":"Talgarth"}},{"name":"Tredegar","state_code":"BGW","latitude":"51.77251000","longitude":"-3.24679000","population":14740,"timezone":"Europe/London","type":"city","translations":{"es":"Tredegar","en":"Tredegar"}},{"name":"Victoria","state_code":"BGW","latitude":"51.75000000","longitude":"-3.20000000","population":9153,"timezone":"Europe/London","type":"locality","translations":{"es":"Victoria","en":"Victoria"}},{"name":"Berwick-Upon-Tweed","state_code":"BOL","latitude":"55.76536000","longitude":"-2.01186000","population":11630,"timezone":"Europe/London","type":"city","translations":{"es":"Berwick-upon-Tweed","en":"Berwick-Upon-Tweed"}},{"name":"Bere Regis","state_code":"BCP","latitude":"50.75371000","longitude":"-2.21553000","population":1304,"timezone":"Europe/London","type":"city","translations":{"es":"Bere Regis","en":"Bere Regis"}},{"name":"Blandford Forum","state_code":"BCP","latitude":"50.86073000","longitude":"-2.16174000","population":10607,"timezone":"Europe/London","type":"city","translations":{"es":"Foro de Blandford","en":"Blandford Forum"}},{"name":"Bournemouth","state_code":"BCP","latitude":"50.71918000","longitude":"-1.87806000","population":187503,"timezone":"Europe/London","type":"adm2","translations":{"es":"Bournemouth","en":"Bournemouth"}},{"name":"Bovington Camp","state_code":"BCP","latitude":"50.69782000","longitude":"-2.23506000","population":2586,"timezone":"Europe/London","type":"city","translations":{"es":"Campamento de Bovington","en":"Bovington Camp"}},{"name":"Broadstone","state_code":"BCP","latitude":"50.75717000","longitude":"-1.99406000","population":10256,"timezone":"Europe/London","type":"city","translations":{"es":"Piedra ancha","en":"Broadstone"}},{"name":"Canford Heath","state_code":"BCP","latitude":"50.75100000","longitude":"-1.96862000","population":14418,"timezone":"Europe/London","type":"section","translations":{"es":"Canford Heath","en":"Canford Heath"}},{"name":"Charlton Marshall","state_code":"BCP","latitude":"50.83591000","longitude":"-2.14231000","population":1240,"timezone":"Europe/London","type":"city","translations":{"es":"Charlton Marshall","en":"Charlton Marshall"}},{"name":"Child Okeford","state_code":"BCP","latitude":"50.91370000","longitude":"-2.23679000","population":1170,"timezone":"Europe/London","type":"city","translations":{"es":"Niño Okeford","en":"Child Okeford"}},{"name":"Christchurch","state_code":"BCP","latitude":"50.73583000","longitude":"-1.78129000","population":42396,"timezone":"Europe/London","type":"city","translations":{"es":"Christchurch","en":"Christchurch"}},{"name":"Corfe Castle","state_code":"BCP","latitude":"50.63947000","longitude":"-2.05672000","population":1284,"timezone":"Europe/London","type":"city","translations":{"es":"Castillo de Corfe","en":"Corfe Castle"}},{"name":"Ferndown","state_code":"BCP","latitude":"50.80743000","longitude":"-1.89975000","population":17650,"timezone":"Europe/London","type":"city","translations":{"es":"Ferndown","en":"Ferndown"}},{"name":"Lytchett Matravers","state_code":"BCP","latitude":"50.75826000","longitude":"-2.07806000","population":3570,"timezone":"Europe/London","type":"city","translations":{"es":"Lytchett Matravers","en":"Lytchett Matravers"}},{"name":"Motcombe","state_code":"BCP","latitude":"51.02929000","longitude":"-2.21627000","population":1014,"timezone":"Europe/London","type":"city","translations":{"es":"Motcombe","en":"Motcombe"}},{"name":"Parkstone","state_code":"BCP","latitude":"50.72994000","longitude":"-1.94492000","population":10779,"timezone":"Europe/London","type":"city","translations":{"es":"Piedra de parque","en":"Parkstone"}},{"name":"Pimperne","state_code":"BCP","latitude":"50.88374000","longitude":"-2.13620000","population":1080,"timezone":"Europe/London","type":"city","translations":{"es":"Pimperne","en":"Pimperne"}},{"name":"Poole","state_code":"BCP","latitude":"50.73333000","longitude":"-1.96667000","population":2400,"timezone":"Europe/London","type":"city","translations":{"es":"Poole","en":"Poole"}},{"name":"Shaftesbury","state_code":"BCP","latitude":"51.00528000","longitude":"-2.19333000","population":7314,"timezone":"Europe/London","type":"city","translations":{"es":"Shaftesbury","en":"Shaftesbury"}},{"name":"Shillingstone","state_code":"BCP","latitude":"50.89567000","longitude":"-2.24495000","population":1165,"timezone":"Europe/London","type":"city","translations":{"es":"Shillingstone","en":"Shillingstone"}},{"name":"St Leonards","state_code":"BCP","latitude":"50.83077000","longitude":"-1.84377000","population":5984,"timezone":"Europe/London","type":"city","translations":{"es":"San Leonardo","en":"St Leonards"}},{"name":"Sturminster Marshall","state_code":"BCP","latitude":"50.79968000","longitude":"-2.07615000","population":1490,"timezone":"Europe/London","type":"city","translations":{"es":"Mariscal de Sturminster","en":"Sturminster Marshall"}},{"name":"Swanage","state_code":"BCP","latitude":"50.60923000","longitude":"-1.96260000","population":9426,"timezone":"Europe/London","type":"city","translations":{"es":"Swanage","en":"Swanage"}},{"name":"Three Legged Cross","state_code":"BCP","latitude":"50.85000000","longitude":"-1.88333000","population":1492,"timezone":"Europe/London","type":"city","translations":{"es":"Cruz de tres patas","en":"Three Legged Cross"}},{"name":"Verwood","state_code":"BCP","latitude":"50.87575000","longitude":"-1.87023000","population":15172,"timezone":"Europe/London","type":"city","translations":{"es":"Verwood","en":"Verwood"}},{"name":"Wareham","state_code":"BCP","latitude":"50.68792000","longitude":"-2.11058000","population":7592,"timezone":"Europe/London","type":"city","translations":{"es":"Wareham","en":"Wareham"}},{"name":"Wimborne Minster","state_code":"BCP","latitude":"50.78333000","longitude":"-1.98333000","population":14884,"timezone":"Europe/London","type":"city","translations":{"es":"Catedral de Wimborne","en":"Wimborne Minster"}},{"name":"Wool","state_code":"BCP","latitude":"50.67966000","longitude":"-2.21890000","population":2724,"timezone":"Europe/London","type":"city","translations":{"es":"Lana","en":"Wool"}},{"name":"Aldershot","state_code":"BRC","latitude":"51.24827000","longitude":"-0.76389000","population":57211,"timezone":"Europe/London","type":"city","translations":{"es":"Aldershot","en":"Aldershot"}},{"name":"Ascot","state_code":"BRC","latitude":"51.41082000","longitude":"-0.67480000","population":17899,"timezone":"Europe/London","type":"city","translations":{"es":"fular","en":"Ascot"}},{"name":"Bagshot","state_code":"BRC","latitude":"51.36069000","longitude":"-0.68802000","population":5430,"timezone":"Europe/London","type":"city","translations":{"es":"Bagshot","en":"Bagshot"}},{"name":"Bracknell","state_code":"BRC","latitude":"51.41363000","longitude":"-0.75054000","population":76103,"timezone":"Europe/London","type":"adm2","translations":{"es":"Bracknell","en":"Bracknell"}},{"name":"Bracknell Forest","state_code":"BRC","latitude":"51.41667000","longitude":"-0.75000000","population":null,"timezone":"Europe/London","type":"city","translations":{"es":"Bosque de Bracknell","en":"Bracknell Forest"}},{"name":"Camberley","state_code":"BRC","latitude":"51.33705000","longitude":"-0.74261000","population":30155,"timezone":"Europe/London","type":"city","translations":{"es":"Camberley","en":"Camberley"}},{"name":"Chobham","state_code":"BRC","latitude":"51.34836000","longitude":"-0.60639000","population":2835,"timezone":"Europe/London","type":"city","translations":{"es":"Chobham","en":"Chobham"}},{"name":"Crowthorne","state_code":"BRC","latitude":"51.37027000","longitude":"-0.79219000","population":25522,"timezone":"Europe/London","type":"city","translations":{"es":"Crowthorne","en":"Crowthorne"}},{"name":"Elstead","state_code":"BRC","latitude":"51.18548000","longitude":"-0.70536000","population":2544,"timezone":"Europe/London","type":"city","translations":{"es":"Elstead","en":"Elstead"}},{"name":"Fairlands","state_code":"BRC","latitude":"51.26178000","longitude":"-0.62141000","population":1412,"timezone":"Europe/London","type":"city","translations":{"es":"Tierras de feria","en":"Fairlands"}},{"name":"Farnborough","state_code":"BRC","latitude":"51.29424000","longitude":"-0.75565000","population":59902,"timezone":"Europe/London","type":"city","translations":{"es":"Farnborough","en":"Farnborough"}},{"name":"Farnham","state_code":"BRC","latitude":"51.21444000","longitude":"-0.80054000","population":36971,"timezone":"Europe/London","type":"adm4","translations":{"es":"Farnham","en":"Farnham"}},{"name":"Frimley","state_code":"BRC","latitude":"51.31667000","longitude":"-0.74544000","population":12739,"timezone":"Europe/London","type":"city","translations":{"es":"Frimley","en":"Frimley"}},{"name":"Knaphill","state_code":"BRC","latitude":"51.32010000","longitude":"-0.61584000","population":8635,"timezone":"Europe/London","type":"city","translations":{"es":"Knaphill","en":"Knaphill"}},{"name":"Lightwater","state_code":"BRC","latitude":"51.34846000","longitude":"-0.67147000","population":6791,"timezone":"Europe/London","type":"city","translations":{"es":"Lightwater","en":"Lightwater"}},{"name":"Normandy","state_code":"BRC","latitude":"51.25751000","longitude":"-0.67472000","population":1563,"timezone":"Europe/London","type":"city","translations":{"es":"Normandía","en":"Normandy"}},{"name":"Windlesham","state_code":"BRC","latitude":"51.36509000","longitude":"-0.65476000","population":4194,"timezone":"Europe/London","type":"city","translations":{"es":"Windlesham","en":"Windlesham"}},{"name":"Woking","state_code":"BRC","latitude":"51.31903000","longitude":"-0.55893000","population":103932,"timezone":"Europe/London","type":"city","translations":{"es":"Trabajo","en":"Woking"}},{"name":"Wood Street Village","state_code":"BRC","latitude":"51.25098000","longitude":"-0.63695000","population":1619,"timezone":"Europe/London","type":"city","translations":{"es":"Pueblo de Wood Street","en":"Wood Street Village"}},{"name":"Addingham","state_code":"BRD","latitude":"53.94452000","longitude":"-1.88424000","population":3784,"timezone":"Europe/London","type":"adm3","translations":{"es":"Addingham","en":"Addingham"}},{"name":"Baildon","state_code":"BRD","latitude":"53.84711000","longitude":"-1.78785000","population":17053,"timezone":"Europe/London","type":"adm3","translations":{"es":"Baildon","en":"Baildon"}},{"name":"Bingley","state_code":"BRD","latitude":"53.84861000","longitude":"-1.83857000","population":23274,"timezone":"Europe/London","type":"city","translations":{"es":"Bingley","en":"Bingley"}},{"name":"Bradford","state_code":"BRD","latitude":"53.83333000","longitude":"-1.83333000","population":293277,"timezone":"Europe/London","type":"city","translations":{"es":"Bradford","en":"Bradford"}},{"name":"Burley in Wharfedale","state_code":"BRD","latitude":"53.91020000","longitude":"-1.75798000","population":5996,"timezone":"Europe/London","type":"city","translations":{"es":"Burley en Wharfedale","en":"Burley in Wharfedale"}},{"name":"Cleckheaton","state_code":"BRD","latitude":"53.72405000","longitude":"-1.71294000","population":27393,"timezone":"Europe/London","type":"city","translations":{"es":"Cleckheaton","en":"Cleckheaton"}},{"name":"Cross Hills","state_code":"BRD","latitude":"53.90606000","longitude":"-1.98492000","population":11731,"timezone":"Europe/London","type":"city","translations":{"es":"Colinas cruzadas","en":"Cross Hills"}},{"name":"Cullingworth","state_code":"BRD","latitude":"53.82444000","longitude":"-1.89730000","population":2596,"timezone":"Europe/London","type":"city","translations":{"es":"Cullingworth","en":"Cullingworth"}},{"name":"Denholme","state_code":"BRD","latitude":"53.80189000","longitude":"-1.89503000","population":2715,"timezone":"Europe/London","type":"city","translations":{"es":"Denholme","en":"Denholme"}},{"name":"Embsay","state_code":"BRD","latitude":"53.97664000","longitude":"-1.99282000","population":1679,"timezone":"Europe/London","type":"city","translations":{"es":"Embsay","en":"Embsay"}},{"name":"Glusburn","state_code":"BRD","latitude":"53.90000000","longitude":"-2.00000000","population":7425,"timezone":"Europe/London","type":"city","translations":{"es":"Glusburn","en":"Glusburn"}},{"name":"Guiseley","state_code":"BRD","latitude":"53.87561000","longitude":"-1.71232000","population":21000,"timezone":"Europe/London","type":"city","translations":{"es":"Guiseley","en":"Guiseley"}},{"name":"Ilkley","state_code":"BRD","latitude":"53.92449000","longitude":"-1.82326000","population":15035,"timezone":"Europe/London","type":"city","translations":{"es":"Ilkley","en":"Ilkley"}},{"name":"Keighley","state_code":"BRD","latitude":"53.86791000","longitude":"-1.90664000","population":57339,"timezone":"Europe/London","type":"adm3","translations":{"es":"Keighley","en":"Keighley"}},{"name":"Low Bradley","state_code":"BRD","latitude":"53.93217000","longitude":"-1.99646000","population":1244,"timezone":"Europe/London","type":"city","translations":{"es":"Bradley bajo","en":"Low Bradley"}},{"name":"Menston","state_code":"BRD","latitude":"53.89041000","longitude":"-1.74395000","population":4798,"timezone":"Europe/London","type":"city","translations":{"es":"Menston","en":"Menston"}},{"name":"Otley","state_code":"BRD","latitude":"53.90553000","longitude":"-1.69383000","population":14668,"timezone":"Europe/London","type":"adm3","translations":{"es":"Otley","en":"Otley"}},{"name":"Pudsey","state_code":"BRD","latitude":"53.79538000","longitude":"-1.66134000","population":33109,"timezone":"Europe/London","type":"city","translations":{"es":"Pudsey","en":"Pudsey"}},{"name":"Queensbury","state_code":"BRD","latitude":"53.76657000","longitude":"-1.84912000","population":8912,"timezone":"Europe/London","type":"city","translations":{"es":"Queensbury","en":"Queensbury"}},{"name":"Shipley","state_code":"BRD","latitude":"53.83333000","longitude":"-1.76667000","population":28544,"timezone":"Europe/London","type":"city","translations":{"es":"Shipley","en":"Shipley"}},{"name":"Silsden","state_code":"BRD","latitude":"53.91443000","longitude":"-1.93802000","population":8708,"timezone":"Europe/London","type":"city","translations":{"es":"Silsden","en":"Silsden"}},{"name":"Skipton","state_code":"BRD","latitude":"53.96144000","longitude":"-2.01676000","population":15369,"timezone":"Europe/London","type":"city","translations":{"es":"Skipton","en":"Skipton"}},{"name":"Steeton","state_code":"BRD","latitude":"53.88333000","longitude":"-1.95000000","population":4196,"timezone":"Europe/London","type":"city","translations":{"es":"Steeton","en":"Steeton"}},{"name":"Wilsden","state_code":"BRD","latitude":"53.82084000","longitude":"-1.85959000","population":4631,"timezone":"Europe/London","type":"city","translations":{"es":"Wilsden","en":"Wilsden"}},{"name":"Yeadon","state_code":"BRD","latitude":"53.86437000","longitude":"-1.68743000","population":37379,"timezone":"Europe/London","type":"city","translations":{"es":"Yeadon","en":"Yeadon"}},{"name":"Bletchley","state_code":"BEN","latitude":"51.99334000","longitude":"-0.73471000","population":50193,"timezone":"Europe/London","type":"city","translations":{"es":"Bletchley","en":"Bletchley"}},{"name":"Bow Brickhill","state_code":"BEN","latitude":"52.00280000","longitude":"-0.68064000","population":625,"timezone":"Europe/London","type":"adm3","translations":{"es":"Bow Brickhill","en":"Bow Brickhill"}},{"name":"Cranfield","state_code":"BEN","latitude":"52.06869000","longitude":"-0.60884000","population":5369,"timezone":"Europe/London","type":"adm3","translations":{"es":"Cranfield","en":"Cranfield"}},{"name":"Heath and Reach","state_code":"BEN","latitude":"51.94517000","longitude":"-0.65697000","population":1451,"timezone":"Europe/London","type":"city","translations":{"es":"Salud y alcance","en":"Heath and Reach"}},{"name":"Husborne Crawley","state_code":"BEN","latitude":"52.01637000","longitude":"-0.61056000","population":190,"timezone":"Europe/London","type":"adm3","translations":{"es":"Husborne Crawley","en":"Husborne Crawley"}},{"name":"Newton Longville","state_code":"BEN","latitude":"51.97600000","longitude":"-0.76595000","population":1874,"timezone":"Europe/London","type":"city","translations":{"es":"Newton Longville","en":"Newton Longville"}},{"name":"Stewkley","state_code":"BEN","latitude":"51.92744000","longitude":"-0.76381000","population":1869,"timezone":"Europe/London","type":"city","translations":{"es":"Stewkley","en":"Stewkley"}},{"name":"Water Eaton","state_code":"BEN","latitude":"51.98697000","longitude":"-0.72188000","population":8412,"timezone":"Europe/London","type":"locality","translations":{"es":"Agua Eaton","en":"Water Eaton"}},{"name":"Wing","state_code":"BEN","latitude":"51.89524000","longitude":"-0.71956000","population":2589,"timezone":"Europe/London","type":"city","translations":{"es":"Ala","en":"Wing"}},{"name":"Woburn","state_code":"BEN","latitude":"51.98865000","longitude":"-0.61903000","population":957,"timezone":"Europe/London","type":"adm3","translations":{"es":"Woburn","en":"Woburn"}},{"name":"Woburn Sands","state_code":"BEN","latitude":"52.01579000","longitude":"-0.64982000","population":5074,"timezone":"Europe/London","type":"adm3","translations":{"es":"Arenas de Woburn","en":"Woburn Sands"}},{"name":"Aberkenfig","state_code":"BGE","latitude":"51.54000000","longitude":"-3.59556000","population":10083,"timezone":"Europe/London","type":"city","translations":{"es":"Aberkenfig","en":"Aberkenfig"}},{"name":"Betws","state_code":"BGE","latitude":"51.56917000","longitude":"-3.58833000","population":2398,"timezone":"Europe/London","type":"city","translations":{"es":"Entre","en":"Betws"}},{"name":"Bridgend","state_code":"BGE","latitude":"51.50583000","longitude":"-3.57722000","population":49404,"timezone":"Europe/London","type":"adm2","translations":{"es":"Bridgend","en":"Bridgend"}},{"name":"Bridgend county borough","state_code":"BGE","latitude":"51.55000000","longitude":"-3.58333000","population":4288,"timezone":"Europe/London","type":"city","translations":{"es":"Municipio del condado de Bridgend","en":"Bridgend county borough"}},{"name":"Brynna","state_code":"BGE","latitude":"51.53845000","longitude":"-3.46378000","population":6686,"timezone":"Europe/London","type":"city","translations":{"es":"Brynna","en":"Brynna"}},{"name":"Cefn Cribwr","state_code":"BGE","latitude":"51.53167000","longitude":"-3.65278000","population":1530,"timezone":"Europe/London","type":"adm3","translations":{"es":"Cefn Cribwr","en":"Cefn Cribwr"}},{"name":"Coity","state_code":"BGE","latitude":"51.52200000","longitude":"-3.55531000","population":41352,"timezone":"Europe/London","type":"city","translations":{"es":"Coity","en":"Coity"}},{"name":"Llanharan","state_code":"BGE","latitude":"51.53805000","longitude":"-3.43906000","population":5755,"timezone":"Europe/London","type":"city","translations":{"es":"Llanharan","en":"Llanharan"}},{"name":"Pencoed","state_code":"BGE","latitude":"51.52371000","longitude":"-3.50016000","population":9117,"timezone":"Europe/London","type":"city","translations":{"es":"Pencoed","en":"Pencoed"}},{"name":"Pont Rhyd-y-cyff","state_code":"BGE","latitude":"51.58694000","longitude":"-3.63639000","population":1505,"timezone":"Europe/London","type":"city","translations":{"es":"Puente Rhyd-y-cyff","en":"Pont Rhyd-y-cyff"}},{"name":"Porthcawl","state_code":"BGE","latitude":"51.47903000","longitude":"-3.70362000","population":16134,"timezone":"Europe/London","type":"city","translations":{"es":"Porthcawl","en":"Porthcawl"}},{"name":"Pyle","state_code":"BGE","latitude":"51.51667000","longitude":"-3.70000000","population":13701,"timezone":"Europe/London","type":"adm3","translations":{"es":"Pyle","en":"Pyle"}},{"name":"Wick","state_code":"BGE","latitude":"51.43944000","longitude":"-3.54944000","population":698,"timezone":"Europe/London","type":"adm3","translations":{"es":"Mecha","en":"Wick"}},{"name":"Ardingly","state_code":"BNH","latitude":"51.04865000","longitude":"-0.07716000","population":1250,"timezone":"Europe/London","type":"city","translations":{"es":"Ardingly","en":"Ardingly"}},{"name":"Balcombe","state_code":"BNH","latitude":"51.05726000","longitude":"-0.13450000","population":1424,"timezone":"Europe/London","type":"city","translations":{"es":"Balcombe","en":"Balcombe"}},{"name":"Brighton","state_code":"BNH","latitude":"50.82838000","longitude":"-0.13947000","population":277103,"timezone":"Europe/London","type":"city","translations":{"es":"Brighton","en":"Brighton"}},{"name":"Brighton and Hove","state_code":"BNH","latitude":"50.83333000","longitude":"-0.13333000","population":277965,"timezone":"Europe/London","type":"city","translations":{"es":"Brighton y Hove","en":"Brighton and Hove"}},{"name":"Broadwater","state_code":"BNH","latitude":"50.82887000","longitude":"-0.37594000","population":8442,"timezone":"Europe/London","type":"section","translations":{"es":"Broadwater","en":"Broadwater"}},{"name":"Burgess Hill","state_code":"BNH","latitude":"50.95843000","longitude":"-0.13287000","population":32491,"timezone":"Europe/London","type":"city","translations":{"es":"Burgess Hill","en":"Burgess Hill"}},{"name":"Cowfold","state_code":"BNH","latitude":"50.98945000","longitude":"-0.27243000","population":1301,"timezone":"Europe/London","type":"city","translations":{"es":"Cowfold","en":"Cowfold"}},{"name":"Cuckfield","state_code":"BNH","latitude":"51.01073000","longitude":"-0.14068000","population":3768,"timezone":"Europe/London","type":"city","translations":{"es":"Cuckfield","en":"Cuckfield"}},{"name":"Ditchling","state_code":"BNH","latitude":"50.92100000","longitude":"-0.11536000","population":1476,"timezone":"Europe/London","type":"city","translations":{"es":"Zanjando","en":"Ditchling"}},{"name":"Handcross","state_code":"BNH","latitude":"51.05383000","longitude":"-0.20076000","population":1027,"timezone":"Europe/London","type":"city","translations":{"es":"Cruz de mano","en":"Handcross"}},{"name":"Hassocks","state_code":"BNH","latitude":"50.92814000","longitude":"-0.16617000","population":8499,"timezone":"Europe/London","type":"city","translations":{"es":"Pufs","en":"Hassocks"}},{"name":"Haywards Heath","state_code":"BNH","latitude":"50.99769000","longitude":"-0.10313000","population":30826,"timezone":"Europe/London","type":"city","translations":{"es":"Haywards Heath","en":"Haywards Heath"}},{"name":"Henfield","state_code":"BNH","latitude":"50.92995000","longitude":"-0.27071000","population":4799,"timezone":"Europe/London","type":"adm4","translations":{"es":"Henfield","en":"Henfield"}},{"name":"Horsted Keynes","state_code":"BNH","latitude":"51.03659000","longitude":"-0.02798000","population":1180,"timezone":"Europe/London","type":"city","translations":{"es":"Horsted Keynes","en":"Horsted Keynes"}},{"name":"Hove","state_code":"BNH","latitude":"50.83088000","longitude":"-0.16720000","population":91900,"timezone":"Europe/London","type":"adm2","translations":{"es":"Hove","en":"Hove"}},{"name":"Hurstpierpoint","state_code":"BNH","latitude":"50.93388000","longitude":"-0.18007000","population":12730,"timezone":"Europe/London","type":"city","translations":{"es":"Hurstpierpoint","en":"Hurstpierpoint"}},{"name":"Lancing","state_code":"BNH","latitude":"50.82882000","longitude":"-0.32247000","population":19357,"timezone":"Europe/London","type":"city","translations":{"es":"Punción","en":"Lancing"}},{"name":"Lewes","state_code":"BNH","latitude":"50.87398000","longitude":"0.00880000","population":17297,"timezone":"Europe/London","type":"adm2","translations":{"es":"Lewes","en":"Lewes"}},{"name":"Newhaven","state_code":"BNH","latitude":"50.79693000","longitude":"0.05545000","population":12691,"timezone":"Europe/London","type":"city","translations":{"es":"Newhaven","en":"Newhaven"}},{"name":"Newick","state_code":"BNH","latitude":"50.97518000","longitude":"0.01579000","population":3726,"timezone":"Europe/London","type":"city","translations":{"es":"Newick","en":"Newick"}},{"name":"Peacehaven","state_code":"BNH","latitude":"50.79270000","longitude":"-0.00652000","population":15436,"timezone":"Europe/London","type":"city","translations":{"es":"Refugio de paz","en":"Peacehaven"}},{"name":"Plumpton Green","state_code":"BNH","latitude":"50.93420000","longitude":"-0.06120000","population":1123,"timezone":"Europe/London","type":"city","translations":{"es":"Plumpton Green","en":"Plumpton Green"}},{"name":"Portslade","state_code":"BNH","latitude":"50.84286000","longitude":"-0.21608000","population":20000,"timezone":"Europe/London","type":"city","translations":{"es":"Portslade","en":"Portslade"}},{"name":"Ringmer","state_code":"BNH","latitude":"50.89264000","longitude":"0.05472000","population":3165,"timezone":"Europe/London","type":"city","translations":{"es":"Ringmer","en":"Ringmer"}},{"name":"Rottingdean","state_code":"BNH","latitude":"50.80984000","longitude":"-0.05939000","population":21756,"timezone":"Europe/London","type":"adm3","translations":{"es":"Podridodeano","en":"Rottingdean"}},{"name":"Seaford","state_code":"BNH","latitude":"50.77141000","longitude":"0.10268000","population":23864,"timezone":"Europe/London","type":"city","translations":{"es":"Seaford","en":"Seaford"}},{"name":"Shoreham-by-Sea","state_code":"BNH","latitude":"50.83413000","longitude":"-0.27431000","population":19175,"timezone":"Europe/London","type":"city","translations":{"es":"Shoreham-by-Sea","en":"Shoreham-by-Sea"}},{"name":"South Chailey","state_code":"BNH","latitude":"50.93831000","longitude":"-0.02105000","population":1021,"timezone":"Europe/London","type":"city","translations":{"es":"Chailey del Sur","en":"South Chailey"}},{"name":"South Nutfield","state_code":"BNH","latitude":"51.01667000","longitude":"-0.13333000","population":1920,"timezone":"Europe/London","type":"city","translations":{"es":"South Nutfield","en":"South Nutfield"}},{"name":"Steyning","state_code":"BNH","latitude":"50.88744000","longitude":"-0.32787000","population":9627,"timezone":"Europe/London","type":"city","translations":{"es":"Steyning","en":"Steyning"}},{"name":"Wivelsfield Green","state_code":"BNH","latitude":"50.96313000","longitude":"-0.07133000","population":1091,"timezone":"Europe/London","type":"city","translations":{"es":"Wivelsfield Green","en":"Wivelsfield Green"}},{"name":"Worthing","state_code":"BNH","latitude":"50.81795000","longitude":"-0.37538000","population":109120,"timezone":"Europe/London","type":"city","translations":{"es":"Worthing","en":"Worthing"}},{"name":"Bishopsworth","state_code":"BST","latitude":"51.41479000","longitude":"-2.62080000","population":11576,"timezone":"Europe/London","type":"section","translations":{"es":"Bishopsworth","en":"Bishopsworth"}},{"name":"Bristol","state_code":"BST","latitude":"51.45523000","longitude":"-2.59665000","population":472465,"timezone":"Europe/London","type":"adm2","translations":{"es":"Brístol","en":"Bristol"}},{"name":"City of Bristol","state_code":"BST","latitude":"51.45000000","longitude":"-2.60000000","population":null,"timezone":"Europe/London","type":"adm2","translations":{"es":"Ciudad de Bristol","en":"City of Bristol"}},{"name":"Dundry","state_code":"BST","latitude":"51.39880000","longitude":"-2.63964000","population":269,"timezone":"Europe/London","type":"adm3","translations":{"es":"Dundry","en":"Dundry"}},{"name":"Easton-in-Gordano","state_code":"BST","latitude":"51.47592000","longitude":"-2.69987000","population":4824,"timezone":"Europe/London","type":"city","translations":{"es":"Easton-in-Gordano","en":"Easton-in-Gordano"}},{"name":"Kingswood","state_code":"BST","latitude":"51.45278000","longitude":"-2.50833000","population":64793,"timezone":"Europe/London","type":"city","translations":{"es":"Kingswood","en":"Kingswood"}},{"name":"Long Ashton","state_code":"BST","latitude":"51.42997000","longitude":"-2.66098000","population":6534,"timezone":"Europe/London","type":"city","translations":{"es":"Long Ashton","en":"Long Ashton"}},{"name":"Biggin Hill","state_code":"BRY","latitude":"51.31329000","longitude":"0.03433000","population":13535,"timezone":"Europe/London","type":"city","translations":{"es":"Biggin Hill","en":"Biggin Hill"}},{"name":"Borough Green","state_code":"BRY","latitude":"51.29158000","longitude":"0.30478000","population":4335,"timezone":"Europe/London","type":"city","translations":{"es":"Borough Green","en":"Borough Green"}},{"name":"Chislehurst","state_code":"BRY","latitude":"51.41709000","longitude":"0.06858000","population":20000,"timezone":"Europe/London","type":"city","translations":{"es":"Chislehurst","en":"Chislehurst"}},{"name":"Dormansland","state_code":"BRY","latitude":"51.16024000","longitude":"0.00618000","population":2550,"timezone":"Europe/London","type":"city","translations":{"es":"Dormansland","en":"Dormansland"}},{"name":"East Grinstead","state_code":"BRY","latitude":"51.12382000","longitude":"-0.00610000","population":27785,"timezone":"Europe/London","type":"city","translations":{"es":"East Grinstead","en":"East Grinstead"}},{"name":"Edenbridge","state_code":"BRY","latitude":"51.19172000","longitude":"0.06729000","population":9881,"timezone":"Europe/London","type":"city","translations":{"es":"Edenbridge","en":"Edenbridge"}},{"name":"Hadlow","state_code":"BRY","latitude":"51.22417000","longitude":"0.33914000","population":2849,"timezone":"Europe/London","type":"city","translations":{"es":"Hadlow","en":"Hadlow"}},{"name":"Kemsing","state_code":"BRY","latitude":"51.30604000","longitude":"0.22917000","population":6889,"timezone":"Europe/London","type":"city","translations":{"es":"Kemsing","en":"Kemsing"}},{"name":"Lingfield","state_code":"BRY","latitude":"51.17719000","longitude":"-0.01558000","population":4621,"timezone":"Europe/London","type":"city","translations":{"es":"Lingfield","en":"Lingfield"}},{"name":"Orpington","state_code":"BRY","latitude":"51.37457000","longitude":"0.09785000","population":15248,"timezone":"Europe/London","type":"city","translations":{"es":"órpington","en":"Orpington"}},{"name":"Otford","state_code":"BRY","latitude":"51.31283000","longitude":"0.19046000","population":7155,"timezone":"Europe/London","type":"city","translations":{"es":"Otford","en":"Otford"}},{"name":"Oxted","state_code":"BRY","latitude":"51.25687000","longitude":"-0.00601000","population":11853,"timezone":"Europe/London","type":"city","translations":{"es":"Oxted","en":"Oxted"}},{"name":"Sevenoaks","state_code":"BRY","latitude":"51.27266000","longitude":"0.18883000","population":29506,"timezone":"Europe/London","type":"city","translations":{"es":"Siete Robles","en":"Sevenoaks"}},{"name":"Shortlands","state_code":"BRY","latitude":"51.39914000","longitude":"0.00440000","population":9303,"timezone":"Europe/London","type":"city","translations":{"es":"Tierras cortas","en":"Shortlands"}},{"name":"Sundridge","state_code":"BRY","latitude":"51.27797000","longitude":"0.12231000","population":1383,"timezone":"Europe/London","type":"city","translations":{"es":"Sundridge","en":"Sundridge"}},{"name":"Tonbridge","state_code":"BRY","latitude":"51.19532000","longitude":"0.27363000","population":38657,"timezone":"Europe/London","type":"city","translations":{"es":"Tonbridge","en":"Tonbridge"}},{"name":"Westerham","state_code":"BRY","latitude":"51.26632000","longitude":"0.06892000","population":3303,"timezone":"Europe/London","type":"city","translations":{"es":"Westerham","en":"Westerham"}},{"name":"Wrotham","state_code":"BRY","latitude":"51.30856000","longitude":"0.30899000","population":1961,"timezone":"Europe/London","type":"city","translations":{"es":"Wrotham","en":"Wrotham"}},{"name":"Aston Clinton","state_code":"BKM","latitude":"51.80020000","longitude":"-0.72540000","population":4917,"timezone":"Europe/London","type":"city","translations":{"es":"Aston Clinton","en":"Aston Clinton"}},{"name":"Aylesbury","state_code":"BKM","latitude":"51.81665000","longitude":"-0.81458000","population":63273,"timezone":"Europe/London","type":"adm2","translations":{"es":"Aylesbury","en":"Aylesbury"}},{"name":"Brill","state_code":"BKM","latitude":"51.81667000","longitude":"-1.05000000","population":1153,"timezone":"Europe/London","type":"city","translations":{"es":"Rodaballo","en":"Brill"}},{"name":"Buckinghamshire","state_code":"BKM","latitude":"51.75000000","longitude":"-0.75000000","population":null,"timezone":"Europe/London","type":"city","translations":{"es":"Buckinghamshire","en":"Buckinghamshire"}},{"name":"Chalgrove","state_code":"BKM","latitude":"51.66476000","longitude":"-1.07640000","population":2808,"timezone":"Europe/London","type":"city","translations":{"es":"Chalgrove","en":"Chalgrove"}},{"name":"Chinnor","state_code":"BKM","latitude":"51.70177000","longitude":"-0.91161000","population":5473,"timezone":"Europe/London","type":"city","translations":{"es":"Chinnor","en":"Chinnor"}},{"name":"Great Missenden","state_code":"BKM","latitude":"51.70419000","longitude":"-0.70797000","population":7227,"timezone":"Europe/London","type":"city","translations":{"es":"Gran Missenden","en":"Great Missenden"}},{"name":"Haddenham","state_code":"BKM","latitude":"51.77326000","longitude":"-0.92628000","population":4502,"timezone":"Europe/London","type":"city","translations":{"es":"Haddenham","en":"Haddenham"}},{"name":"Hyde Heath","state_code":"BKM","latitude":"51.69336000","longitude":"-0.65437000","population":1047,"timezone":"Europe/London","type":"city","translations":{"es":"Hyde Heath","en":"Hyde Heath"}},{"name":"Long Crendon","state_code":"BKM","latitude":"51.77294000","longitude":"-0.99684000","population":2625,"timezone":"Europe/London","type":"city","translations":{"es":"Crendon largo","en":"Long Crendon"}},{"name":"Longwick","state_code":"BKM","latitude":"51.73607000","longitude":"-0.85676000","population":1143,"timezone":"Europe/London","type":"city","translations":{"es":"Longwick","en":"Longwick"}},{"name":"Princes Risborough","state_code":"BKM","latitude":"51.72549000","longitude":"-0.83144000","population":8547,"timezone":"Europe/London","type":"city","translations":{"es":"Príncipes Risborough","en":"Princes Risborough"}},{"name":"Steeple Claydon","state_code":"BKM","latitude":"51.93643000","longitude":"-0.98328000","population":2527,"timezone":"Europe/London","type":"city","translations":{"es":"Campanario Claydon","en":"Steeple Claydon"}},{"name":"Stokenchurch","state_code":"BKM","latitude":"51.65831000","longitude":"-0.89740000","population":4056,"timezone":"Europe/London","type":"city","translations":{"es":"Stokenchurch","en":"Stokenchurch"}},{"name":"Thame","state_code":"BKM","latitude":"51.74840000","longitude":"-0.97624000","population":13269,"timezone":"Europe/London","type":"city","translations":{"es":"Thame","en":"Thame"}},{"name":"Waddesdon","state_code":"BKM","latitude":"51.84675000","longitude":"-0.92105000","population":1976,"timezone":"Europe/London","type":"city","translations":{"es":"Waddesdon","en":"Waddesdon"}},{"name":"Watlington","state_code":"BKM","latitude":"51.64327000","longitude":"-1.00448000","population":2699,"timezone":"Europe/London","type":"city","translations":{"es":"Watlington","en":"Watlington"}},{"name":"Wendover","state_code":"BKM","latitude":"51.76194000","longitude":"-0.73986000","population":8236,"timezone":"Europe/London","type":"city","translations":{"es":"Wendover","en":"Wendover"}},{"name":"Weston Turville","state_code":"BKM","latitude":"51.79168000","longitude":"-0.75767000","population":2115,"timezone":"Europe/London","type":"city","translations":{"es":"Weston Turville","en":"Weston Turville"}},{"name":"Wingrave","state_code":"BKM","latitude":"51.86494000","longitude":"-0.74244000","population":1389,"timezone":"Europe/London","type":"city","translations":{"es":"Wingrave","en":"Wingrave"}},{"name":"Bolton","state_code":"BUR","latitude":"53.58333000","longitude":"-2.43333000","population":141331,"timezone":"Europe/London","type":"adm2","translations":{"es":"Bolton","en":"Bolton"}},{"name":"Borough of Bury","state_code":"BUR","latitude":"53.58333000","longitude":"-2.33333000","population":null,"timezone":"Europe/London","type":"city","translations":{"es":"Municipio de Bury","en":"Borough of Bury"}},{"name":"Bury","state_code":"BUR","latitude":"53.60000000","longitude":"-2.30000000","population":61044,"timezone":"Europe/London","type":"adm2","translations":{"es":"Enterrar","en":"Bury"}},{"name":"Edenfield","state_code":"BUR","latitude":"53.66674000","longitude":"-2.30481000","population":2126,"timezone":"Europe/London","type":"city","translations":{"es":"Edenfield","en":"Edenfield"}},{"name":"Farnworth","state_code":"BUR","latitude":"53.55000000","longitude":"-2.40000000","population":25680,"timezone":"Europe/London","type":"city","translations":{"es":"Farnworth","en":"Farnworth"}},{"name":"Little Lever","state_code":"BUR","latitude":"53.56346000","longitude":"-2.37803000","population":11329,"timezone":"Europe/London","type":"city","translations":{"es":"Pequeña palanca","en":"Little Lever"}},{"name":"Radcliffe","state_code":"BUR","latitude":"53.56178000","longitude":"-2.32455000","population":34239,"timezone":"Europe/London","type":"city","translations":{"es":"Radcliffe","en":"Radcliffe"}},{"name":"Ramsbottom","state_code":"BUR","latitude":"53.64789000","longitude":"-2.31683000","population":17738,"timezone":"Europe/London","type":"city","translations":{"es":"Ramsbottom","en":"Ramsbottom"}},{"name":"Rawtenstall","state_code":"BUR","latitude":"53.70076000","longitude":"-2.28442000","population":22114,"timezone":"Europe/London","type":"city","translations":{"es":"Rawtenstall","en":"Rawtenstall"}},{"name":"Rossendale","state_code":"BUR","latitude":"53.68456000","longitude":"-2.27690000","population":71169,"timezone":"Europe/London","type":"locality","translations":{"es":"Rossendale","en":"Rossendale"}},{"name":"Tottington","state_code":"BUR","latitude":"53.61326000","longitude":"-2.34071000","population":7713,"timezone":"Europe/London","type":"city","translations":{"es":"Tottington","en":"Tottington"}},{"name":"Whitefield","state_code":"BUR","latitude":"53.55000000","longitude":"-2.30000000","population":23545,"timezone":"Europe/London","type":"city","translations":{"es":"Campo blanco","en":"Whitefield"}},{"name":"Abercarn","state_code":"CAY","latitude":"51.64733000","longitude":"-3.13476000","population":10118,"timezone":"Europe/London","type":"city","translations":{"es":"Abercarn","en":"Abercarn"}},{"name":"Abertridwr","state_code":"CAY","latitude":"51.59583000","longitude":"-3.26833000","population":6504,"timezone":"Europe/London","type":"city","translations":{"es":"Abertridwr","en":"Abertridwr"}},{"name":"Bargoed","state_code":"CAY","latitude":"51.68333000","longitude":"-3.23333000","population":11864,"timezone":"Europe/London","type":"adm3","translations":{"es":"Negociado","en":"Bargoed"}},{"name":"Bedwas","state_code":"CAY","latitude":"51.59183000","longitude":"-3.19886000","population":8242,"timezone":"Europe/London","type":"city","translations":{"es":"Lavado de cama","en":"Bedwas"}},{"name":"Blackwood","state_code":"CAY","latitude":"51.66778000","longitude":"-3.20750000","population":15476,"timezone":"Europe/London","type":"adm3","translations":{"es":"Blackwood","en":"Blackwood"}},{"name":"Caerphilly County Borough","state_code":"CAY","latitude":"51.66667000","longitude":"-3.16667000","population":181019,"timezone":"Europe/London","type":"adm1","translations":{"es":"Municipio del condado de Caerphilly","en":"Caerphilly County Borough"}},{"name":"Crumlin","state_code":"CAY","latitude":"51.67778000","longitude":"-3.13528000","population":5149,"timezone":"Europe/London","type":"adm3","translations":{"es":"Crumlin","en":"Crumlin"}},{"name":"Deri","state_code":"CAY","latitude":"51.70812000","longitude":"-3.26312000","population":1006,"timezone":"Europe/London","type":"city","translations":{"es":"Deri","en":"Deri"}},{"name":"Gelligaer","state_code":"CAY","latitude":"51.66444000","longitude":"-3.25611000","population":18484,"timezone":"Europe/London","type":"adm3","translations":{"es":"Gelligaer","en":"Gelligaer"}},{"name":"Hengoed","state_code":"CAY","latitude":"51.65083000","longitude":"-3.23167000","population":5044,"timezone":"Europe/London","type":"city","translations":{"es":"Hengoed","en":"Hengoed"}},{"name":"Llanbradach","state_code":"CAY","latitude":"51.60639000","longitude":"-3.23028000","population":3746,"timezone":"Europe/London","type":"city","translations":{"es":"Llanbradach","en":"Llanbradach"}},{"name":"Machen","state_code":"CAY","latitude":"51.59599000","longitude":"-3.14190000","population":2362,"timezone":"Europe/London","type":"city","translations":{"es":"Machen","en":"Machen"}},{"name":"Nelson","state_code":"CAY","latitude":"51.65333000","longitude":"-3.28444000","population":12857,"timezone":"Europe/London","type":"adm3","translations":{"es":"Nelson","en":"Nelson"}},{"name":"Newbridge","state_code":"CAY","latitude":"51.66667000","longitude":"-3.13333000","population":6509,"timezone":"Europe/London","type":"adm3","translations":{"es":"Newbridge","en":"Newbridge"}},