[{"name":"Forest Parish","state_code":"02","latitude":"49.42983000","longitude":"-2.60168000","population":1624,"timezone":"Europe/Guernsey","type":"city","translations":{"es":"Forest Parish","en":"Forest Parish"}},{"name":"Saint Peter Port","state_code":"06","latitude":"49.45981000","longitude":"-2.53527000","population":16488,"timezone":"Europe/Guernsey","type":"city","translations":{"es":"Saint Peter Port","en":"Saint Peter Port"}},{"name":"Saint Pierre du Bois Parish","state_code":"08","latitude":"49.45399000","longitude":"-2.63808000","population":2001,"timezone":"Europe/Guernsey","type":"city","translations":{"es":"Saint Pierre du Bois Parish","en":"Saint Pierre du Bois Parish"}},{"name":"Vale Parish","state_code":"08","latitude":"49.49440000","longitude":"-2.51790000","population":9646,"timezone":"Europe/Guernsey","type":"city","translations":{"es":"Vale Parish","en":"Vale Parish"}},{"name":"Saint Sampson","state_code":"09","latitude":"49.48389000","longitude":"-2.52333000","population":8966,"timezone":"Europe/Guernsey","type":"city","translations":{"es":"Saint Sampson","en":"Saint Sampson"}}]