[{"name":"Boffa","state_code":"B","latitude":"10.33333000","longitude":"-14.16667000","population":27047,"timezone":"Africa/Conakry","type":"city","translations":{"es":"Boffa","en":"Boffa"}},{"name":"Boké","state_code":"B","latitude":"10.93217000","longitude":"-14.29055000","population":63736,"timezone":"Africa/Conakry","type":"adm1","translations":{"es":"Boké","en":"Boké"}},{"name":"Boke Prefecture","state_code":"B","latitude":"11.08333000","longitude":"-14.41667000","population":450278,"timezone":"Africa/Conakry","type":"prefecture","translations":{"es":"Prefectura de Boke","en":"Boke Prefecture"}},{"name":"Fria","state_code":"B","latitude":"10.41667000","longitude":"-13.58333000","population":64169,"timezone":"Africa/Conakry","type":"adm2","translations":{"es":"Fría","en":"Fria"}},{"name":"Gaoual","state_code":"B","latitude":"11.75409600","longitude":"-13.20033300","population":7461,"timezone":"Africa/Conakry","type":"adm2","translations":{"es":"Gaual","en":"Gaoual"}},{"name":"Gaoual Prefecture","state_code":"B","latitude":"11.72434350","longitude":"-13.24778750","population":193612,"timezone":"Africa/Conakry","type":"prefecture","translations":{"es":"Prefectura de Gaoual","en":"Gaoual Prefecture"}},{"name":"Kimbo","state_code":"B","latitude":"10.40000000","longitude":"-13.55000000","population":9326,"timezone":"Africa/Conakry","type":"city","translations":{"es":"Kimbo","en":"Kimbo"}},{"name":"Koundara","state_code":"B","latitude":"12.48333000","longitude":"-13.30000000","population":27246,"timezone":"Africa/Conakry","type":"adm2","translations":{"es":"Koundara","en":"Koundara"}},{"name":"Koundara Prefecture","state_code":"B","latitude":"12.41667000","longitude":"-13.16667000","population":129974,"timezone":"Africa/Conakry","type":"prefecture","translations":{"es":"Prefectura de Koundara","en":"Koundara Prefecture"}},{"name":"Sanguéya","state_code":"B","latitude":"10.70000000","longitude":"-14.36667000","population":6117,"timezone":"Africa/Conakry","type":"city","translations":{"es":"Sanguéya","en":"Sanguéya"}},{"name":"Youkounkoun","state_code":"B","latitude":"12.53110000","longitude":"-13.12240000","population":7952,"timezone":"Africa/Conakry","type":"city","translations":{"es":"Youkounkoun","en":"Youkounkoun"}},{"name":"Camayenne","state_code":"C","latitude":"9.53500000","longitude":"-13.68778000","population":1871242,"timezone":"Africa/Conakry","type":"city","translations":{"es":"Camayenne","en":"Camayenne"}},{"name":"Conakry","state_code":"C","latitude":"9.53795000","longitude":"-13.67729000","population":1667864,"timezone":"Africa/Conakry","type":"capital","translations":{"es":"Conakry","en":"Conakry"}},{"name":"Kankan","state_code":"K","latitude":"10.38542000","longitude":"-9.30568000","population":190772,"timezone":"Africa/Conakry","type":"adm1","translations":{"es":"Kankan","en":"Kankan"}},{"name":"Kankan Prefecture","state_code":"K","latitude":"10.27100000","longitude":"-9.17800000","population":473359,"timezone":"Africa/Conakry","type":"prefecture","translations":{"es":"Prefectura de Kankan","en":"Kankan Prefecture"}},{"name":"Kérouané","state_code":"K","latitude":"9.26667000","longitude":"-9.01667000","population":26990,"timezone":"Africa/Conakry","type":"adm2","translations":{"es":"Kérouané","en":"Kérouané"}},{"name":"Kerouane Prefecture","state_code":"K","latitude":"9.16667000","longitude":"-9.08333000","population":207547,"timezone":"Africa/Conakry","type":"prefecture","translations":{"es":"Prefectura de Kerouane","en":"Kerouane Prefecture"}},{"name":"Kouroussa","state_code":"K","latitude":"10.66667000","longitude":"-9.91667000","population":36295,"timezone":"Africa/Conakry","type":"adm2","translations":{"es":"Kouroussa","en":"Kouroussa"}},{"name":"Mandiana","state_code":"K","latitude":"10.62577000","longitude":"-8.69413000","population":19110,"timezone":"Africa/Conakry","type":"adm2","translations":{"es":"Mandiana","en":"Mandiana"}},{"name":"Mandiana Prefecture","state_code":"K","latitude":"10.65800000","longitude":"-8.61500000","population":335999,"timezone":"Africa/Conakry","type":"prefecture","translations":{"es":"Prefectura de Mandiana","en":"Mandiana Prefecture"}},{"name":"Siguiri","state_code":"K","latitude":"11.42282000","longitude":"-9.16852000","population":183875,"timezone":"Africa/Conakry","type":"adm2","translations":{"es":"Siguiri","en":"Siguiri"}},{"name":"Siguiri Prefecture","state_code":"K","latitude":"11.66667000","longitude":"-9.50000000","population":687002,"timezone":"Africa/Conakry","type":"prefecture","translations":{"es":"Prefectura de Siguiri","en":"Siguiri Prefecture"}},{"name":"Tokonou","state_code":"K","latitude":"9.65000000","longitude":"-9.78333000","population":6729,"timezone":"Africa/Conakry","type":"city","translations":{"es":"Tokonou","en":"Tokonou"}},{"name":"Coyah","state_code":"D","latitude":"9.75000000","longitude":"-13.41667000","population":194297,"timezone":"Africa/Conakry","type":"city","translations":{"es":"Coyah","en":"Coyah"}},{"name":"Dubréka","state_code":"D","latitude":"9.79111000","longitude":"-13.52333000","population":182296,"timezone":"Africa/Conakry","type":"adm2","translations":{"es":"Dubreka","en":"Dubréka"}},{"name":"Forécariah","state_code":"D","latitude":"9.43056000","longitude":"-13.08806000","population":23010,"timezone":"Africa/Conakry","type":"adm2","translations":{"es":"Forécariah","en":"Forécariah"}},{"name":"Kindia","state_code":"D","latitude":"10.08333000","longitude":"-12.80000000","population":439614,"timezone":"Africa/Conakry","type":"adm1","translations":{"es":"Kindia","en":"Kindia"}},{"name":"Préfecture de Dubréka","state_code":"D","latitude":"10.25000000","longitude":"-13.41667000","population":null,"timezone":"Africa/Conakry","type":"city","translations":{"es":"Prefectura de Dubréka","en":"Préfecture de Dubréka"}},{"name":"Préfecture de Forécariah","state_code":"D","latitude":"9.43333000","longitude":"-13.10000000","population":null,"timezone":"Africa/Conakry","type":"adm2","translations":{"es":"Prefectura de Forécariah","en":"Préfecture de Forécariah"}},{"name":"Télimélé","state_code":"D","latitude":"10.90000000","longitude":"-13.03333000","population":30311,"timezone":"Africa/Conakry","type":"adm2","translations":{"es":"Télimélé","en":"Télimélé"}},{"name":"Telimele Prefecture","state_code":"D","latitude":"10.91667000","longitude":"-13.33333000","population":284409,"timezone":"Africa/Conakry","type":"prefecture","translations":{"es":"Prefectura de Telimele","en":"Telimele Prefecture"}},{"name":"Tondon","state_code":"D","latitude":"10.36667000","longitude":"-13.35000000","population":12235,"timezone":"Africa/Conakry","type":"city","translations":{"es":"Tondon","en":"Tondon"}},{"name":"Koubia","state_code":"L","latitude":"11.58333000","longitude":"-11.83333000","population":9909,"timezone":"Africa/Conakry","type":"adm2","translations":{"es":"Koubia","en":"Koubia"}},{"name":"Labé","state_code":"L","latitude":"11.31823000","longitude":"-12.28332000","population":107695,"timezone":"Africa/Conakry","type":"adm2","translations":{"es":"Labé","en":"Labé"}},{"name":"Labe Prefecture","state_code":"L","latitude":"11.36600000","longitude":"-12.30000000","population":318938,"timezone":"Africa/Conakry","type":"prefecture","translations":{"es":"Prefectura de Labe","en":"Labe Prefecture"}},{"name":"Lélouma","state_code":"L","latitude":"11.42383000","longitude":"-12.68183000","population":5337,"timezone":"Africa/Conakry","type":"adm2","translations":{"es":"Lélouma","en":"Lélouma"}},{"name":"Lelouma Prefecture","state_code":"L","latitude":"11.41667000","longitude":"-12.66667000","population":163069,"timezone":"Africa/Conakry","type":"prefecture","translations":{"es":"Prefectura de Lelouma","en":"Lelouma Prefecture"}},{"name":"Mali","state_code":"L","latitude":"12.07900000","longitude":"-12.29820000","population":6293,"timezone":"Africa/Conakry","type":"adm2","translations":{"es":"Malí","en":"Mali"}},{"name":"Mali Prefecture","state_code":"L","latitude":"12.08333000","longitude":"-12.08333000","population":288001,"timezone":"Africa/Conakry","type":"prefecture","translations":{"es":"Prefectura de Malí","en":"Mali Prefecture"}},{"name":"Tougué","state_code":"L","latitude":"11.44503000","longitude":"-11.66422000","population":25531,"timezone":"Africa/Conakry","type":"adm2","translations":{"es":"Tougué","en":"Tougué"}},{"name":"Tougue Prefecture","state_code":"L","latitude":"11.46667000","longitude":"-11.60000000","population":124280,"timezone":"Africa/Conakry","type":"prefecture","translations":{"es":"Prefectura de Tougue","en":"Tougue Prefecture"}},{"name":"Dalaba","state_code":"M","latitude":"10.75000000","longitude":"-12.30000000","population":9925,"timezone":"Africa/Conakry","type":"adm2","translations":{"es":"Dalaba","en":"Dalaba"}},{"name":"Mamou","state_code":"M","latitude":"10.37546000","longitude":"-12.09148000","population":79109,"timezone":"Africa/Conakry","type":"adm1","translations":{"es":"Mamou","en":"Mamou"}},{"name":"Mamou Prefecture","state_code":"M","latitude":"10.45900000","longitude":"-11.81500000","population":318981,"timezone":"Africa/Conakry","type":"prefecture","translations":{"es":"Prefectura de Mamou","en":"Mamou Prefecture"}},{"name":"Pita","state_code":"M","latitude":"10.83333000","longitude":"-12.58333000","population":278530,"timezone":"Africa/Conakry","type":"city","translations":{"es":"Agave","en":"Pita"}},{"name":"Beyla","state_code":"N","latitude":"8.69011000","longitude":"-8.64869000","population":19848,"timezone":"Africa/Conakry","type":"adm2","translations":{"es":"Beyla","en":"Beyla"}},{"name":"Beyla Prefecture","state_code":"N","latitude":"8.91667000","longitude":"-8.41667000","population":326082,"timezone":"Africa/Conakry","type":"prefecture","translations":{"es":"Prefectura de Beyla","en":"Beyla Prefecture"}},{"name":"Gueckedou","state_code":"N","latitude":"8.56744000","longitude":"-10.13360000","population":79140,"timezone":"Africa/Conakry","type":"adm2","translations":{"es":"Gueckedou","en":"Gueckedou"}},{"name":"Lola","state_code":"N","latitude":"7.83333000","longitude":"-8.33333000","population":32555,"timezone":"Africa/Conakry","type":"city","translations":{"es":"Lola","en":"Lola"}},{"name":"Macenta","state_code":"N","latitude":"8.50000000","longitude":"-9.41667000","population":43900,"timezone":"Africa/Conakry","type":"adm2","translations":{"es":"Macenta","en":"Macenta"}},{"name":"Nzérékoré","state_code":"N","latitude":"7.75624000","longitude":"-8.81790000","population":280256,"timezone":"Africa/Conakry","type":"adm1","translations":{"es":"Nzérékoré","en":"Nzérékoré"}},{"name":"Nzerekore Prefecture","state_code":"N","latitude":"7.94500000","longitude":"-8.78300000","population":396949,"timezone":"Africa/Conakry","type":"prefecture","translations":{"es":"Prefectura de Nzerekore","en":"Nzerekore Prefecture"}},{"name":"Préfecture de Guékédou","state_code":"N","latitude":"8.66667000","longitude":"-10.25000000","population":null,"timezone":"Africa/Conakry","type":"city","translations":{"es":"Prefectura de Guékédou","en":"Préfecture de Guékédou"}},{"name":"Yomou","state_code":"N","latitude":"7.50000000","longitude":"-9.16667000","population":8674,"timezone":"Africa/Conakry","type":"adm2","translations":{"es":"Yomo","en":"Yomou"}}]