[{"name":"Acharnés","state_code":"I","latitude":"38.08333000","longitude":"23.73333000","population":100857,"timezone":"Europe/Athens","type":"adm3","translations":{"es":"Acharnés","en":"Acharnés"}},{"name":"Aegina","state_code":"I","latitude":"37.74667000","longitude":"23.42750000","population":6633,"timezone":"Europe/Athens","type":"adm3","translations":{"es":"Egina","en":"Aegina"}},{"name":"Afidnés","state_code":"I","latitude":"38.20332000","longitude":"23.83982000","population":1908,"timezone":"Europe/Athens","type":"city","translations":{"es":"Afidnés","en":"Afidnés"}},{"name":"Aghios Panteleímon","state_code":"I","latitude":"38.11643000","longitude":"23.98182000","population":1591,"timezone":"Europe/Athens","type":"city","translations":{"es":"Agios Panteleímon","en":"Aghios Panteleímon"}},{"name":"Agía Paraskeví","state_code":"I","latitude":"38.01667000","longitude":"23.83333000","population":59704,"timezone":"Europe/Athens","type":"adm3","translations":{"es":"Agía Paraskeví","en":"Agía Paraskeví"}},{"name":"Agía Varvára","state_code":"I","latitude":"37.98938000","longitude":"23.66011000","population":26759,"timezone":"Europe/Athens","type":"adm3","translations":{"es":"Agia Varvara","en":"Agía Varvára"}},{"name":"Ágioi Anárgyroi","state_code":"I","latitude":"38.03013000","longitude":"23.72379000","population":32283,"timezone":"Europe/Athens","type":"adm3","translations":{"es":"Ágioi Anárgyroi","en":"Ágioi Anárgyroi"}},{"name":"Agios Dimitrios","state_code":"I","latitude":"37.93333000","longitude":"23.73333000","population":71294,"timezone":"Europe/Athens","type":"adm3","translations":{"es":"Agios Dimitrios","en":"Agios Dimitrios"}},{"name":"Agios Dimítrios Kropiás","state_code":"I","latitude":"37.80612000","longitude":"23.85793000","population":1011,"timezone":"Europe/Athens","type":"city","translations":{"es":"Agios Dimítrios Kropiás","en":"Agios Dimítrios Kropiás"}},{"name":"Agios Ioannis Rentis","state_code":"I","latitude":"37.96491000","longitude":"23.66511000","population":16050,"timezone":"Europe/Athens","type":"city","translations":{"es":"Agios Ioannis Rentis","en":"Agios Ioannis Rentis"}},{"name":"Ágios Stéfanos","state_code":"I","latitude":"38.14657000","longitude":"23.85608000","population":9892,"timezone":"Europe/Athens","type":"adm3","translations":{"es":"Ágios Stéfanos","en":"Ágios Stéfanos"}},{"name":"Aiánteio","state_code":"I","latitude":"37.92135000","longitude":"23.45877000","population":4390,"timezone":"Europe/Athens","type":"city","translations":{"es":"Aiánteio","en":"Aiánteio"}},{"name":"Aigáleo","state_code":"I","latitude":"37.98333000","longitude":"23.68333000","population":69946,"timezone":"Europe/Athens","type":"adm3","translations":{"es":"Aigáleo","en":"Aigáleo"}},{"name":"Álimos","state_code":"I","latitude":"37.91033000","longitude":"23.72361000","population":43174,"timezone":"Europe/Athens","type":"adm3","translations":{"es":"Álimos","en":"Álimos"}},{"name":"Ampelákia","state_code":"I","latitude":"37.95055000","longitude":"23.52803000","population":4710,"timezone":"Europe/Athens","type":"city","translations":{"es":"Ampelákia","en":"Ampelákia"}},{"name":"Anávyssos","state_code":"I","latitude":"37.73414000","longitude":"23.94389000","population":6180,"timezone":"Europe/Athens","type":"city","translations":{"es":"Anavyssos","en":"Anávyssos"}},{"name":"Áno Liósia","state_code":"I","latitude":"38.08333000","longitude":"23.70000000","population":35047,"timezone":"Europe/Athens","type":"adm3","translations":{"es":"Áno Liósia","en":"Áno Liósia"}},{"name":"Anoixi","state_code":"I","latitude":"38.13267000","longitude":"23.85874000","population":6510,"timezone":"Europe/Athens","type":"city","translations":{"es":"Anoixi","en":"Anoixi"}},{"name":"Anthoúsa","state_code":"I","latitude":"38.02544000","longitude":"23.87617000","population":2132,"timezone":"Europe/Athens","type":"city","translations":{"es":"Anthoúsa","en":"Anthoúsa"}},{"name":"Argithéa","state_code":"I","latitude":"37.97506000","longitude":"23.88556000","population":1024,"timezone":"Europe/Athens","type":"city","translations":{"es":"Argithéa","en":"Argithéa"}},{"name":"Argyroúpoli","state_code":"I","latitude":"37.90594000","longitude":"23.75035000","population":34097,"timezone":"Europe/Athens","type":"adm3","translations":{"es":"Argyroúpoli","en":"Argyroúpoli"}},{"name":"Artémida","state_code":"I","latitude":"37.96727000","longitude":"23.99684000","population":21924,"timezone":"Europe/Athens","type":"city","translations":{"es":"Artémida","en":"Artémida"}},{"name":"Asprópyrgos","state_code":"I","latitude":"38.06134000","longitude":"23.58971000","population":31381,"timezone":"Europe/Athens","type":"adm3","translations":{"es":"Asprópyrgos","en":"Asprópyrgos"}},{"name":"Athens","state_code":"I","latitude":"37.98376000","longitude":"23.72784000","population":643452,"timezone":"Europe/Athens","type":"capital","translations":{"es":"Atenas","en":"Athens"}},{"name":"Avlónas","state_code":"I","latitude":"38.25149000","longitude":"23.69554000","population":5744,"timezone":"Europe/Athens","type":"city","translations":{"es":"Avlónas","en":"Avlónas"}},{"name":"Áyioi Apóstoloi","state_code":"I","latitude":"38.29169000","longitude":"23.91011000","population":1904,"timezone":"Europe/Athens","type":"city","translations":{"es":"Áyioi Apóstoloi","en":"Áyioi Apóstoloi"}},{"name":"Chaïdári","state_code":"I","latitude":"38.01135000","longitude":"23.66597000","population":47051,"timezone":"Europe/Athens","type":"adm3","translations":{"es":"Chaïdári","en":"Chaïdári"}},{"name":"Cholargós","state_code":"I","latitude":"38.00000000","longitude":"23.80000000","population":31304,"timezone":"Europe/Athens","type":"adm3","translations":{"es":"Cholargós","en":"Cholargós"}},{"name":"Dhafní","state_code":"I","latitude":"37.95002000","longitude":"23.73437000","population":22913,"timezone":"Europe/Athens","type":"adm3","translations":{"es":"Dhafní","en":"Dhafní"}},{"name":"Dhráfi","state_code":"I","latitude":"38.02375000","longitude":"23.90788000","population":3055,"timezone":"Europe/Athens","type":"city","translations":{"es":"Dhráfi","en":"Dhráfi"}},{"name":"Dióni","state_code":"I","latitude":"38.02328000","longitude":"23.93286000","population":2111,"timezone":"Europe/Athens","type":"city","translations":{"es":"Dióni","en":"Dióni"}},{"name":"Diónysos","state_code":"I","latitude":"38.10458000","longitude":"23.87938000","population":5651,"timezone":"Europe/Athens","type":"city","translations":{"es":"Dióniso","en":"Diónysos"}},{"name":"Drapetsóna","state_code":"I","latitude":"37.94988000","longitude":"23.62309000","population":13815,"timezone":"Europe/Athens","type":"city","translations":{"es":"Drapetsona","en":"Drapetsóna"}},{"name":"Drosiá","state_code":"I","latitude":"38.11977000","longitude":"23.86428000","population":7837,"timezone":"Europe/Athens","type":"city","translations":{"es":"Drosiá","en":"Drosiá"}},{"name":"Ekáli","state_code":"I","latitude":"38.11035000","longitude":"23.83505000","population":5574,"timezone":"Europe/Athens","type":"city","translations":{"es":"Ekáli","en":"Ekáli"}},{"name":"Elefsína","state_code":"I","latitude":"38.04135000","longitude":"23.54295000","population":27009,"timezone":"Europe/Athens","type":"adm3","translations":{"es":"Elefsína","en":"Elefsína"}},{"name":"Ellinikó","state_code":"I","latitude":"37.89013000","longitude":"23.74406000","population":16715,"timezone":"Europe/Athens","type":"city","translations":{"es":"Ellinikó","en":"Ellinikó"}},{"name":"Erythrés","state_code":"I","latitude":"38.21741000","longitude":"23.32234000","population":2567,"timezone":"Europe/Athens","type":"city","translations":{"es":"Eritrés","en":"Erythrés"}},{"name":"Filothéi","state_code":"I","latitude":"38.02524000","longitude":"23.78257000","population":7370,"timezone":"Europe/Athens","type":"city","translations":{"es":"Filothéi","en":"Filothéi"}},{"name":"Fylí","state_code":"I","latitude":"38.10235000","longitude":"23.66901000","population":3197,"timezone":"Europe/Athens","type":"city","translations":{"es":"Fylí","en":"Fylí"}},{"name":"Galatás","state_code":"I","latitude":"37.49618000","longitude":"23.44886000","population":2195,"timezone":"Europe/Athens","type":"adm3","translations":{"es":"Galatás","en":"Galatás"}},{"name":"Galátsi","state_code":"I","latitude":"38.01667000","longitude":"23.75000000","population":57909,"timezone":"Europe/Athens","type":"adm3","translations":{"es":"Galátsi","en":"Galátsi"}},{"name":"Gérakas","state_code":"I","latitude":"38.02277000","longitude":"23.85760000","population":33856,"timezone":"Europe/Athens","type":"adm3","translations":{"es":"Gérakas","en":"Gérakas"}},{"name":"Glyfáda","state_code":"I","latitude":"37.86289000","longitude":"23.75802000","population":89597,"timezone":"Europe/Athens","type":"adm3","translations":{"es":"Glyfáda","en":"Glyfáda"}},{"name":"Grammatikó","state_code":"I","latitude":"38.20251000","longitude":"23.96504000","population":1297,"timezone":"Europe/Athens","type":"city","translations":{"es":"Grammatikó","en":"Grammatikó"}},{"name":"Ílion","state_code":"I","latitude":"38.03333000","longitude":"23.70000000","population":84004,"timezone":"Europe/Athens","type":"adm3","translations":{"es":"Ilion","en":"Ílion"}},{"name":"Ilioúpoli","state_code":"I","latitude":"37.93149000","longitude":"23.76779000","population":76730,"timezone":"Europe/Athens","type":"adm3","translations":{"es":"Ilioúpoli","en":"Ilioúpoli"}},{"name":"Irákleio","state_code":"I","latitude":"38.05282000","longitude":"23.76523000","population":50494,"timezone":"Europe/Athens","type":"adm3","translations":{"es":"Iraklio","en":"Irákleio"}},{"name":"Kaisarianí","state_code":"I","latitude":"37.96340000","longitude":"23.76523000","population":26224,"timezone":"Europe/Athens","type":"adm3","translations":{"es":"Kaisarianí","en":"Kaisarianí"}},{"name":"Kálamos","state_code":"I","latitude":"38.28447000","longitude":"23.86308000","population":2239,"timezone":"Europe/Athens","type":"city","translations":{"es":"Kálamos","en":"Kálamos"}},{"name":"Kallithéa","state_code":"I","latitude":"37.95000000","longitude":"23.70000000","population":100641,"timezone":"Europe/Athens","type":"adm3","translations":{"es":"Kallithéa","en":"Kallithéa"}},{"name":"Kalývia Thorikoú","state_code":"I","latitude":"37.83894000","longitude":"23.92505000","population":15486,"timezone":"Europe/Athens","type":"adm3","translations":{"es":"Kalývia Thorikoú","en":"Kalývia Thorikoú"}},{"name":"Kamaterón","state_code":"I","latitude":"38.05586000","longitude":"23.70515000","population":28361,"timezone":"Europe/Athens","type":"city","translations":{"es":"Kamaterón","en":"Kamaterón"}},{"name":"Kapandríti","state_code":"I","latitude":"38.21579000","longitude":"23.87938000","population":2960,"timezone":"Europe/Athens","type":"city","translations":{"es":"Kapandríti","en":"Kapandríti"}},{"name":"Karellás","state_code":"I","latitude":"37.93445000","longitude":"23.86484000","population":1585,"timezone":"Europe/Athens","type":"city","translations":{"es":"Karellás","en":"Karellás"}},{"name":"Káto Soúlion","state_code":"I","latitude":"38.16803000","longitude":"24.01628000","population":2142,"timezone":"Europe/Athens","type":"city","translations":{"es":"Káto Soúlion","en":"Káto Soúlion"}},{"name":"Keratéa","state_code":"I","latitude":"37.80585000","longitude":"23.97740000","population":8340,"timezone":"Europe/Athens","type":"city","translations":{"es":"Keratéa","en":"Keratéa"}},{"name":"Keratsíni","state_code":"I","latitude":"37.96250000","longitude":"23.61972000","population":75721,"timezone":"Europe/Athens","type":"adm3","translations":{"es":"Keratsíni","en":"Keratsíni"}},{"name":"Khalándrion","state_code":"I","latitude":"38.02369000","longitude":"23.80068000","population":74192,"timezone":"Europe/Athens","type":"adm3","translations":{"es":"Khalándrion","en":"Khalándrion"}},{"name":"Khalkoútsion","state_code":"I","latitude":"38.33263000","longitude":"23.73188000","population":2094,"timezone":"Europe/Athens","type":"city","translations":{"es":"Khalkoútsion","en":"Khalkoútsion"}},{"name":"Kifisiá","state_code":"I","latitude":"38.07438000","longitude":"23.81106000","population":48700,"timezone":"Europe/Athens","type":"adm3","translations":{"es":"Kifisiá","en":"Kifisiá"}},{"name":"Kinéta","state_code":"I","latitude":"37.96843000","longitude":"23.21351000","population":1651,"timezone":"Europe/Athens","type":"city","translations":{"es":"Kinéta","en":"Kinéta"}},{"name":"Kipséli","state_code":"I","latitude":"38.00288000","longitude":"23.73755000","population":2096,"timezone":"Europe/Athens","type":"section","translations":{"es":"Kipseli","en":"Kipséli"}},{"name":"Kítsi","state_code":"I","latitude":"37.85181000","longitude":"23.84068000","population":4080,"timezone":"Europe/Athens","type":"city","translations":{"es":"Kitsi","en":"Kítsi"}},{"name":"Koropí","state_code":"I","latitude":"37.89886000","longitude":"23.87181000","population":19164,"timezone":"Europe/Athens","type":"adm3","translations":{"es":"Koropí","en":"Koropí"}},{"name":"Korydallós","state_code":"I","latitude":"37.98468000","longitude":"23.64711000","population":61248,"timezone":"Europe/Athens","type":"adm3","translations":{"es":"Korydallós","en":"Korydallós"}},{"name":"Kouvarás","state_code":"I","latitude":"37.82711000","longitude":"23.96715000","population":1341,"timezone":"Europe/Athens","type":"city","translations":{"es":"Kouvarás","en":"Kouvarás"}},{"name":"Kryonéri","state_code":"I","latitude":"38.13712000","longitude":"23.83055000","population":5040,"timezone":"Europe/Athens","type":"city","translations":{"es":"Kryonéri","en":"Kryonéri"}},{"name":"Kypséli","state_code":"I","latitude":"37.76021000","longitude":"23.45448000","population":2096,"timezone":"Europe/Athens","type":"city","translations":{"es":"Kypseli","en":"Kypséli"}},{"name":"Kýthira","state_code":"I","latitude":"36.14955000","longitude":"22.98979000","population":281,"timezone":"Europe/Athens","type":"adm3","translations":{"es":"Citera","en":"Kýthira"}},{"name":"Lávrio","state_code":"I","latitude":"37.71445000","longitude":"24.05647000","population":7525,"timezone":"Europe/Athens","type":"adm3","translations":{"es":"Lavrio","en":"Lávrio"}},{"name":"Leondárion","state_code":"I","latitude":"37.98700000","longitude":"23.85518000","population":5929,"timezone":"Europe/Athens","type":"city","translations":{"es":"Leondárion","en":"Leondárion"}},{"name":"Limín Mesoyaías","state_code":"I","latitude":"37.89108000","longitude":"24.00307000","population":9686,"timezone":"Europe/Athens","type":"city","translations":{"es":"Limín Mesoyaías","en":"Limín Mesoyaías"}},{"name":"Lykóvrysi","state_code":"I","latitude":"38.06933000","longitude":"23.78223000","population":9705,"timezone":"Europe/Athens","type":"city","translations":{"es":"Lykóvrysi","en":"Lykóvrysi"}},{"name":"Magoúla","state_code":"I","latitude":"38.07989000","longitude":"23.52108000","population":4735,"timezone":"Europe/Athens","type":"city","translations":{"es":"Magoula","en":"Magoúla"}},{"name":"Mándra","state_code":"I","latitude":"38.06667000","longitude":"23.50000000","population":11327,"timezone":"Europe/Athens","type":"adm3","translations":{"es":"Mándra","en":"Mándra"}},{"name":"Marathónas","state_code":"I","latitude":"38.15317000","longitude":"23.96278000","population":7170,"timezone":"Europe/Athens","type":"adm3","translations":{"es":"Maratón","en":"Marathónas"}},{"name":"Markópoulo","state_code":"I","latitude":"37.88333000","longitude":"23.93333000","population":9513,"timezone":"Europe/Athens","type":"adm3","translations":{"es":"Markópoulo","en":"Markópoulo"}},{"name":"Markópoulo Oropoú","state_code":"I","latitude":"38.28980000","longitude":"23.82475000","population":2172,"timezone":"Europe/Athens","type":"city","translations":{"es":"Markópoulo Oropoú","en":"Markópoulo Oropoú"}},{"name":"Maroúsi","state_code":"I","latitude":"38.05000000","longitude":"23.80000000","population":71830,"timezone":"Europe/Athens","type":"adm3","translations":{"es":"Maroúsi","en":"Maroúsi"}},{"name":"Megalochóri","state_code":"I","latitude":"37.71051000","longitude":"23.34659000","population":642,"timezone":"Europe/Athens","type":"adm3","translations":{"es":"Megalochóri","en":"Megalochóri"}},{"name":"Mégara","state_code":"I","latitude":"37.99471000","longitude":"23.34324000","population":23456,"timezone":"Europe/Athens","type":"adm3","translations":{"es":"Mégara","en":"Mégara"}},{"name":"Melíssia","state_code":"I","latitude":"38.05000000","longitude":"23.83333000","population":23618,"timezone":"Europe/Athens","type":"adm3","translations":{"es":"Melíssia","en":"Melíssia"}},{"name":"Metamórfosi","state_code":"I","latitude":"38.06576000","longitude":"23.76356000","population":30174,"timezone":"Europe/Athens","type":"adm3","translations":{"es":"Metamórfosi","en":"Metamórfosi"}},{"name":"Moskháton","state_code":"I","latitude":"37.94789000","longitude":"23.67880000","population":25441,"timezone":"Europe/Athens","type":"adm3","translations":{"es":"Moskháton","en":"Moskháton"}},{"name":"Néa Chalkidóna","state_code":"I","latitude":"38.02710000","longitude":"23.73051000","population":9760,"timezone":"Europe/Athens","type":"city","translations":{"es":"Néa Chalkidona","en":"Néa Chalkidóna"}},{"name":"Néa Erythraía","state_code":"I","latitude":"38.09270000","longitude":"23.82223000","population":18604,"timezone":"Europe/Athens","type":"city","translations":{"es":"Nea Erythraía","en":"Néa Erythraía"}},{"name":"Néa Filadélfeia","state_code":"I","latitude":"38.03491000","longitude":"23.73811000","population":25198,"timezone":"Europe/Athens","type":"adm3","translations":{"es":"Néa Filadélfeia","en":"Néa Filadélfeia"}},{"name":"Néa Ionía","state_code":"I","latitude":"38.03570000","longitude":"23.75733000","population":67134,"timezone":"Europe/Athens","type":"adm3","translations":{"es":"Néa Ionía","en":"Néa Ionía"}},{"name":"Néa Mákri","state_code":"I","latitude":"38.08733000","longitude":"23.97642000","population":16906,"timezone":"Europe/Athens","type":"city","translations":{"es":"Néa Mákri","en":"Néa Mákri"}},{"name":"Néa Palátia","state_code":"I","latitude":"38.31942000","longitude":"23.79649000","population":3018,"timezone":"Europe/Athens","type":"city","translations":{"es":"Néa Palátia","en":"Néa Palátia"}},{"name":"Néa Pentéli","state_code":"I","latitude":"38.06059000","longitude":"23.85926000","population":6916,"timezone":"Europe/Athens","type":"city","translations":{"es":"Nea Pentéli","en":"Néa Pentéli"}},{"name":"Néa Péramos","state_code":"I","latitude":"38.00647000","longitude":"23.42348000","population":8333,"timezone":"Europe/Athens","type":"city","translations":{"es":"Néa Péramos","en":"Néa Péramos"}},{"name":"Néa Smýrni","state_code":"I","latitude":"37.94504000","longitude":"23.71416000","population":72853,"timezone":"Europe/Athens","type":"adm3","translations":{"es":"Néa Smýrni","en":"Néa Smýrni"}},{"name":"Néo Psychikó","state_code":"I","latitude":"38.00624000","longitude":"23.78373000","population":10671,"timezone":"Europe/Athens","type":"city","translations":{"es":"Neo Psychikó","en":"Néo Psychikó"}},{"name":"Neos Voutzás","state_code":"I","latitude":"38.04312000","longitude":"23.97749000","population":1208,"timezone":"Europe/Athens","type":"city","translations":{"es":"Neos Voutzás","en":"Neos Voutzás"}},{"name":"Níkaia","state_code":"I","latitude":"37.96667000","longitude":"23.65000000","population":89380,"timezone":"Europe/Athens","type":"adm3","translations":{"es":"Níkaia","en":"Níkaia"}},{"name":"Oropós","state_code":"I","latitude":"38.30326000","longitude":"23.75549000","population":1066,"timezone":"Europe/Athens","type":"adm3","translations":{"es":"Oropós","en":"Oropós"}},{"name":"Paianía","state_code":"I","latitude":"37.95527000","longitude":"23.85443000","population":15156,"timezone":"Europe/Athens","type":"adm3","translations":{"es":"Paianía","en":"Paianía"}},{"name":"Palaiá Fókaia","state_code":"I","latitude":"37.71998000","longitude":"23.94792000","population":2510,"timezone":"Europe/Athens","type":"city","translations":{"es":"Palacio Fókaia","en":"Palaiá Fókaia"}},{"name":"Palaió Fáliro","state_code":"I","latitude":"37.92812000","longitude":"23.70105000","population":64863,"timezone":"Europe/Athens","type":"adm3","translations":{"es":"Palacio Fáliro","en":"Palaió Fáliro"}},{"name":"Pallíni","state_code":"I","latitude":"38.00514000","longitude":"23.88302000","population":17371,"timezone":"Europe/Athens","type":"city","translations":{"es":"Pallíni","en":"Pallíni"}},{"name":"Papágou","state_code":"I","latitude":"37.98642000","longitude":"23.79347000","population":13962,"timezone":"Europe/Athens","type":"city","translations":{"es":"Papágou","en":"Papágou"}},{"name":"Péfki","state_code":"I","latitude":"38.06019000","longitude":"23.79264000","population":21293,"timezone":"Europe/Athens","type":"adm3","translations":{"es":"Péfki","en":"Péfki"}},{"name":"Pentéli","state_code":"I","latitude":"38.05000000","longitude":"23.86667000","population":4851,"timezone":"Europe/Athens","type":"adm3","translations":{"es":"Pentéli","en":"Pentéli"}},{"name":"Pérama","state_code":"I","latitude":"37.96775000","longitude":"23.57210000","population":25389,"timezone":"Europe/Athens","type":"adm3","translations":{"es":"Pérama","en":"Pérama"}},{"name":"Peristéri","state_code":"I","latitude":"38.01539000","longitude":"23.69187000","population":133630,"timezone":"Europe/Athens","type":"adm3","translations":{"es":"Peristéri","en":"Peristéri"}},{"name":"Petroúpolis","state_code":"I","latitude":"38.04187000","longitude":"23.68494000","population":58979,"timezone":"Europe/Athens","type":"adm3","translations":{"es":"Petrópolis","en":"Petroúpolis"}},{"name":"Pikérmi","state_code":"I","latitude":"38.00161000","longitude":"23.94075000","population":2082,"timezone":"Europe/Athens","type":"city","translations":{"es":"Pikérmi","en":"Pikérmi"}},{"name":"Piraeus","state_code":"I","latitude":"37.94203000","longitude":"23.64619000","population":168151,"timezone":"Europe/Athens","type":"adm3","translations":{"es":"El Pireo","en":"Piraeus"}},{"name":"Polydéndri","state_code":"I","latitude":"38.21600000","longitude":"23.86806000","population":1163,"timezone":"Europe/Athens","type":"city","translations":{"es":"Polidéndri","en":"Polydéndri"}},{"name":"Póros","state_code":"I","latitude":"37.49944000","longitude":"23.45361000","population":3651,"timezone":"Europe/Athens","type":"adm3","translations":{"es":"Poros","en":"Póros"}},{"name":"Psychikó","state_code":"I","latitude":"38.01324000","longitude":"23.77223000","population":9595,"timezone":"Europe/Athens","type":"adm3","translations":{"es":"Psychikó","en":"Psychikó"}},{"name":"Rafína","state_code":"I","latitude":"38.01812000","longitude":"24.00599000","population":13604,"timezone":"Europe/Athens","type":"adm3","translations":{"es":"Rafína","en":"Rafína"}},{"name":"Rodópoli","state_code":"I","latitude":"38.11669000","longitude":"23.87572000","population":2110,"timezone":"Europe/Athens","type":"city","translations":{"es":"Rodópoli","en":"Rodópoli"}},{"name":"Salamína","state_code":"I","latitude":"37.96427000","longitude":"23.49649000","population":24537,"timezone":"Europe/Athens","type":"adm3","translations":{"es":"Salamina","en":"Salamína"}},{"name":"Saronída","state_code":"I","latitude":"37.74809000","longitude":"23.91059000","population":3424,"timezone":"Europe/Athens","type":"city","translations":{"es":"Saronída","en":"Saronída"}},{"name":"Selínia","state_code":"I","latitude":"37.93320000","longitude":"23.53147000","population":2376,"timezone":"Europe/Athens","type":"city","translations":{"es":"Selínia","en":"Selínia"}},{"name":"Skála Oropoú","state_code":"I","latitude":"38.31964000","longitude":"23.78763000","population":1430,"timezone":"Europe/Athens","type":"city","translations":{"es":"Skála Oropoú","en":"Skála Oropoú"}},{"name":"Skarmagkás","state_code":"I","latitude":"38.01133000","longitude":"23.60303000","population":1255,"timezone":"Europe/Athens","type":"city","translations":{"es":"Skarmagkás","en":"Skarmagkás"}},{"name":"Spáta","state_code":"I","latitude":"37.96163000","longitude":"23.91514000","population":9453,"timezone":"Europe/Athens","type":"adm3","translations":{"es":"Spáta","en":"Spáta"}},{"name":"Spétses","state_code":"I","latitude":"37.26191000","longitude":"23.15943000","population":3748,"timezone":"Europe/Athens","type":"adm3","translations":{"es":"Spetses","en":"Spétses"}},{"name":"Stamáta","state_code":"I","latitude":"38.12546000","longitude":"23.88038000","population":2901,"timezone":"Europe/Athens","type":"city","translations":{"es":"Stamáta","en":"Stamáta"}},{"name":"Távros","state_code":"I","latitude":"37.97064000","longitude":"23.69043000","population":14339,"timezone":"Europe/Athens","type":"city","translations":{"es":"Tavros","en":"Távros"}},{"name":"Thrakomakedónes","state_code":"I","latitude":"38.12964000","longitude":"23.75751000","population":7312,"timezone":"Europe/Athens","type":"city","translations":{"es":"Trakomakedónes","en":"Thrakomakedónes"}},{"name":"Vári","state_code":"I","latitude":"37.83320000","longitude":"23.80311000","population":15855,"timezone":"Europe/Athens","type":"city","translations":{"es":"Vari","en":"Vári"}},{"name":"Varnávas","state_code":"I","latitude":"38.22358000","longitude":"23.92307000","population":1342,"timezone":"Europe/Athens","type":"city","translations":{"es":"Varnávas","en":"Varnávas"}},{"name":"Varybóbi","state_code":"I","latitude":"38.12723000","longitude":"23.78729000","population":1377,"timezone":"Europe/Athens","type":"city","translations":{"es":"Varybóbi","en":"Varybóbi"}},{"name":"Vathý","state_code":"I","latitude":"37.76420000","longitude":"23.48011000","population":1676,"timezone":"Europe/Athens","type":"city","translations":{"es":"Vathý","en":"Vathý"}},{"name":"Vília","state_code":"I","latitude":"38.16716000","longitude":"23.33659000","population":1269,"timezone":"Europe/Athens","type":"city","translations":{"es":"Vília","en":"Vília"}},{"name":"Vlycháda","state_code":"I","latitude":"38.02734000","longitude":"23.43663000","population":1297,"timezone":"Europe/Athens","type":"city","translations":{"es":"Vlycháda","en":"Vlycháda"}},{"name":"Voúla","state_code":"I","latitude":"37.84221000","longitude":"23.77651000","population":31497,"timezone":"Europe/Athens","type":"adm3","translations":{"es":"Voula","en":"Voúla"}},{"name":"Vouliagméni","state_code":"I","latitude":"37.81423000","longitude":"23.77892000","population":4332,"timezone":"Europe/Athens","type":"city","translations":{"es":"Vouliagméni","en":"Vouliagméni"}},{"name":"Vraná","state_code":"I","latitude":"38.12497000","longitude":"23.95198000","population":1082,"timezone":"Europe/Athens","type":"city","translations":{"es":"Vraná","en":"Vraná"}},{"name":"Vrilissia","state_code":"I","latitude":"38.03381000","longitude":"23.82962000","population":32417,"timezone":"Europe/Athens","type":"adm3","translations":{"es":"Vrilissia","en":"Vrilissia"}},{"name":"Výronas","state_code":"I","latitude":"37.96105000","longitude":"23.75300000","population":59134,"timezone":"Europe/Athens","type":"adm3","translations":{"es":"Výronas","en":"Výronas"}},{"name":"Ýdra","state_code":"I","latitude":"37.34976000","longitude":"23.46560000","population":1900,"timezone":"Europe/Athens","type":"adm3","translations":{"es":"Idra","en":"Ýdra"}},{"name":"Ymittos","state_code":"I","latitude":"37.95342000","longitude":"23.74897000","population":10455,"timezone":"Europe/Athens","type":"section","translations":{"es":"Ymittos","en":"Ymittos"}},{"name":"Zefyri","state_code":"I","latitude":"38.06647000","longitude":"23.71701000","population":9901,"timezone":"Europe/Athens","type":"city","translations":{"es":"Zefyri","en":"Zefyri"}},{"name":"Zográfos","state_code":"I","latitude":"37.97574000","longitude":"23.76911000","population":71026,"timezone":"Europe/Athens","type":"adm2","translations":{"es":"Zografos","en":"Zográfos"}},{"name":"Afrátion","state_code":"H","latitude":"38.45212000","longitude":"23.68775000","population":1405,"timezone":"Europe/Athens","type":"city","translations":{"es":"Afrátion","en":"Afrátion"}},{"name":"Agia","state_code":"H","latitude":"39.71794660","longitude":"22.74614750","population":622,"timezone":"Europe/Athens","type":"adm3","translations":{"es":"Agia","en":"Agia"}},{"name":"Agía Triáda","state_code":"H","latitude":"38.35505000","longitude":"22.90881000","population":1098,"timezone":"Europe/Athens","type":"city","translations":{"es":"Agía Triáda","en":"Agía Triáda"}},{"name":"Ágios Geórgios","state_code":"H","latitude":"38.39343000","longitude":"22.93189000","population":2045,"timezone":"Europe/Athens","type":"city","translations":{"es":"Ágios Geórgios","en":"Ágios Geórgios"}},{"name":"Aidipsós","state_code":"H","latitude":"38.87924000","longitude":"23.04691000","population":1249,"timezone":"Europe/Athens","type":"city","translations":{"es":"Aidipsós","en":"Aidipsós"}},{"name":"Akraifnía","state_code":"H","latitude":"38.45663000","longitude":"23.22093000","population":1195,"timezone":"Europe/Athens","type":"city","translations":{"es":"Akraifnía","en":"Akraifnía"}},{"name":"Alíartos","state_code":"H","latitude":"38.36667000","longitude":"23.10000000","population":4023,"timezone":"Europe/Athens","type":"adm3","translations":{"es":"Alíartos","en":"Alíartos"}},{"name":"Alivéri","state_code":"H","latitude":"38.41667000","longitude":"24.03333000","population":5084,"timezone":"Europe/Athens","type":"adm3","translations":{"es":"Alivéri","en":"Alivéri"}},{"name":"Almyros","state_code":"H","latitude":"39.18263010","longitude":"22.75015880","population":7244,"timezone":"Europe/Athens","type":"adm3","translations":{"es":"Almyros","en":"Almyros"}},{"name":"Alonnisos","state_code":"H","latitude":"39.14982650","longitude":"23.84256170","population":1886,"timezone":"Europe/Athens","type":"city","translations":{"es":"Alónnisos","en":"Alonnisos"}},{"name":"Amárynthos","state_code":"H","latitude":"38.39300000","longitude":"23.88492000","population":3329,"timezone":"Europe/Athens","type":"city","translations":{"es":"Amarynthos","en":"Amárynthos"}},{"name":"Amfíkleia","state_code":"H","latitude":"38.63912000","longitude":"22.59171000","population":3012,"timezone":"Europe/Athens","type":"city","translations":{"es":"Amfíkleia","en":"Amfíkleia"}},{"name":"Ámfissa","state_code":"H","latitude":"38.52813000","longitude":"22.37713000","population":6334,"timezone":"Europe/Athens","type":"adm2","translations":{"es":"Ámfissa","en":"Ámfissa"}},{"name":"Anthíli","state_code":"H","latitude":"38.85000000","longitude":"22.47906000","population":1693,"timezone":"Europe/Athens","type":"city","translations":{"es":"Antíli","en":"Anthíli"}},{"name":"Antikyra","state_code":"H","latitude":"38.38333000","longitude":"22.63333000","population":1420,"timezone":"Europe/Athens","type":"city","translations":{"es":"Antikyra","en":"Antikyra"}},{"name":"Aráchova","state_code":"H","latitude":"38.47958000","longitude":"22.58350000","population":2322,"timezone":"Europe/Athens","type":"city","translations":{"es":"Arájova","en":"Aráchova"}},{"name":"Argithea","state_code":"H","latitude":"39.35930960","longitude":"21.52709060","population":5484,"timezone":"Europe/Athens","type":"city","translations":{"es":"Argithea","en":"Argithea"}},{"name":"Árma","state_code":"H","latitude":"38.35121000","longitude":"23.48599000","population":1078,"timezone":"Europe/Athens","type":"city","translations":{"es":"Árma","en":"Árma"}},{"name":"Asopía","state_code":"H","latitude":"38.29882000","longitude":"23.50189000","population":1375,"timezone":"Europe/Athens","type":"city","translations":{"es":"Asopía","en":"Asopía"}},{"name":"Atalánti","state_code":"H","latitude":"38.65111000","longitude":"22.99917000","population":4497,"timezone":"Europe/Athens","type":"adm3","translations":{"es":"Atalánti","en":"Atalánti"}},{"name":"Áyios Konstandínos","state_code":"H","latitude":"38.75612000","longitude":"22.85757000","population":2471,"timezone":"Europe/Athens","type":"city","translations":{"es":"Áyios Konstandínos","en":"Áyios Konstandínos"}},{"name":"Áyios Nikólaos","state_code":"H","latitude":"38.42051000","longitude":"23.64772000","population":3426,"timezone":"Europe/Athens","type":"city","translations":{"es":"Áyios Nikólaos","en":"Áyios Nikólaos"}},{"name":"Áyios Thomás","state_code":"H","latitude":"38.27717000","longitude":"23.58906000","population":1292,"timezone":"Europe/Athens","type":"city","translations":{"es":"Áyios Thomas","en":"Áyios Thomás"}},{"name":"Chairóneia","state_code":"H","latitude":"38.49551000","longitude":"22.84424000","population":1382,"timezone":"Europe/Athens","type":"city","translations":{"es":"Chaironeia","en":"Chairóneia"}},{"name":"Chalkída","state_code":"H","latitude":"38.46354000","longitude":"23.60284000","population":64490,"timezone":"Europe/Athens","type":"adm2","translations":{"es":"Calcis","en":"Chalkída"}},{"name":"Delphi","state_code":"H","latitude":"38.47942000","longitude":"22.49357000","population":2373,"timezone":"Europe/Athens","type":"city","translations":{"es":"Delfos","en":"Delphi"}},{"name":"Dhrosiá","state_code":"H","latitude":"38.48413000","longitude":"23.54774000","population":5020,"timezone":"Europe/Athens","type":"city","translations":{"es":"Dhrosiá","en":"Dhrosiá"}},{"name":"Dílesi","state_code":"H","latitude":"38.33762000","longitude":"23.67077000","population":2065,"timezone":"Europe/Athens","type":"city","translations":{"es":"Dílesi","en":"Dílesi"}},{"name":"Dístomo","state_code":"H","latitude":"38.42892000","longitude":"22.66728000","population":0,"timezone":"Europe/Athens","type":"adm3","translations":{"es":"Dístomo","en":"Dístomo"}},{"name":"Domokós","state_code":"H","latitude":"39.12722000","longitude":"22.30028000","population":1814,"timezone":"Europe/Athens","type":"adm3","translations":{"es":"Domokós","en":"Domokós"}},{"name":"Domvraína","state_code":"H","latitude":"38.25300000","longitude":"22.98211000","population":1138,"timezone":"Europe/Athens","type":"city","translations":{"es":"Domvraína","en":"Domvraína"}},{"name":"Elassona","state_code":"H","latitude":"39.89005660","longitude":"22.17920110","population":7182,"timezone":"Europe/Athens","type":"adm3","translations":{"es":"Elassona","en":"Elassona"}},{"name":"Eláteia","state_code":"H","latitude":"38.62770000","longitude":"22.76492000","population":2002,"timezone":"Europe/Athens","type":"city","translations":{"es":"Eláteia","en":"Eláteia"}},{"name":"Erétria","state_code":"H","latitude":"38.40097000","longitude":"23.80220000","population":4166,"timezone":"Europe/Athens","type":"adm3","translations":{"es":"Eretria","en":"Erétria"}},{"name":"Farkadona","state_code":"H","latitude":"39.59260280","longitude":"22.05753410","population":1829,"timezone":"Europe/Athens","type":"adm3","translations":{"es":"Farkadona","en":"Farkadona"}},{"name":"Fáros","state_code":"H","latitude":"38.39959000","longitude":"23.62275000","population":1171,"timezone":"Europe/Athens","type":"city","translations":{"es":"Faros","en":"Fáros"}},{"name":"Farsala","state_code":"H","latitude":"39.29657900","longitude":"22.36031000","population":8978,"timezone":"Europe/Athens","type":"city","translations":{"es":"Farsala","en":"Farsala"}},{"name":"Fílla","state_code":"H","latitude":"38.44177000","longitude":"23.68306000","population":1459,"timezone":"Europe/Athens","type":"city","translations":{"es":"Fílla","en":"Fílla"}},{"name":"Galaxídhion","state_code":"H","latitude":"38.38067000","longitude":"22.38001000","population":3030,"timezone":"Europe/Athens","type":"city","translations":{"es":"Galaxídhion","en":"Galaxídhion"}},{"name":"Istiaía","state_code":"H","latitude":"38.95520000","longitude":"23.15210000","population":4067,"timezone":"Europe/Athens","type":"adm3","translations":{"es":"Istiaía","en":"Istiaía"}},{"name":"Itéa","state_code":"H","latitude":"38.43201000","longitude":"22.42443000","population":4546,"timezone":"Europe/Athens","type":"city","translations":{"es":"Itéa","en":"Itéa"}},{"name":"Kainoúryion","state_code":"H","latitude":"38.79283000","longitude":"22.72470000","population":1138,"timezone":"Europe/Athens","type":"city","translations":{"es":"Kainoúryion","en":"Kainoúryion"}},{"name":"Kalampaka","state_code":"H","latitude":"39.70442040","longitude":"21.61738820","population":null,"timezone":"Europe/Athens","type":"adm3","translations":{"es":"Kalambaka","en":"Kalampaka"}},{"name":"Kaména Voúrla","state_code":"H","latitude":"38.77844000","longitude":"22.78573000","population":2672,"timezone":"Europe/Athens","type":"adm3","translations":{"es":"Kaména Voúrla","en":"Kaména Voúrla"}},{"name":"Kaparéllion","state_code":"H","latitude":"38.23697000","longitude":"23.21411000","population":1478,"timezone":"Europe/Athens","type":"city","translations":{"es":"Kaparéllion","en":"Kaparéllion"}},{"name":"Karditsa","state_code":"H","latitude":"39.29094900","longitude":"21.47648600","population":40272,"timezone":"Europe/Athens","type":"city","translations":{"es":"Karditsa","en":"Karditsa"}},{"name":"Karpenísi","state_code":"H","latitude":"38.91218000","longitude":"21.79836000","population":6655,"timezone":"Europe/Athens","type":"adm2","translations":{"es":"Karpenísi","en":"Karpenísi"}},{"name":"Kárystos","state_code":"H","latitude":"38.01333000","longitude":"24.41611000","population":5366,"timezone":"Europe/Athens","type":"adm3","translations":{"es":"Caristo","en":"Kárystos"}},{"name":"Kastélla","state_code":"H","latitude":"38.57048000","longitude":"23.63131000","population":1370,"timezone":"Europe/Athens","type":"city","translations":{"es":"Kastella","en":"Kastélla"}},{"name":"Káto Tithoréa","state_code":"H","latitude":"38.60751000","longitude":"22.71348000","population":2753,"timezone":"Europe/Athens","type":"adm3","translations":{"es":"Káto Tithoréa","en":"Káto Tithoréa"}},{"name":"Kerasochóri","state_code":"H","latitude":"39.00556000","longitude":"21.63778000","population":274,"timezone":"Europe/Athens","type":"adm3","translations":{"es":"Kerasochóri","en":"Kerasochóri"}},{"name":"Kileler","state_code":"H","latitude":"39.50496650","longitude":"22.62861410","population":383,"timezone":"Europe/Athens","type":"city","translations":{"es":"Kileler","en":"Kileler"}},{"name":"Kírra","state_code":"H","latitude":"38.42944000","longitude":"22.44443000","population":1392,"timezone":"Europe/Athens","type":"city","translations":{"es":"Kirra","en":"Kírra"}},{"name":"Kými","state_code":"H","latitude":"38.63477000","longitude":"24.10287000","population":2979,"timezone":"Europe/Athens","type":"city","translations":{"es":"Kymi","en":"Kými"}},{"name":"Kyriáki","state_code":"H","latitude":"38.35365000","longitude":"22.78841000","population":2227,"timezone":"Europe/Athens","type":"city","translations":{"es":"Kyriaki","en":"Kyriáki"}},{"name":"Lake Plastiras","state_code":"H","latitude":"39.30108720","longitude":"21.56425210","population":5234,"timezone":"Europe/Athens","type":"city","translations":{"es":"Lago Plastiras","en":"Lake Plastiras"}},{"name":"Lamía","state_code":"H","latitude":"38.90000000","longitude":"22.43333000","population":52006,"timezone":"Europe/Athens","type":"adm1","translations":{"es":"Lamia","en":"Lamía"}},{"name":"Larissa","state_code":"H","latitude":"39.62837480","longitude":"22.18011450","population":136684,"timezone":"Europe/Athens","type":"adm3","translations":{"es":"Larisa","en":"Larissa"}},{"name":"Lianokládhion","state_code":"H","latitude":"38.91655000","longitude":"22.30336000","population":1085,"timezone":"Europe/Athens","type":"city","translations":{"es":"Lianokládhion","en":"Lianokládhion"}},{"name":"Lidoríki","state_code":"H","latitude":"38.52389000","longitude":"22.19972000","population":840,"timezone":"Europe/Athens","type":"adm3","translations":{"es":"Lidoriki","en":"Lidoríki"}},{"name":"Límni","state_code":"H","latitude":"38.76667000","longitude":"23.31667000","population":2072,"timezone":"Europe/Athens","type":"adm3","translations":{"es":"Límni","en":"Límni"}},{"name":"Livadeiá","state_code":"H","latitude":"38.43616000","longitude":"22.87665000","population":21468,"timezone":"Europe/Athens","type":"adm2","translations":{"es":"Livadeiá","en":"Livadeiá"}},{"name":"Livanátes","state_code":"H","latitude":"38.71100000","longitude":"23.05030000","population":2333,"timezone":"Europe/Athens","type":"city","translations":{"es":"Livanátes","en":"Livanátes"}},{"name":"Loukísia","state_code":"H","latitude":"38.47946000","longitude":"23.44796000","population":1161,"timezone":"Europe/Athens","type":"city","translations":{"es":"Loukísia","en":"Loukísia"}},{"name":"Loutrá Aidhipsoú","state_code":"H","latitude":"38.85695000","longitude":"23.04739000","population":2560,"timezone":"Europe/Athens","type":"city","translations":{"es":"Loutrá Aidhipsoú","en":"Loutrá Aidhipsoú"}},{"name":"Magnesia","state_code":"H","latitude":"39.28552180","longitude":"22.26144930","population":198,"timezone":"Europe/Athens","type":"city","translations":{"es":"Magnesia","en":"Magnesia"}},{"name":"Magoúla","state_code":"H","latitude":"38.41178000","longitude":"23.82128000","population":1063,"timezone":"Europe/Athens","type":"city","translations":{"es":"Magoula","en":"Magoúla"}},{"name":"Makrakómi","state_code":"H","latitude":"38.94150000","longitude":"22.11535000","population":2245,"timezone":"Europe/Athens","type":"city","translations":{"es":"Makrakómi","en":"Makrakómi"}},{"name":"Malakónta","state_code":"H","latitude":"38.40000000","longitude":"23.76667000","population":1197,"timezone":"Europe/Athens","type":"city","translations":{"es":"Malakónta","en":"Malakónta"}},{"name":"Malesína","state_code":"H","latitude":"38.62225000","longitude":"23.23370000","population":3459,"timezone":"Europe/Athens","type":"city","translations":{"es":"Malesína","en":"Malesína"}},{"name":"Mantoúdi","state_code":"H","latitude":"38.79808000","longitude":"23.47967000","population":2203,"timezone":"Europe/Athens","type":"city","translations":{"es":"Mantoúdi","en":"Mantoúdi"}},{"name":"Marmárion","state_code":"H","latitude":"38.04839000","longitude":"24.32039000","population":1013,"timezone":"Europe/Athens","type":"city","translations":{"es":"Marmárion","en":"Marmárion"}},{"name":"Martínon","state_code":"H","latitude":"38.56817000","longitude":"23.21458000","population":1916,"timezone":"Europe/Athens","type":"city","translations":{"es":"Martínon","en":"Martínon"}},{"name":"Mólos","state_code":"H","latitude":"38.80998000","longitude":"22.64544000","population":1746,"timezone":"Europe/Athens","type":"city","translations":{"es":"Mólos","en":"Mólos"}},{"name":"Mouzaki","state_code":"H","latitude":"39.42780350","longitude":"21.65216250","population":1838,"timezone":"Europe/Athens","type":"adm3","translations":{"es":"Mouzaki","en":"Mouzaki"}},{"name":"Mytikas","state_code":"H","latitude":"38.44373000","longitude":"23.65365000","population":1808,"timezone":"Europe/Athens","type":"city","translations":{"es":"Mytikas","en":"Mytikas"}},{"name":"Néa Artáki","state_code":"H","latitude":"38.52027000","longitude":"23.63296000","population":10302,"timezone":"Europe/Athens","type":"city","translations":{"es":"Néa Artáki","en":"Néa Artáki"}},{"name":"Néa Lámpsakos","state_code":"H","latitude":"38.43729000","longitude":"23.62824000","population":1880,"timezone":"Europe/Athens","type":"city","translations":{"es":"Néa Lámpsakos","en":"Néa Lámpsakos"}},{"name":"Néa Stíra","state_code":"H","latitude":"38.17935000","longitude":"24.20842000","population":1031,"timezone":"Europe/Athens","type":"city","translations":{"es":"Néa Stíra","en":"Néa Stíra"}},{"name":"Néon Monastírion","state_code":"H","latitude":"39.23988000","longitude":"22.27465000","population":1159,"timezone":"Europe/Athens","type":"city","translations":{"es":"Monasterio de neón","en":"Néon Monastírion"}},{"name":"Nomós Evrytanías","state_code":"H","latitude":"39.00000000","longitude":"21.66667000","population":null,"timezone":"Europe/Athens","type":"city","translations":{"es":"Nombre Euritania","en":"Nomós Evrytanías"}},{"name":"Nomós Fokídos","state_code":"H","latitude":"38.50000000","longitude":"22.25000000","population":null,"timezone":"Europe/Athens","type":"city","translations":{"es":"Nombre Fokídos","en":"Nomós Fokídos"}},{"name":"Oinófyta","state_code":"H","latitude":"38.31163000","longitude":"23.64000000","population":2882,"timezone":"Europe/Athens","type":"city","translations":{"es":"Oinófyta","en":"Oinófyta"}},{"name":"Omvriakí","state_code":"H","latitude":"39.10118000","longitude":"22.27106000","population":1210,"timezone":"Europe/Athens","type":"city","translations":{"es":"Omvriakí","en":"Omvriakí"}},{"name":"Orchomenós","state_code":"H","latitude":"38.49290000","longitude":"22.97962000","population":5919,"timezone":"Europe/Athens","type":"city","translations":{"es":"Orcómeno","en":"Orchomenós"}},{"name":"Oreoí","state_code":"H","latitude":"38.95034000","longitude":"23.09191000","population":1136,"timezone":"Europe/Athens","type":"city","translations":{"es":"Oreo","en":"Oreoí"}},{"name":"Oxílithos","state_code":"H","latitude":"38.57988000","longitude":"24.11184000","population":1061,"timezone":"Europe/Athens","type":"city","translations":{"es":"Oxílitos","en":"Oxílithos"}},{"name":"Palamas","state_code":"H","latitude":"39.46618940","longitude":"22.06327780","population":4770,"timezone":"Europe/Athens","type":"adm3","translations":{"es":"Palamás","en":"Palamas"}},{"name":"Paralía Avlídhos","state_code":"H","latitude":"38.38002000","longitude":"23.62842000","population":3115,"timezone":"Europe/Athens","type":"city","translations":{"es":"Paralía Avlídhos","en":"Paralía Avlídhos"}},{"name":"Pelasgía","state_code":"H","latitude":"38.94813000","longitude":"22.83980000","population":1360,"timezone":"Europe/Athens","type":"city","translations":{"es":"Pelasgía","en":"Pelasgía"}},{"name":"Pláka Dílesi","state_code":"H","latitude":"38.34950000","longitude":"23.65056000","population":2360,"timezone":"Europe/Athens","type":"city","translations":{"es":"Pláka Dílesi","en":"Pláka Dílesi"}},{"name":"Politiká","state_code":"H","latitude":"38.59673000","longitude":"23.54457000","population":1498,"timezone":"Europe/Athens","type":"city","translations":{"es":"Política","en":"Politiká"}},{"name":"Prokópi","state_code":"H","latitude":"38.73402000","longitude":"23.49060000","population":1108,"timezone":"Europe/Athens","type":"city","translations":{"es":"Prokopis","en":"Prokópi"}},{"name":"Psachná","state_code":"H","latitude":"38.57852000","longitude":"23.64326000","population":5500,"timezone":"Europe/Athens","type":"adm3","translations":{"es":"Psachná","en":"Psachná"}},{"name":"Pyli","state_code":"H","latitude":"39.45968180","longitude":"21.61132910","population":2918,"timezone":"Europe/Athens","type":"adm3","translations":{"es":"Pyli","en":"Pyli"}},{"name":"Rigas Feraios","state_code":"H","latitude":"39.43193290","longitude":"22.49077380","population":12289,"timezone":"Europe/Athens","type":"city","translations":{"es":"Rigas Feraios","en":"Rigas Feraios"}},{"name":"Rodhítsa","state_code":"H","latitude":"38.88829000","longitude":"22.46410000","population":3509,"timezone":"Europe/Athens","type":"city","translations":{"es":"Rodhítsa","en":"Rodhítsa"}},{"name":"Roviés","state_code":"H","latitude":"38.80971000","longitude":"23.23073000","population":1206,"timezone":"Europe/Athens","type":"city","translations":{"es":"Roviés","en":"Roviés"}},{"name":"Schimatári","state_code":"H","latitude":"38.35000000","longitude":"23.58333000","population":3868,"timezone":"Europe/Athens","type":"adm3","translations":{"es":"Schimatári","en":"Schimatári"}},{"name":"Skiathos","state_code":"H","latitude":"39.16674130","longitude":"23.47615080","population":5314,"timezone":"Europe/Athens","type":"city","translations":{"es":"Scíathos","en":"Skiathos"}},{"name":"Skopelos","state_code":"H","latitude":"39.11901260","longitude":"23.72242440","population":1383,"timezone":"Europe/Athens","type":"adm3","translations":{"es":"Skópelos","en":"Skopelos"}},{"name":"Skýros","state_code":"H","latitude":"38.90417000","longitude":"24.56306000","population":1725,"timezone":"Europe/Athens","type":"adm3","translations":{"es":"Skýros","en":"Skýros"}},{"name":"Sofades","state_code":"H","latitude":"39.33568990","longitude":"22.07705130","population":23378,"timezone":"Europe/Athens","type":"city","translations":{"es":"Sofás","en":"Sofades"}},{"name":"South Pelion","state_code":"H","latitude":"39.23287120","longitude":"22.86908760","population":null,"timezone":"Europe/Athens","type":"city","translations":{"es":"Pelión del Sur","en":"South Pelion"}},{"name":"Spercheiáda","state_code":"H","latitude":"38.90656000","longitude":"22.12792000","population":2470,"timezone":"Europe/Athens","type":"adm3","translations":{"es":"Spercheiáda","en":"Spercheiáda"}},{"name":"Sporades","state_code":"H","latitude":"39.26948010","longitude":"23.53023680","population":null,"timezone":"Europe/Athens","type":"city","translations":{"es":"Espóradas","en":"Sporades"}},{"name":"Stavrós","state_code":"H","latitude":"38.89641000","longitude":"22.37082000","population":2489,"timezone":"Europe/Athens","type":"city","translations":{"es":"Stavrós","en":"Stavrós"}},{"name":"Steíri","state_code":"H","latitude":"38.40831000","longitude":"22.71162000","population":1056,"timezone":"Europe/Athens","type":"city","translations":{"es":"Steíri","en":"Steíri"}},{"name":"Stylída","state_code":"H","latitude":"38.91667000","longitude":"22.61667000","population":4438,"timezone":"Europe/Athens","type":"adm3","translations":{"es":"Estilizada","en":"Stylída"}},{"name":"Tempi","state_code":"H","latitude":"39.85937490","longitude":"22.52841980","population":51,"timezone":"Europe/Athens","type":"city","translations":{"es":"Tempi","en":"Tempi"}},{"name":"Thespiés","state_code":"H","latitude":"38.30300000","longitude":"23.15016000","population":1437,"timezone":"Europe/Athens","type":"city","translations":{"es":"Tespiés","en":"Thespiés"}},{"name":"Thívai","state_code":"H","latitude":"38.32500000","longitude":"23.31889000","population":36477,"timezone":"Europe/Athens","type":"city","translations":{"es":"Tebas","en":"Thívai"}},{"name":"Trikala","state_code":"H","latitude":"39.62747030","longitude":"21.01346130","population":61608,"timezone":"Europe/Athens","type":"city","translations":{"es":"Tríkala","en":"Trikala"}},{"name":"Tyrnavos","state_code":"H","latitude":"39.74054860","longitude":"22.26510900","population":10027,"timezone":"Europe/Athens","type":"city","translations":{"es":"Tyrnavos","en":"Tyrnavos"}},{"name":"Vágia","state_code":"H","latitude":"38.31748000","longitude":"23.17752000","population":4535,"timezone":"Europe/Athens","type":"city","translations":{"es":"Vágia","en":"Vágia"}},{"name":"Vasilikón","state_code":"H","latitude":"38.42586000","longitude":"23.67189000","population":6571,"timezone":"Europe/Athens","type":"city","translations":{"es":"Vasilikón","en":"Vasilikón"}},{"name":"Vathí","state_code":"H","latitude":"38.40490000","longitude":"23.60332000","population":2385,"timezone":"Europe/Athens","type":"city","translations":{"es":"Vathí","en":"Vathí"}},{"name":"Volos","state_code":"H","latitude":"39.36526450","longitude":"22.90612030","population":85803,"timezone":"Europe/Athens","type":"city","translations":{"es":"Volos","en":"Volos"}},{"name":"Yimnón","state_code":"H","latitude":"38.44048000","longitude":"23.88400000","population":2008,"timezone":"Europe/Athens","type":"city","translations":{"es":"Yimnón","en":"Yimnón"}},{"name":"Zagora-Mouresi","state_code":"H","latitude":"39.43817890","longitude":"22.94069180","population":6430,"timezone":"Europe/Athens","type":"adm2","translations":{"es":"Zagora-Mouresi","en":"Zagora-Mouresi"}},{"name":"Ádendro","state_code":"B","latitude":"40.67131000","longitude":"22.60466000","population":1889,"timezone":"Europe/Athens","type":"city","translations":{"es":"Ádendro","en":"Ádendro"}},{"name":"Áfytos","state_code":"B","latitude":"40.09915000","longitude":"23.43670000","population":1178,"timezone":"Europe/Athens","type":"city","translations":{"es":"Áfytos","en":"Áfytos"}},{"name":"Agía Paraskeví","state_code":"B","latitude":"40.48150000","longitude":"23.04863000","population":2152,"timezone":"Europe/Athens","type":"city","translations":{"es":"Agía Paraskeví","en":"Agía Paraskeví"}},{"name":"Agía Triáda","state_code":"B","latitude":"40.50003000","longitude":"22.87351000","population":3096,"timezone":"Europe/Athens","type":"city","translations":{"es":"Agía Triáda","en":"Agía Triáda"}},{"name":"Ágio Pnévma","state_code":"B","latitude":"41.10142000","longitude":"23.67992000","population":1353,"timezone":"Europe/Athens","type":"city","translations":{"es":"Ágio Pnévma","en":"Ágio Pnévma"}},{"name":"Ágios Athanásios","state_code":"B","latitude":"40.71598000","longitude":"22.72841000","population":16563,"timezone":"Europe/Athens","type":"city","translations":{"es":"Ágios Athanásios","en":"Ágios Athanásios"}},{"name":"Ágios Geórgios","state_code":"B","latitude":"40.60215000","longitude":"22.19430000","population":1767,"timezone":"Europe/Athens","type":"city","translations":{"es":"Ágios Geórgios","en":"Ágios Geórgios"}},{"name":"Ágios Loukás","state_code":"B","latitude":"40.71799000","longitude":"22.29545000","population":1665,"timezone":"Europe/Athens","type":"city","translations":{"es":"Ágios Loukás","en":"Ágios Loukás"}},{"name":"Ágios Nikólaos","state_code":"B","latitude":"40.24926000","longitude":"23.69616000","population":1735,"timezone":"Europe/Athens","type":"city","translations":{"es":"Ágios Nicolás","en":"Ágios Nikólaos"}},{"name":"Ágios Pávlos","state_code":"B","latitude":"40.64075000","longitude":"22.96039000","population":6086,"timezone":"Europe/Athens","type":"section","translations":{"es":"Ágios Pavlos","en":"Ágios Pávlos"}},{"name":"Ágios Pétros","state_code":"B","latitude":"40.86725000","longitude":"22.58298000","population":1505,"timezone":"Europe/Athens","type":"city","translations":{"es":"Ágios Pétros","en":"Ágios Pétros"}},{"name":"Ágios Spyrídon","state_code":"B","latitude":"40.20778000","longitude":"22.44311000","population":1337,"timezone":"Europe/Athens","type":"city","translations":{"es":"Ágios Spyrídon","en":"Ágios Spyrídon"}},{"name":"Ágios Vasíleios","state_code":"B","latitude":"40.66424000","longitude":"23.11373000","population":1180,"timezone":"Europe/Athens","type":"city","translations":{"es":"Ágios Vasíleios","en":"Ágios Vasíleios"}},{"name":"Agiou Pavlou","state_code":"B","latitude":"40.16041700","longitude":"24.28829860","population":null,"timezone":"Europe/Athens","type":"city","translations":{"es":"Agiou Pavlou","en":"Agiou Pavlou"}},{"name":"Agkathiá","state_code":"B","latitude":"40.55535000","longitude":"22.47083000","population":1459,"timezone":"Europe/Athens","type":"city","translations":{"es":"Agkathiá","en":"Agkathiá"}},{"name":"Aigínio","state_code":"B","latitude":"40.50139000","longitude":"22.54000000","population":3683,"timezone":"Europe/Athens","type":"adm3","translations":{"es":"Aigínio","en":"Aigínio"}},{"name":"Akrolímni","state_code":"B","latitude":"40.68020000","longitude":"22.26450000","population":1398,"timezone":"Europe/Athens","type":"city","translations":{"es":"Akrolimni","en":"Akrolímni"}},{"name":"Alexándreia","state_code":"B","latitude":"40.62667000","longitude":"22.44417000","population":15042,"timezone":"Europe/Athens","type":"adm3","translations":{"es":"Alejandría","en":"Alexándreia"}},{"name":"Alistráti","state_code":"B","latitude":"41.06443000","longitude":"23.95751000","population":2127,"timezone":"Europe/Athens","type":"city","translations":{"es":"Alistráti","en":"Alistráti"}},{"name":"Ampeleíes","state_code":"B","latitude":"40.83417000","longitude":"22.38767000","population":1070,"timezone":"Europe/Athens","type":"city","translations":{"es":"Ampeleíes","en":"Ampeleíes"}},{"name":"Ampelókipoi","state_code":"B","latitude":"40.65304000","longitude":"22.92624000","population":0,"timezone":"Europe/Athens","type":"adm3","translations":{"es":"Ampelókipoi","en":"Ampelókipoi"}},{"name":"Anatolikó","state_code":"B","latitude":"40.66152000","longitude":"22.71190000","population":2409,"timezone":"Europe/Athens","type":"city","translations":{"es":"Anatolikó","en":"Anatolikó"}},{"name":"Angelochóri","state_code":"B","latitude":"40.67862000","longitude":"22.19933000","population":1526,"timezone":"Europe/Athens","type":"city","translations":{"es":"Angelochori","en":"Angelochóri"}},{"name":"Ápsalos","state_code":"B","latitude":"40.89240000","longitude":"22.05709000","population":919,"timezone":"Europe/Athens","type":"city","translations":{"es":"Ápsalos","en":"Ápsalos"}},{"name":"Aravissós","state_code":"B","latitude":"40.84352000","longitude":"22.30178000","population":1513,"timezone":"Europe/Athens","type":"city","translations":{"es":"Aravissós","en":"Aravissós"}},{"name":"Aridaía","state_code":"B","latitude":"40.97306000","longitude":"22.05639000","population":6639,"timezone":"Europe/Athens","type":"adm3","translations":{"es":"Aridaía","en":"Aridaía"}},{"name":"Arnaía","state_code":"B","latitude":"40.48652000","longitude":"23.59537000","population":2159,"timezone":"Europe/Athens","type":"city","translations":{"es":"Arnaía","en":"Arnaía"}},{"name":"Árnissa","state_code":"B","latitude":"40.79555000","longitude":"21.83577000","population":1556,"timezone":"Europe/Athens","type":"city","translations":{"es":"Arnissa","en":"Árnissa"}},{"name":"Arsénio","state_code":"B","latitude":"40.71412000","longitude":"22.15923000","population":1389,"timezone":"Europe/Athens","type":"city","translations":{"es":"Arsenio","en":"Arsénio"}},{"name":"Askós","state_code":"B","latitude":"40.75105000","longitude":"23.38721000","population":1426,"timezone":"Europe/Athens","type":"city","translations":{"es":"Askós","en":"Askós"}},{"name":"Asproválta","state_code":"B","latitude":"40.73049000","longitude":"23.71180000","population":2405,"timezone":"Europe/Athens","type":"city","translations":{"es":"Asproválta","en":"Asproválta"}},{"name":"Ássiros","state_code":"B","latitude":"40.82143000","longitude":"23.03008000","population":1843,"timezone":"Europe/Athens","type":"city","translations":{"es":"Ássiros","en":"Ássiros"}},{"name":"Asvestochóri","state_code":"B","latitude":"40.64125000","longitude":"23.02528000","population":6453,"timezone":"Europe/Athens","type":"city","translations":{"es":"Asvestochóri","en":"Asvestochóri"}},{"name":"Áthyra","state_code":"B","latitude":"40.82615000","longitude":"22.59279000","population":1722,"timezone":"Europe/Athens","type":"city","translations":{"es":"Áthyra","en":"Áthyra"}},{"name":"Axioúpoli","state_code":"B","latitude":"40.98582000","longitude":"22.54165000","population":2729,"timezone":"Europe/Athens","type":"city","translations":{"es":"Axioúpoli","en":"Axioúpoli"}},{"name":"Axós","state_code":"B","latitude":"40.80223000","longitude":"22.36158000","population":1336,"timezone":"Europe/Athens","type":"city","translations":{"es":"Axos","en":"Axós"}},{"name":"Chalástra","state_code":"B","latitude":"40.62643000","longitude":"22.73291000","population":6657,"timezone":"Europe/Athens","type":"city","translations":{"es":"Chalástra","en":"Chalástra"}},{"name":"Chalkidóna","state_code":"B","latitude":"40.73184000","longitude":"22.59992000","population":2905,"timezone":"Europe/Athens","type":"city","translations":{"es":"Chalkidona","en":"Chalkidóna"}},{"name":"Charopó","state_code":"B","latitude":"41.26031000","longitude":"23.37279000","population":1042,"timezone":"Europe/Athens","type":"city","translations":{"es":"Charopó","en":"Charopó"}},{"name":"Chortiátis","state_code":"B","latitude":"40.60954000","longitude":"23.10014000","population":4515,"timezone":"Europe/Athens","type":"city","translations":{"es":"Chortiátis","en":"Chortiátis"}},{"name":"Chrysó","state_code":"B","latitude":"41.05806000","longitude":"23.65108000","population":1571,"timezone":"Europe/Athens","type":"adm3","translations":{"es":"Crisó","en":"Chrysó"}},{"name":"Chrysochórafa","state_code":"B","latitude":"41.18097000","longitude":"23.23551000","population":1023,"timezone":"Europe/Athens","type":"city","translations":{"es":"Crisochórafa","en":"Chrysochórafa"}},{"name":"Diavatá","state_code":"B","latitude":"40.68744000","longitude":"22.85799000","population":10205,"timezone":"Europe/Athens","type":"city","translations":{"es":"Diavatá","en":"Diavatá"}},{"name":"Diavatós","state_code":"B","latitude":"40.54606000","longitude":"22.26686000","population":1096,"timezone":"Europe/Athens","type":"city","translations":{"es":"Diavatós","en":"Diavatós"}},{"name":"Díon","state_code":"B","latitude":"40.17169000","longitude":"22.48463000","population":1413,"timezone":"Europe/Athens","type":"city","translations":{"es":"Díón","en":"Díon"}},{"name":"Dionysiou","state_code":"B","latitude":"40.16828550","longitude":"24.27188390","population":1152,"timezone":"Europe/Athens","type":"city","translations":{"es":"Dionisio","en":"Dionysiou"}},{"name":"Docheiariou","state_code":"B","latitude":"40.26791350","longitude":"24.16414720","population":null,"timezone":"Europe/Athens","type":"city","translations":{"es":"Docheiariou","en":"Docheiariou"}},{"name":"Dravískos","state_code":"B","latitude":"40.92393000","longitude":"23.87119000","population":1488,"timezone":"Europe/Athens","type":"city","translations":{"es":"Dravískos","en":"Dravískos"}},{"name":"Drymós","state_code":"B","latitude":"40.78099000","longitude":"22.95889000","population":3659,"timezone":"Europe/Athens","type":"city","translations":{"es":"Drymós","en":"Drymós"}},{"name":"Édessa","state_code":"B","latitude":"40.80260000","longitude":"22.04751000","population":17848,"timezone":"Europe/Athens","type":"adm2","translations":{"es":"Édessa","en":"Édessa"}},{"name":"Efkarpía","state_code":"B","latitude":"40.68797000","longitude":"22.95348000","population":15416,"timezone":"Europe/Athens","type":"city","translations":{"es":"Efkarpía","en":"Efkarpía"}},{"name":"Eirinoúpoli","state_code":"B","latitude":"40.67806000","longitude":"22.19278000","population":2635,"timezone":"Europe/Athens","type":"city","translations":{"es":"Eirinoúpoli","en":"Eirinoúpoli"}},{"name":"Epanomí","state_code":"B","latitude":"40.42614000","longitude":"22.92782000","population":8377,"timezone":"Europe/Athens","type":"city","translations":{"es":"Epanomí","en":"Epanomí"}},{"name":"Episkopí","state_code":"B","latitude":"40.68748000","longitude":"22.13640000","population":1990,"timezone":"Europe/Athens","type":"city","translations":{"es":"Episkopí","en":"Episkopí"}},{"name":"Esphigmenou","state_code":"B","latitude":"40.35261240","longitude":"24.13553380","population":null,"timezone":"Europe/Athens","type":"city","translations":{"es":"Esphigmenou","en":"Esphigmenou"}},{"name":"Évosmos","state_code":"B","latitude":"40.67056000","longitude":"22.90833000","population":79221,"timezone":"Europe/Athens","type":"adm3","translations":{"es":"Évosmos","en":"Évosmos"}},{"name":"Evropós","state_code":"B","latitude":"40.89703000","longitude":"22.55277000","population":1413,"timezone":"Europe/Athens","type":"city","translations":{"es":"Europa","en":"Evropós"}},{"name":"Exaplátanos","state_code":"B","latitude":"40.97643000","longitude":"22.12958000","population":1080,"timezone":"Europe/Athens","type":"city","translations":{"es":"Exaplátanos","en":"Exaplátanos"}},{"name":"Fíliro","state_code":"B","latitude":"40.69151000","longitude":"23.00460000","population":5495,"timezone":"Europe/Athens","type":"city","translations":{"es":"Fíliro","en":"Fíliro"}},{"name":"Galatádes","state_code":"B","latitude":"40.75590000","longitude":"22.28062000","population":2459,"timezone":"Europe/Athens","type":"city","translations":{"es":"Galatádes","en":"Galatádes"}},{"name":"Galátista","state_code":"B","latitude":"40.46820000","longitude":"23.28015000","population":2402,"timezone":"Europe/Athens","type":"city","translations":{"es":"Galátista","en":"Galátista"}},{"name":"Gázoros","state_code":"B","latitude":"41.02557000","longitude":"23.77574000","population":1315,"timezone":"Europe/Athens","type":"city","translations":{"es":"Gázoros","en":"Gázoros"}},{"name":"Géfyra","state_code":"B","latitude":"40.73253000","longitude":"22.69359000","population":2782,"timezone":"Europe/Athens","type":"city","translations":{"es":"Géfyra","en":"Géfyra"}},{"name":"Gerakaroú","state_code":"B","latitude":"40.62666000","longitude":"23.21566000","population":1080,"timezone":"Europe/Athens","type":"city","translations":{"es":"Gerakaroú","en":"Gerakaroú"}},{"name":"Giannitsá","state_code":"B","latitude":"40.79194000","longitude":"22.40750000","population":30498,"timezone":"Europe/Athens","type":"adm3","translations":{"es":"Giannitsá","en":"Giannitsá"}},{"name":"Gouménissa","state_code":"B","latitude":"40.94604000","longitude":"22.44974000","population":3292,"timezone":"Europe/Athens","type":"city","translations":{"es":"Gouménissa","en":"Gouménissa"}},{"name":"Hilandar","state_code":"B","latitude":"40.34001080","longitude":"24.11809660","population":null,"timezone":"Europe/Athens","type":"city","translations":{"es":"Hilandar","en":"Hilandar"}},{"name":"Ierissós","state_code":"B","latitude":"40.39748000","longitude":"23.87505000","population":3208,"timezone":"Europe/Athens","type":"adm3","translations":{"es":"Ierissós","en":"Ierissós"}},{"name":"Irákleia","state_code":"B","latitude":"41.18217000","longitude":"23.28243000","population":3786,"timezone":"Europe/Athens","type":"adm3","translations":{"es":"Iraklia","en":"Irákleia"}},{"name":"Iviron","state_code":"B","latitude":"40.24607320","longitude":"24.28230180","population":null,"timezone":"Europe/Athens","type":"city","translations":{"es":"Ivirón","en":"Iviron"}},{"name":"Kalá Déndra","state_code":"B","latitude":"41.09941000","longitude":"23.42396000","population":966,"timezone":"Europe/Athens","type":"city","translations":{"es":"Kalá Déndra","en":"Kalá Déndra"}},{"name":"Kalamariá","state_code":"B","latitude":"40.58250000","longitude":"22.95028000","population":92248,"timezone":"Europe/Athens","type":"adm3","translations":{"es":"Calamariá","en":"Kalamariá"}},{"name":"Kalí","state_code":"B","latitude":"40.81931000","longitude":"22.17761000","population":1773,"timezone":"Europe/Athens","type":"city","translations":{"es":"Kali","en":"Kalí"}},{"name":"Kallithéa","state_code":"B","latitude":"40.07374000","longitude":"23.44637000","population":1179,"timezone":"Europe/Athens","type":"city","translations":{"es":"Kallithéa","en":"Kallithéa"}},{"name":"Kalochóri","state_code":"B","latitude":"40.64189000","longitude":"22.85734000","population":4672,"timezone":"Europe/Athens","type":"city","translations":{"es":"Kalochóri","en":"Kalochóri"}},{"name":"Kalýves Polygýrou","state_code":"B","latitude":"40.28659000","longitude":"23.39033000","population":1286,"timezone":"Europe/Athens","type":"city","translations":{"es":"Kalýves Polygýrou","en":"Kalýves Polygýrou"}},{"name":"Kalývia","state_code":"B","latitude":"40.75508000","longitude":"22.21753000","population":1130,"timezone":"Europe/Athens","type":"city","translations":{"es":"Kalývia","en":"Kalývia"}},{"name":"Kampánis","state_code":"B","latitude":"40.88951000","longitude":"22.91682000","population":977,"timezone":"Europe/Athens","type":"city","translations":{"es":"Campánis","en":"Kampánis"}},{"name":"Karakallou","state_code":"B","latitude":"40.22341180","longitude":"24.30626500","population":null,"timezone":"Europe/Athens","type":"city","translations":{"es":"Karakallou","en":"Karakallou"}},{"name":"Kardiá","state_code":"B","latitude":"40.46909000","longitude":"22.99378000","population":3369,"timezone":"Europe/Athens","type":"city","translations":{"es":"Kardiá","en":"Kardiá"}},{"name":"Karítsa","state_code":"B","latitude":"40.18745000","longitude":"22.48171000","population":1843,"timezone":"Europe/Athens","type":"city","translations":{"es":"Karítsa","en":"Karítsa"}},{"name":"Karyótissa","state_code":"B","latitude":"40.76915000","longitude":"22.31331000","population":1965,"timezone":"Europe/Athens","type":"city","translations":{"es":"Karyótissa","en":"Karyótissa"}},{"name":"Kassándreia","state_code":"B","latitude":"40.04835000","longitude":"23.41362000","population":2836,"timezone":"Europe/Athens","type":"adm3","translations":{"es":"Kassándreia","en":"Kassándreia"}},{"name":"Kateríni","state_code":"B","latitude":"40.26956000","longitude":"22.50608000","population":59189,"timezone":"Europe/Athens","type":"adm2","translations":{"es":"Katerini","en":"Kateríni"}},{"name":"Káto Kamíla","state_code":"B","latitude":"41.02119000","longitude":"23.48336000","population":955,"timezone":"Europe/Athens","type":"city","translations":{"es":"Káto Kamíla","en":"Káto Kamíla"}},{"name":"Káto Lipochóri","state_code":"B","latitude":"40.75754000","longitude":"22.17962000","population":1074,"timezone":"Europe/Athens","type":"city","translations":{"es":"Káto Lipochori","en":"Káto Lipochóri"}},{"name":"Káto Miliá","state_code":"B","latitude":"40.25403000","longitude":"22.34342000","population":1286,"timezone":"Europe/Athens","type":"city","translations":{"es":"Káto Miliá","en":"Káto Miliá"}},{"name":"Káto Scholári","state_code":"B","latitude":"40.42906000","longitude":"23.02978000","population":1963,"timezone":"Europe/Athens","type":"city","translations":{"es":"Káto Scholári","en":"Káto Scholári"}},{"name":"Kavallári","state_code":"B","latitude":"40.71539000","longitude":"23.04588000","population":1993,"timezone":"Europe/Athens","type":"city","translations":{"es":"Caballero","en":"Kavallári"}},{"name":"Kilkís","state_code":"B","latitude":"40.99302000","longitude":"22.87433000","population":23182,"timezone":"Europe/Athens","type":"adm2","translations":{"es":"Kilkís","en":"Kilkís"}},{"name":"Kítros","state_code":"B","latitude":"40.37399000","longitude":"22.57862000","population":1412,"timezone":"Europe/Athens","type":"city","translations":{"es":"Kitros","en":"Kítros"}},{"name":"Kleidí","state_code":"B","latitude":"40.56632000","longitude":"22.59033000","population":1412,"timezone":"Europe/Athens","type":"city","translations":{"es":"Vestida","en":"Kleidí"}},{"name":"Koímisi","state_code":"B","latitude":"41.21282000","longitude":"23.30035000","population":1148,"timezone":"Europe/Athens","type":"city","translations":{"es":"Koímisi","en":"Koímisi"}},{"name":"Kolchikón","state_code":"B","latitude":"40.75662000","longitude":"23.13377000","population":2062,"timezone":"Europe/Athens","type":"city","translations":{"es":"Kolchikón","en":"Kolchikón"}},{"name":"Kolindrós","state_code":"B","latitude":"40.47888000","longitude":"22.48319000","population":3590,"timezone":"Europe/Athens","type":"city","translations":{"es":"Kolindrós","en":"Kolindrós"}},{"name":"Konstamonitou","state_code":"B","latitude":"40.28867390","longitude":"24.17232280","population":null,"timezone":"Europe/Athens","type":"city","translations":{"es":"Konstamonitou","en":"Konstamonitou"}},{"name":"Kontariótissa","state_code":"B","latitude":"40.22754000","longitude":"22.46100000","population":2088,"timezone":"Europe/Athens","type":"city","translations":{"es":"Kontariótissa","en":"Kontariótissa"}},{"name":"Kopanós","state_code":"B","latitude":"40.63382000","longitude":"22.12893000","population":1781,"timezone":"Europe/Athens","type":"city","translations":{"es":"Kopanós","en":"Kopanós"}},{"name":"Korinós","state_code":"B","latitude":"40.31659000","longitude":"22.58817000","population":4191,"timezone":"Europe/Athens","type":"city","translations":{"es":"Corinós","en":"Korinós"}},{"name":"Koryfí","state_code":"B","latitude":"40.60286000","longitude":"22.50681000","population":1552,"timezone":"Europe/Athens","type":"city","translations":{"es":"Koryfí","en":"Koryfí"}},{"name":"Koufália","state_code":"B","latitude":"40.77778000","longitude":"22.57194000","population":7267,"timezone":"Europe/Athens","type":"adm3","translations":{"es":"Koufalia","en":"Koufália"}},{"name":"Kouloúra","state_code":"B","latitude":"40.54652000","longitude":"22.31795000","population":941,"timezone":"Europe/Athens","type":"city","translations":{"es":"Kouloúra","en":"Kouloúra"}},{"name":"Koutloumousiou","state_code":"B","latitude":"40.25316340","longitude":"24.24520060","population":237,"timezone":"Europe/Athens","type":"adm1","translations":{"es":"Koutloumousiou","en":"Koutloumousiou"}},{"name":"Krithiá","state_code":"B","latitude":"40.84184000","longitude":"22.98292000","population":1253,"timezone":"Europe/Athens","type":"city","translations":{"es":"Krithiá","en":"Krithiá"}},{"name":"Krýa Vrýsi","state_code":"B","latitude":"40.68738000","longitude":"22.30516000","population":6839,"timezone":"Europe/Athens","type":"city","translations":{"es":"Krýa Vrýsi","en":"Krýa Vrýsi"}},{"name":"Kýmina","state_code":"B","latitude":"40.61354000","longitude":"22.69278000","population":3210,"timezone":"Europe/Athens","type":"city","translations":{"es":"Kýmina","en":"Kýmina"}},{"name":"Lagkadás","state_code":"B","latitude":"40.75000000","longitude":"23.06667000","population":8447,"timezone":"Europe/Athens","type":"city","translations":{"es":"Lagkadás","en":"Lagkadás"}},{"name":"Lagyná","state_code":"B","latitude":"40.72351000","longitude":"23.00420000","population":3591,"timezone":"Europe/Athens","type":"city","translations":{"es":"Lagyná","en":"Lagyná"}},{"name":"Lákkoma","state_code":"B","latitude":"40.39139000","longitude":"23.05578000","population":1171,"timezone":"Europe/Athens","type":"city","translations":{"es":"Lákkoma","en":"Lákkoma"}},{"name":"Lefkónas","state_code":"B","latitude":"41.10029000","longitude":"23.49658000","population":2221,"timezone":"Europe/Athens","type":"city","translations":{"es":"Lefkónas","en":"Lefkónas"}},{"name":"Leptokaryá","state_code":"B","latitude":"40.06032000","longitude":"22.56120000","population":3612,"timezone":"Europe/Athens","type":"city","translations":{"es":"Leptocariota","en":"Leptokaryá"}},{"name":"Lianovérgi","state_code":"B","latitude":"40.63526000","longitude":"22.50820000","population":1712,"timezone":"Europe/Athens","type":"city","translations":{"es":"Lianovérgi","en":"Lianovérgi"}},{"name":"Lití","state_code":"B","latitude":"40.74533000","longitude":"22.97982000","population":3280,"timezone":"Europe/Athens","type":"city","translations":{"es":"Lití","en":"Lití"}},{"name":"Litóchoro","state_code":"B","latitude":"40.10056000","longitude":"22.49778000","population":6615,"timezone":"Europe/Athens","type":"adm3","translations":{"es":"Litóchoro","en":"Litóchoro"}},{"name":"Lófos","state_code":"B","latitude":"40.24395000","longitude":"22.38033000","population":1772,"timezone":"Europe/Athens","type":"city","translations":{"es":"Lofos","en":"Lófos"}},{"name":"Loutráki","state_code":"B","latitude":"40.97116000","longitude":"21.94659000","population":1176,"timezone":"Europe/Athens","type":"city","translations":{"es":"Loutráki","en":"Loutráki"}},{"name":"Loutrós","state_code":"B","latitude":"40.58873000","longitude":"22.39976000","population":1296,"timezone":"Europe/Athens","type":"city","translations":{"es":"Loutrós","en":"Loutrós"}},{"name":"Makrochóri","state_code":"B","latitude":"40.55125000","longitude":"22.24955000","population":4965,"timezone":"Europe/Athens","type":"city","translations":{"es":"Makrochóri","en":"Makrochóri"}},{"name":"Makrýgialos","state_code":"B","latitude":"40.41551000","longitude":"22.60392000","population":2009,"timezone":"Europe/Athens","type":"city","translations":{"es":"Makrýgialos","en":"Makrýgialos"}},{"name":"Mándalo","state_code":"B","latitude":"40.85677000","longitude":"22.21264000","population":1204,"timezone":"Europe/Athens","type":"city","translations":{"es":"Mándalo","en":"Mándalo"}},{"name":"Marína","state_code":"B","latitude":"40.69200000","longitude":"22.10099000","population":1091,"timezone":"Europe/Athens","type":"city","translations":{"es":"Puerto pequeño","en":"Marína"}},{"name":"Mavrothálassa","state_code":"B","latitude":"40.89427000","longitude":"23.75048000","population":1300,"timezone":"Europe/Athens","type":"city","translations":{"es":"Mavrothálassa","en":"Mavrothálassa"}},{"name":"Mavrovoúni","state_code":"B","latitude":"40.78243000","longitude":"22.15629000","population":1067,"timezone":"Europe/Athens","type":"city","translations":{"es":"Mavrovoúni","en":"Mavrovoúni"}},{"name":"Megáli Panagía","state_code":"B","latitude":"40.44505000","longitude":"23.67999000","population":2367,"timezone":"Europe/Athens","type":"city","translations":{"es":"Megáli Panagía","en":"Megáli Panagía"}},{"name":"Megisti Lavra","state_code":"B","latitude":"40.17082910","longitude":"24.38014440","population":null,"timezone":"Europe/Athens","type":"city","translations":{"es":"Laura de Megisti","en":"Megisti Lavra"}},{"name":"Melíki","state_code":"B","latitude":"40.51685000","longitude":"22.39599000","population":2838,"timezone":"Europe/Athens","type":"city","translations":{"es":"Melíki","en":"Melíki"}},{"name":"Melíssi","state_code":"B","latitude":"40.77406000","longitude":"22.35304000","population":1024,"timezone":"Europe/Athens","type":"city","translations":{"es":"Melíssi","en":"Melíssi"}},{"name":"Melissochóri","state_code":"B","latitude":"40.76796000","longitude":"22.92858000","population":3406,"timezone":"Europe/Athens","type":"city","translations":{"es":"Melissochóri","en":"Melissochóri"}},{"name":"Meneméni","state_code":"B","latitude":"40.65829000","longitude":"22.89712000","population":14297,"timezone":"Europe/Athens","type":"city","translations":{"es":"Meneméni","en":"Meneméni"}},{"name":"Mesiméri","state_code":"B","latitude":"40.41344000","longitude":"23.00750000","population":1831,"timezone":"Europe/Athens","type":"city","translations":{"es":"Mesiméri","en":"Mesiméri"}},{"name":"Mikró Monastíri","state_code":"B","latitude":"40.70430000","longitude":"22.54112000","population":1114,"timezone":"Europe/Athens","type":"city","translations":{"es":"Mikró Monastíri","en":"Mikró Monastíri"}},{"name":"Mitroúsi","state_code":"B","latitude":"41.07041000","longitude":"23.46064000","population":1195,"timezone":"Europe/Athens","type":"city","translations":{"es":"Mitroúsi","en":"Mitroúsi"}},{"name":"Náousa","state_code":"B","latitude":"40.62944000","longitude":"22.06806000","population":19887,"timezone":"Europe/Athens","type":"adm3","translations":{"es":"Náousa","en":"Náousa"}},{"name":"Néa Apollonía","state_code":"B","latitude":"40.62558000","longitude":"23.44074000","population":1572,"timezone":"Europe/Athens","type":"city","translations":{"es":"Nea Apolonia","en":"Néa Apollonía"}},{"name":"Néa Éfesos","state_code":"B","latitude":"40.22923000","longitude":"22.49811000","population":2006,"timezone":"Europe/Athens","type":"city","translations":{"es":"Néa Éfesos","en":"Néa Éfesos"}},{"name":"Néa Flogitá","state_code":"B","latitude":"40.26108000","longitude":"23.22107000","population":1595,"timezone":"Europe/Athens","type":"city","translations":{"es":"Néa Flogitá","en":"Néa Flogitá"}},{"name":"Néa Fókaia","state_code":"B","latitude":"40.13333000","longitude":"23.39754000","population":1944,"timezone":"Europe/Athens","type":"city","translations":{"es":"Néa Fókaia","en":"Néa Fókaia"}},{"name":"Néa Kallikráteia","state_code":"B","latitude":"40.31312000","longitude":"23.06343000","population":7238,"timezone":"Europe/Athens","type":"city","translations":{"es":"Néa Kallikráteia","en":"Néa Kallikráteia"}},{"name":"Néa Magnisía","state_code":"B","latitude":"40.68785000","longitude":"22.84582000","population":4088,"timezone":"Europe/Athens","type":"city","translations":{"es":"Néa Magnisía","en":"Néa Magnisía"}},{"name":"Néa Málgara","state_code":"B","latitude":"40.60985000","longitude":"22.68196000","population":2218,"timezone":"Europe/Athens","type":"city","translations":{"es":"Néa Málgara","en":"Néa Málgara"}},{"name":"Néa Mesimvría","state_code":"B","latitude":"40.75158000","longitude":"22.76904000","population":3050,"timezone":"Europe/Athens","type":"city","translations":{"es":"Néa Mesimvría","en":"Néa Mesimvría"}},{"name":"Néa Michanióna","state_code":"B","latitude":"40.46371000","longitude":"22.86170000","population":7846,"timezone":"Europe/Athens","type":"city","translations":{"es":"Néa Michanióna","en":"Néa Michanióna"}},{"name":"Néa Moudhaniá","state_code":"B","latitude":"40.24390000","longitude":"23.28484000","population":9342,"timezone":"Europe/Athens","type":"city","translations":{"es":"Néa Moudhaniá","en":"Néa Moudhaniá"}},{"name":"Néa Pélla","state_code":"B","latitude":"40.76516000","longitude":"22.49173000","population":1595,"timezone":"Europe/Athens","type":"city","translations":{"es":"Néa Pélla","en":"Néa Pélla"}},{"name":"Néa Plágia","state_code":"B","latitude":"40.26537000","longitude":"23.20376000","population":1127,"timezone":"Europe/Athens","type":"city","translations":{"es":"Néa Plágia","en":"Néa Plágia"}},{"name":"Néa Poteídaia","state_code":"B","latitude":"40.19409000","longitude":"23.32832000","population":1559,"timezone":"Europe/Athens","type":"city","translations":{"es":"Néa Poteídaia","en":"Néa Poteídaia"}},{"name":"Néa Potídhaia","state_code":"B","latitude":"40.19428000","longitude":"23.32874000","population":1559,"timezone":"Europe/Athens","type":"city","translations":{"es":"Néa Potídhaia","en":"Néa Potídhaia"}},{"name":"Néa Róda","state_code":"B","latitude":"40.38119000","longitude":"23.92374000","population":1180,"timezone":"Europe/Athens","type":"city","translations":{"es":"Nea Róda","en":"Néa Róda"}},{"name":"Néa Sánta","state_code":"B","latitude":"40.84084000","longitude":"22.92163000","population":1693,"timezone":"Europe/Athens","type":"city","translations":{"es":"Néa Santa","en":"Néa Sánta"}},{"name":"Néa Tríglia","state_code":"B","latitude":"40.30575000","longitude":"23.20660000","population":3017,"timezone":"Europe/Athens","type":"city","translations":{"es":"Néa Tríglia","en":"Néa Tríglia"}},{"name":"Néa Vrasná","state_code":"B","latitude":"40.70592000","longitude":"23.69850000","population":2577,"timezone":"Europe/Athens","type":"city","translations":{"es":"Néa Vrasná","en":"Néa Vrasná"}},{"name":"Néa Zíchni","state_code":"B","latitude":"41.03204000","longitude":"23.82870000","population":2530,"timezone":"Europe/Athens","type":"adm3","translations":{"es":"Néa Zíchni","en":"Néa Zíchni"}},{"name":"Neapoli","state_code":"B","latitude":"40.65320000","longitude":"22.94156000","population":25822,"timezone":"Europe/Athens","type":"city","translations":{"es":"Nápoles","en":"Neapoli"}},{"name":"Néo Agionéri","state_code":"B","latitude":"40.80826000","longitude":"22.70733000","population":1014,"timezone":"Europe/Athens","type":"city","translations":{"es":"Neo Agionéri","en":"Néo Agionéri"}},{"name":"Néo Petrítsi","state_code":"B","latitude":"41.27459000","longitude":"23.29381000","population":1690,"timezone":"Europe/Athens","type":"city","translations":{"es":"Neo Petrítsi","en":"Néo Petrítsi"}},{"name":"Néo Rýsi","state_code":"B","latitude":"40.49605000","longitude":"22.98794000","population":2952,"timezone":"Europe/Athens","type":"city","translations":{"es":"Neo Rýsi","en":"Néo Rýsi"}},{"name":"Néo Soúli","state_code":"B","latitude":"41.09397000","longitude":"23.64376000","population":2051,"timezone":"Europe/Athens","type":"city","translations":{"es":"Neo Souli","en":"Néo Soúli"}},{"name":"Neochóri","state_code":"B","latitude":"41.05231000","longitude":"23.57997000","population":1227,"timezone":"Europe/Athens","type":"city","translations":{"es":"Neochóri","en":"Neochóri"}},{"name":"Neochoroúda","state_code":"B","latitude":"40.73817000","longitude":"22.87557000","population":1763,"timezone":"Europe/Athens","type":"city","translations":{"es":"Neochoroúda","en":"Neochoroúda"}},{"name":"Néoi Epivátes","state_code":"B","latitude":"40.49863000","longitude":"22.91192000","population":5882,"timezone":"Europe/Athens","type":"city","translations":{"es":"Neoi Epivátes","en":"Néoi Epivátes"}},{"name":"Néos Marmarás","state_code":"B","latitude":"40.09610000","longitude":"23.78323000","population":2884,"timezone":"Europe/Athens","type":"city","translations":{"es":"Neos Marmaras","en":"Néos Marmarás"}},{"name":"Néos Mylótopos","state_code":"B","latitude":"40.81872000","longitude":"22.35489000","population":2835,"timezone":"Europe/Athens","type":"city","translations":{"es":"Neos Mylótopos","en":"Néos Mylótopos"}},{"name":"Néos Skopós","state_code":"B","latitude":"41.02390000","longitude":"23.60927000","population":1618,"timezone":"Europe/Athens","type":"city","translations":{"es":"Neos Skopós","en":"Néos Skopós"}},{"name":"Nigríta","state_code":"B","latitude":"40.90528000","longitude":"23.49944000","population":4892,"timezone":"Europe/Athens","type":"adm3","translations":{"es":"Nigríta","en":"Nigríta"}},{"name":"Níkiti","state_code":"B","latitude":"40.22204000","longitude":"23.66837000","population":2845,"timezone":"Europe/Athens","type":"adm3","translations":{"es":"Níkiti","en":"Níkiti"}},{"name":"Nisí","state_code":"B","latitude":"40.63610000","longitude":"22.38884000","population":1473,"timezone":"Europe/Athens","type":"city","translations":{"es":"Si no","en":"Nisí"}},{"name":"Nomós Chalkidikís","state_code":"B","latitude":"40.41667000","longitude":"23.50000000","population":null,"timezone":"Europe/Athens","type":"city","translations":{"es":"Nombre Chalkidikís","en":"Nomós Chalkidikís"}},{"name":"Nomós Péllis","state_code":"B","latitude":"40.83333000","longitude":"22.25000000","population":null,"timezone":"Europe/Athens","type":"city","translations":{"es":"Nombre Péllis","en":"Nomós Péllis"}},{"name":"Nomós Thessaloníkis","state_code":"B","latitude":"40.66667000","longitude":"23.00000000","population":null,"timezone":"Europe/Athens","type":"city","translations":{"es":"Nombre Tesalónica","en":"Nomós Thessaloníkis"}},{"name":"Ólynthos","state_code":"B","latitude":"40.29147000","longitude":"23.34205000","population":1053,"timezone":"Europe/Athens","type":"city","translations":{"es":"Ólinto","en":"Ólynthos"}},{"name":"Oraiókastro","state_code":"B","latitude":"40.73083000","longitude":"22.91722000","population":20852,"timezone":"Europe/Athens","type":"adm3","translations":{"es":"Oraiókastro","en":"Oraiókastro"}},{"name":"Ormýlia","state_code":"B","latitude":"40.29451000","longitude":"23.54332000","population":2979,"timezone":"Europe/Athens","type":"city","translations":{"es":"Ormilia","en":"Ormýlia"}},{"name":"Osiou Gregoriou","state_code":"B","latitude":"40.19551360","longitude":"24.19748120","population":null,"timezone":"Europe/Athens","type":"city","translations":{"es":"Osiou Gregoriou","en":"Osiou Gregoriou"}},{"name":"Ouranoupolis","state_code":"B","latitude":"40.33333000","longitude":"23.98333000","population":1047,"timezone":"Europe/Athens","type":"city","translations":{"es":"Ouranopolis","en":"Ouranoupolis"}},{"name":"Palaífyto","state_code":"B","latitude":"40.78283000","longitude":"22.27388000","population":1225,"timezone":"Europe/Athens","type":"city","translations":{"es":"Palaífyto","en":"Palaífyto"}},{"name":"Palaiochóri","state_code":"B","latitude":"40.49186000","longitude":"23.64928000","population":1489,"timezone":"Europe/Athens","type":"city","translations":{"es":"Palaiochóri","en":"Palaiochóri"}},{"name":"Palaiokómi","state_code":"B","latitude":"40.87068000","longitude":"23.90121000","population":1081,"timezone":"Europe/Athens","type":"city","translations":{"es":"Paleokomi","en":"Palaiokómi"}},{"name":"Panórama","state_code":"B","latitude":"40.58779000","longitude":"23.03150000","population":17679,"timezone":"Europe/Athens","type":"adm3","translations":{"es":"Panorama","en":"Panórama"}},{"name":"Pantokratoros","state_code":"B","latitude":"40.27918290","longitude":"24.23398530","population":null,"timezone":"Europe/Athens","type":"adm1","translations":{"es":"Pantokratoros","en":"Pantokratoros"}},{"name":"Paralía","state_code":"B","latitude":"40.26710000","longitude":"22.59615000","population":1801,"timezone":"Europe/Athens","type":"city","translations":{"es":"Paralía","en":"Paralía"}},{"name":"Patrída","state_code":"B","latitude":"40.56071000","longitude":"22.18545000","population":1314,"timezone":"Europe/Athens","type":"city","translations":{"es":"Patrída","en":"Patrída"}},{"name":"Péfka","state_code":"B","latitude":"40.65806000","longitude":"22.99378000","population":13435,"timezone":"Europe/Athens","type":"city","translations":{"es":"Péfka","en":"Péfka"}},{"name":"Pefkochóri","state_code":"B","latitude":"39.98784000","longitude":"23.61219000","population":2194,"timezone":"Europe/Athens","type":"city","translations":{"es":"Pefkochóri","en":"Pefkochóri"}},{"name":"Pélla","state_code":"B","latitude":"40.76169000","longitude":"22.52637000","population":2476,"timezone":"Europe/Athens","type":"city","translations":{"es":"Pélla","en":"Pélla"}},{"name":"Pentálofos","state_code":"B","latitude":"40.74296000","longitude":"22.85256000","population":2022,"timezone":"Europe/Athens","type":"city","translations":{"es":"Pentálofos","en":"Pentálofos"}},{"name":"Pentaplátano","state_code":"B","latitude":"40.81902000","longitude":"22.41903000","population":1015,"timezone":"Europe/Athens","type":"city","translations":{"es":"Pentaplátano","en":"Pentaplátano"}},{"name":"Peraía","state_code":"B","latitude":"40.49874000","longitude":"22.92617000","population":16910,"timezone":"Europe/Athens","type":"adm3","translations":{"es":"Peraía","en":"Peraía"}},{"name":"Perístasi","state_code":"B","latitude":"40.27443000","longitude":"22.54164000","population":2367,"timezone":"Europe/Athens","type":"city","translations":{"es":"Peristasi","en":"Perístasi"}},{"name":"Peristerá","state_code":"B","latitude":"40.54881000","longitude":"23.16540000","population":651,"timezone":"Europe/Athens","type":"city","translations":{"es":"Peristerá","en":"Peristerá"}},{"name":"Philotheou","state_code":"B","latitude":"40.22564580","longitude":"24.28867130","population":null,"timezone":"Europe/Athens","type":"city","translations":{"es":"Filoteo","en":"Philotheou"}},{"name":"Plagiári","state_code":"B","latitude":"40.47276000","longitude":"22.95790000","population":5091,"timezone":"Europe/Athens","type":"city","translations":{"es":"Plagiári","en":"Plagiári"}},{"name":"Platý","state_code":"B","latitude":"40.64241000","longitude":"22.53458000","population":2228,"timezone":"Europe/Athens","type":"city","translations":{"es":"Platý","en":"Platý"}},{"name":"Políchni","state_code":"B","latitude":"40.66671000","longitude":"22.94881000","population":56685,"timezone":"Europe/Athens","type":"city","translations":{"es":"Políchni","en":"Políchni"}},{"name":"Polýgyros","state_code":"B","latitude":"40.37704000","longitude":"23.44135000","population":10000,"timezone":"Europe/Athens","type":"adm2","translations":{"es":"Polígiros","en":"Polýgyros"}},{"name":"Polykárpi","state_code":"B","latitude":"40.92598000","longitude":"22.01634000","population":1049,"timezone":"Europe/Athens","type":"city","translations":{"es":"Policarpos","en":"Polykárpi"}},{"name":"Polýkastro","state_code":"B","latitude":"40.99444000","longitude":"22.56909000","population":6602,"timezone":"Europe/Athens","type":"adm3","translations":{"es":"Polýkastro","en":"Polýkastro"}},{"name":"Pontisméno","state_code":"B","latitude":"41.20885000","longitude":"23.28325000","population":1516,"timezone":"Europe/Athens","type":"city","translations":{"es":"Pontismo","en":"Pontisméno"}},{"name":"Portariá","state_code":"B","latitude":"40.28405000","longitude":"23.29549000","population":1193,"timezone":"Europe/Athens","type":"city","translations":{"es":"Portariá","en":"Portariá"}},{"name":"Próchoma","state_code":"B","latitude":"40.79826000","longitude":"22.66659000","population":1004,"timezone":"Europe/Athens","type":"city","translations":{"es":"Prócoma","en":"Próchoma"}},{"name":"Profítis Ilías","state_code":"B","latitude":"40.81373000","longitude":"22.16166000","population":1320,"timezone":"Europe/Athens","type":"city","translations":{"es":"Profitis Ilías","en":"Profítis Ilías"}},{"name":"Prómachoi","state_code":"B","latitude":"41.02517000","longitude":"22.00437000","population":1740,"timezone":"Europe/Athens","type":"city","translations":{"es":"Prómachoi","en":"Prómachoi"}},{"name":"Próti","state_code":"B","latitude":"40.94411000","longitude":"24.00118000","population":1176,"timezone":"Europe/Athens","type":"city","translations":{"es":"Próti","en":"Próti"}},{"name":"Provatás","state_code":"B","latitude":"41.06825000","longitude":"23.39030000","population":1099,"timezone":"Europe/Athens","type":"city","translations":{"es":"Provatás","en":"Provatás"}},{"name":"Pylaía","state_code":"B","latitude":"40.59918000","longitude":"22.98613000","population":36843,"timezone":"Europe/Athens","type":"city","translations":{"es":"Pylaía","en":"Pylaía"}},{"name":"Ritíni","state_code":"B","latitude":"40.28835000","longitude":"22.28361000","population":1711,"timezone":"Europe/Athens","type":"city","translations":{"es":"Ritíni","en":"Ritíni"}},{"name":"Rizári","state_code":"B","latitude":"40.78373000","longitude":"22.08800000","population":896,"timezone":"Europe/Athens","type":"city","translations":{"es":"Rizári","en":"Rizári"}},{"name":"Rizó","state_code":"B","latitude":"40.73331000","longitude":"22.13674000","population":1106,"timezone":"Europe/Athens","type":"city","translations":{"es":"Rizó","en":"Rizó"}},{"name":"Rizómata","state_code":"B","latitude":"40.35061000","longitude":"22.21079000","population":1157,"timezone":"Europe/Athens","type":"city","translations":{"es":"Rizómata","en":"Rizómata"}},{"name":"Rodolívos","state_code":"B","latitude":"40.92055000","longitude":"23.97489000","population":2072,"timezone":"Europe/Athens","type":"adm3","translations":{"es":"Rodolivos","en":"Rodolívos"}},{"name":"Sárti","state_code":"B","latitude":"40.09369000","longitude":"23.97859000","population":1054,"timezone":"Europe/Athens","type":"city","translations":{"es":"Sárti","en":"Sárti"}},{"name":"Sérres","state_code":"B","latitude":"41.08499000","longitude":"23.54757000","population":58400,"timezone":"Europe/Athens","type":"adm2","translations":{"es":"Serres","en":"Sérres"}},{"name":"Sevastianá","state_code":"B","latitude":"40.76874000","longitude":"22.12346000","population":1501,"timezone":"Europe/Athens","type":"city","translations":{"es":"Sevastianá","en":"Sevastianá"}},{"name":"Sfendámi","state_code":"B","latitude":"40.41307000","longitude":"22.54677000","population":1209,"timezone":"Europe/Athens","type":"city","translations":{"es":"Sfendámi","en":"Sfendámi"}},{"name":"Sidirókastro","state_code":"B","latitude":"41.23499000","longitude":"23.38899000","population":4758,"timezone":"Europe/Athens","type":"adm3","translations":{"es":"Sidirókastro","en":"Sidirókastro"}},{"name":"Símantra","state_code":"B","latitude":"40.34563000","longitude":"23.31026000","population":2421,"timezone":"Europe/Athens","type":"city","translations":{"es":"Simantra","en":"Símantra"}},{"name":"Simonopetra","state_code":"B","latitude":"40.19089880","longitude":"24.24472710","population":237,"timezone":"Europe/Athens","type":"adm1","translations":{"es":"Simonopetra","en":"Simonopetra"}},{"name":"Síndos","state_code":"B","latitude":"40.67045000","longitude":"22.80545000","population":9406,"timezone":"Europe/Athens","type":"adm3","translations":{"es":"Síndos","en":"Síndos"}},{"name":"Skotoússa","state_code":"B","latitude":"41.12844000","longitude":"23.38174000","population":1415,"timezone":"Europe/Athens","type":"city","translations":{"es":"Skotoússa","en":"Skotoússa"}},{"name":"Skoútari","state_code":"B","latitude":"41.01871000","longitude":"23.51971000","population":2154,"timezone":"Europe/Athens","type":"city","translations":{"es":"Skoútari","en":"Skoútari"}},{"name":"Skýdra","state_code":"B","latitude":"40.76722000","longitude":"22.15194000","population":5686,"timezone":"Europe/Athens","type":"adm3","translations":{"es":"Skýdra","en":"Skýdra"}},{"name":"Sochós","state_code":"B","latitude":"40.81788000","longitude":"23.35546000","population":3109,"timezone":"Europe/Athens","type":"city","translations":{"es":"Sochós","en":"Sochós"}},{"name":"Sosándra","state_code":"B","latitude":"40.99894000","longitude":"22.03254000","population":1008,"timezone":"Europe/Athens","type":"city","translations":{"es":"Sosándra","en":"Sosándra"}},{"name":"Sourotí","state_code":"B","latitude":"40.47274000","longitude":"23.09197000","population":1583,"timezone":"Europe/Athens","type":"city","translations":{"es":"Surotí","en":"Sourotí"}},{"name":"St. Panteleimon","state_code":"B","latitude":"40.23784390","longitude":"24.19873180","population":null,"timezone":"Europe/Athens","type":"city","translations":{"es":"San Pantaleón","en":"St. Panteleimon"}},{"name":"Stathmós Mourión","state_code":"B","latitude":"41.26378000","longitude":"22.83855000","population":880,"timezone":"Europe/Athens","type":"city","translations":{"es":"Stathmós Mourión","en":"Stathmós Mourión"}},{"name":"Stavronikita","state_code":"B","latitude":"40.26731890","longitude":"24.27341890","population":null,"timezone":"Europe/Athens","type":"city","translations":{"es":"Stavronikita","en":"Stavronikita"}},{"name":"Stavrós","state_code":"B","latitude":"40.66498000","longitude":"23.70015000","population":3262,"timezone":"Europe/Athens","type":"adm3","translations":{"es":"Stavrós","en":"Stavrós"}},{"name":"Stavroúpoli","state_code":"B","latitude":"40.66944000","longitude":"22.93806000","population":46008,"timezone":"Europe/Athens","type":"adm3","translations":{"es":"Stavroúpoli","en":"Stavroúpoli"}},{"name":"Stratónion","state_code":"B","latitude":"40.51406000","longitude":"23.82471000","population":1057,"timezone":"Europe/Athens","type":"city","translations":{"es":"Stratónion","en":"Stratónion"}},{"name":"Strymonikó","state_code":"B","latitude":"41.04144000","longitude":"23.31487000","population":1619,"timezone":"Europe/Athens","type":"city","translations":{"es":"Strymonikó","en":"Strymonikó"}},{"name":"Svorónos","state_code":"B","latitude":"40.26805000","longitude":"22.46366000","population":1842,"timezone":"Europe/Athens","type":"city","translations":{"es":"Svorónos","en":"Svorónos"}},{"name":"Sykiá","state_code":"B","latitude":"40.03874000","longitude":"23.94046000","population":1865,"timezone":"Europe/Athens","type":"city","translations":{"es":"Sykiá","en":"Sykiá"}},{"name":"Sykiés","state_code":"B","latitude":"40.64944000","longitude":"22.95083000","population":44955,"timezone":"Europe/Athens","type":"adm3","translations":{"es":"Sykiés","en":"Sykiés"}},{"name":"Terpní","state_code":"B","latitude":"40.91643000","longitude":"23.48137000","population":2169,"timezone":"Europe/Athens","type":"city","translations":{"es":"Terpní","en":"Terpní"}},{"name":"Thérmi","state_code":"B","latitude":"40.54712000","longitude":"23.01967000","population":14373,"timezone":"Europe/Athens","type":"adm3","translations":{"es":"Termi","en":"Thérmi"}},{"name":"Thessaloníki","state_code":"B","latitude":"40.64361000","longitude":"22.93086000","population":309617,"timezone":"Europe/Athens","type":"adm1","translations":{"es":"Tesalónica","en":"Thessaloníki"}},{"name":"Triandría","state_code":"B","latitude":"40.61500000","longitude":"22.97620000","population":9428,"timezone":"Europe/Athens","type":"section","translations":{"es":"Triandría","en":"Triandría"}},{"name":"Tríkala","state_code":"B","latitude":"40.59814000","longitude":"22.55733000","population":1704,"timezone":"Europe/Athens","type":"city","translations":{"es":"Tríkala","en":"Tríkala"}},{"name":"Trílofos","state_code":"B","latitude":"40.46898000","longitude":"22.97180000","population":6557,"timezone":"Europe/Athens","type":"city","translations":{"es":"Trílofos","en":"Trílofos"}},{"name":"Valteró","state_code":"B","latitude":"41.17927000","longitude":"23.32022000","population":1102,"timezone":"Europe/Athens","type":"city","translations":{"es":"Valteró","en":"Valteró"}},{"name":"Vamvakófyto","state_code":"B","latitude":"41.17916000","longitude":"23.39602000","population":1061,"timezone":"Europe/Athens","type":"city","translations":{"es":"Vamvakófyto","en":"Vamvakófyto"}},{"name":"Vasiliká","state_code":"B","latitude":"40.47966000","longitude":"23.13695000","population":4115,"timezone":"Europe/Athens","type":"city","translations":{"es":"Vasiliká","en":"Vasiliká"}},