[{"name":"Agana Heights Village","state_code":"01","latitude":"13.46559000","longitude":"144.74795000","population":3940,"timezone":"Pacific/Guam","type":"adm1","translations":{"es":"Agana Heights Village","en":"Agana Heights Village"}},{"name":"Asan-Maina Village","state_code":"02","latitude":"13.47215000","longitude":"144.71654000","population":2137,"timezone":"Pacific/Guam","type":"adm1","translations":{"es":"Asan-Maina Village","en":"Asan-Maina Village"}},{"name":"Barrigada Village","state_code":"03","latitude":"13.46913000","longitude":"144.79901000","population":8875,"timezone":"Pacific/Guam","type":"adm1","translations":{"es":"Barrigada Village","en":"Barrigada Village"}},{"name":"Chalan Pago-Ordot Village","state_code":"04","latitude":"13.44741000","longitude":"144.75902000","population":6822,"timezone":"Pacific/Guam","type":"adm1","translations":{"es":"Chalan Pago-Ordot Village","en":"Chalan Pago-Ordot Village"}},{"name":"Dededo Village","state_code":"05","latitude":"13.51777000","longitude":"144.83910000","population":44943,"timezone":"Pacific/Guam","type":"adm1","translations":{"es":"Dededo Village","en":"Dededo Village"}},{"name":"Agat Village","state_code":"06","latitude":"13.38300000","longitude":"144.66003000","population":3292,"timezone":"Pacific/Guam","type":"adm1","translations":{"es":"Agat Village","en":"Agat Village"}},{"name":"Hagåtña","state_code":"12","latitude":"13.47567000","longitude":"144.74886000","population":1051,"timezone":"Pacific/Guam","type":"capital","translations":{"es":"Hagåtña","en":"Hagåtña"}},{"name":"Hagåtña Village","state_code":"12","latitude":"13.47279000","longitude":"144.75802000","population":1051,"timezone":"Pacific/Guam","type":"city","translations":{"es":"Hagåtña Village","en":"Hagåtña Village"}},{"name":"Inarajan Village","state_code":"08","latitude":"13.27363000","longitude":"144.74845000","population":3052,"timezone":"Pacific/Guam","type":"adm1","translations":{"es":"Inarajan Village","en":"Inarajan Village"}},{"name":"Adacao","state_code":"10","latitude":"13.49242000","longitude":"144.84470000","population":3638,"timezone":"Pacific/Guam","type":"city","translations":{"es":"Adacao","en":"Adacao"}},{"name":"Mangilao Village","state_code":"10","latitude":"13.44761000","longitude":"144.80109000","population":15191,"timezone":"Pacific/Guam","type":"adm1","translations":{"es":"Mangilao Village","en":"Mangilao Village"}},{"name":"Merizo Village","state_code":"09","latitude":"13.26584000","longitude":"144.66908000","population":2152,"timezone":"Pacific/Guam","type":"adm1","translations":{"es":"Merizo Village","en":"Merizo Village"}},{"name":"Mongmong-Toto-Maite Village","state_code":"11","latitude":"13.46857000","longitude":"144.78214000","population":6825,"timezone":"Pacific/Guam","type":"adm1","translations":{"es":"Mongmong-Toto-Maite Village","en":"Mongmong-Toto-Maite Village"}},{"name":"Piti Village","state_code":"13","latitude":"13.46256000","longitude":"144.69331000","population":1666,"timezone":"Pacific/Guam","type":"adm1","translations":{"es":"Piti Village","en":"Piti Village"}},{"name":"Apra Harbor","state_code":"14","latitude":"13.42827000","longitude":"144.65252000","population":2930,"timezone":"Pacific/Guam","type":"city","translations":{"es":"Apra Harbor","en":"Apra Harbor"}},{"name":"Santa Rita Village","state_code":"14","latitude":"13.38608000","longitude":"144.67226000","population":7500,"timezone":"Pacific/Guam","type":"adm1","translations":{"es":"Santa Rita Village","en":"Santa Rita Village"}},{"name":"Sinajana Village","state_code":"15","latitude":"13.46334000","longitude":"144.75406000","population":2853,"timezone":"Pacific/Guam","type":"adm1","translations":{"es":"Sinajana Village","en":"Sinajana Village"}},{"name":"Talofofo Village","state_code":"16","latitude":"13.35513000","longitude":"144.75835000","population":3215,"timezone":"Pacific/Guam","type":"adm1","translations":{"es":"Talofofo Village","en":"Talofofo Village"}},{"name":"Apotgan","state_code":"17","latitude":"13.48817000","longitude":"144.77644000","population":5224,"timezone":"Pacific/Guam","type":"section","translations":{"es":"Apotgan","en":"Apotgan"}},{"name":"Tamuning","state_code":"17","latitude":"13.48754000","longitude":"144.78143000","population":19685,"timezone":"Pacific/Guam","type":"section","translations":{"es":"Tamuning","en":"Tamuning"}},{"name":"Tamuning-Tumon-Harmon Village","state_code":"17","latitude":"13.48773000","longitude":"144.78138000","population":19685,"timezone":"Pacific/Guam","type":"adm1","translations":{"es":"Tamuning-Tumon-Harmon Village","en":"Tamuning-Tumon-Harmon Village"}},{"name":"Anao","state_code":"18","latitude":"13.52890000","longitude":"144.91820000","population":2385,"timezone":"Pacific/Guam","type":"city","translations":{"es":"Anao","en":"Anao"}},{"name":"Chaguian","state_code":"18","latitude":"13.57175000","longitude":"144.88058000","population":2524,"timezone":"Pacific/Guam","type":"city","translations":{"es":"Chaguian","en":"Chaguian"}},{"name":"Yigo Village","state_code":"18","latitude":"13.53605000","longitude":"144.88855000","population":20539,"timezone":"Pacific/Guam","type":"adm1","translations":{"es":"Yigo Village","en":"Yigo Village"}},{"name":"Yona Village","state_code":"19","latitude":"13.40974000","longitude":"144.77697000","population":6484,"timezone":"Pacific/Guam","type":"adm1","translations":{"es":"Yona Village","en":"Yona Village"}}]