[{"name":"Bjelovar","state_code":"07","latitude":"45.89861000","longitude":"16.84889000","population":24392,"timezone":"Europe/Zagreb","type":"adm1","translations":{"es":"Bjelovar","en":"Bjelovar"}},{"name":"Brezovac","state_code":"07","latitude":"45.86750000","longitude":"16.84083000","population":994,"timezone":"Europe/Zagreb","type":"city","translations":{"es":"Brezovac","en":"Brezovac"}},{"name":"Čazma","state_code":"07","latitude":"45.74818000","longitude":"16.61390000","population":2417,"timezone":"Europe/Zagreb","type":"adm2","translations":{"es":"Čazma","en":"Čazma"}},{"name":"Daruvar","state_code":"07","latitude":"45.59056000","longitude":"17.22500000","population":7440,"timezone":"Europe/Zagreb","type":"adm2","translations":{"es":"Daruvar","en":"Daruvar"}},{"name":"Dežanovac","state_code":"07","latitude":"45.57056000","longitude":"17.08667000","population":608,"timezone":"Europe/Zagreb","type":"adm2","translations":{"es":"Dežanovac","en":"Dežanovac"}},{"name":"Đulovac","state_code":"07","latitude":"45.66588000","longitude":"17.42981000","population":null,"timezone":"Europe/Zagreb","type":"adm2","translations":{"es":"Đulovac","en":"Đulovac"}},{"name":"Garešnica","state_code":"07","latitude":"45.57444000","longitude":"16.94139000","population":3294,"timezone":"Europe/Zagreb","type":"adm2","translations":{"es":"Garešnica","en":"Garešnica"}},{"name":"Grad Bjelovar","state_code":"07","latitude":"45.90172000","longitude":"16.84522000","population":36316,"timezone":"Europe/Zagreb","type":"adm1","translations":{"es":"Grad Bjelovar","en":"Grad Bjelovar"}},{"name":"Grad Čazma","state_code":"07","latitude":"45.75000000","longitude":"16.61667000","population":null,"timezone":"Europe/Zagreb","type":"adm2","translations":{"es":"Grado Čazma","en":"Grad Čazma"}},{"name":"Grad Daruvar","state_code":"07","latitude":"45.60000000","longitude":"17.23333000","population":10105,"timezone":"Europe/Zagreb","type":"adm2","translations":{"es":"Grad Daruvar","en":"Grad Daruvar"}},{"name":"Grad Garešnica","state_code":"07","latitude":"45.56667000","longitude":"16.93333000","population":null,"timezone":"Europe/Zagreb","type":"adm2","translations":{"es":"Grad Garešnica","en":"Grad Garešnica"}},{"name":"Grad Grubišno Polje","state_code":"07","latitude":"45.70000000","longitude":"17.16667000","population":null,"timezone":"Europe/Zagreb","type":"adm2","translations":{"es":"Grad Grubišno Polje","en":"Grad Grubišno Polje"}},{"name":"Grubišno Polje","state_code":"07","latitude":"45.70214000","longitude":"17.17268000","population":2588,"timezone":"Europe/Zagreb","type":"adm2","translations":{"es":"Grubišno Polje","en":"Grubišno Polje"}},{"name":"Gudovac","state_code":"07","latitude":"45.88028000","longitude":"16.78083000","population":875,"timezone":"Europe/Zagreb","type":"city","translations":{"es":"Gudovac","en":"Gudovac"}},{"name":"Hercegovac","state_code":"07","latitude":"45.65861000","longitude":"17.01361000","population":857,"timezone":"Europe/Zagreb","type":"adm2","translations":{"es":"Herzegovac","en":"Hercegovac"}},{"name":"Ivanska","state_code":"07","latitude":"45.77889000","longitude":"16.81194000","population":564,"timezone":"Europe/Zagreb","type":"adm2","translations":{"es":"Ivanska","en":"Ivanska"}},{"name":"Kapela","state_code":"07","latitude":"45.98543000","longitude":"16.85174000","population":358,"timezone":"Europe/Zagreb","type":"adm2","translations":{"es":"Capilla","en":"Kapela"}},{"name":"Končanica","state_code":"07","latitude":"45.63611000","longitude":"17.16639000","population":692,"timezone":"Europe/Zagreb","type":"adm2","translations":{"es":"Končanica","en":"Končanica"}},{"name":"Predavac","state_code":"07","latitude":"45.93583000","longitude":"16.78333000","population":1144,"timezone":"Europe/Zagreb","type":"city","translations":{"es":"Predavac","en":"Predavac"}},{"name":"Rovišće","state_code":"07","latitude":"45.94472000","longitude":"16.73500000","population":1033,"timezone":"Europe/Zagreb","type":"adm2","translations":{"es":"Rovišće","en":"Rovišće"}},{"name":"Šandrovac","state_code":"07","latitude":"45.90556000","longitude":"17.02111000","population":623,"timezone":"Europe/Zagreb","type":"adm2","translations":{"es":"Šandrovac","en":"Šandrovac"}},{"name":"Severin","state_code":"07","latitude":"45.84152000","longitude":"16.96950000","population":449,"timezone":"Europe/Zagreb","type":"adm2","translations":{"es":"Severin","en":"Severin"}},{"name":"Sirač","state_code":"07","latitude":"45.52333000","longitude":"17.25500000","population":1152,"timezone":"Europe/Zagreb","type":"adm2","translations":{"es":"Sirac","en":"Sirač"}},{"name":"Velika Pisanica","state_code":"07","latitude":"45.80160000","longitude":"17.06551000","population":830,"timezone":"Europe/Zagreb","type":"adm2","translations":{"es":"Velika Pisanica","en":"Velika Pisanica"}},{"name":"Veliki Grđevac","state_code":"07","latitude":"45.75028000","longitude":"17.04750000","population":1054,"timezone":"Europe/Zagreb","type":"adm2","translations":{"es":"Veliki Grđevac","en":"Veliki Grđevac"}},{"name":"Ždralovi","state_code":"07","latitude":"45.87639000","longitude":"16.87500000","population":1311,"timezone":"Europe/Zagreb","type":"city","translations":{"es":"Ždralovi","en":"Ždralovi"}},{"name":"Zrinski Topolovac","state_code":"07","latitude":"46.02120000","longitude":"16.75509000","population":524,"timezone":"Europe/Zagreb","type":"adm2","translations":{"es":"Zrinski Topolovac","en":"Zrinski Topolovac"}},{"name":"Batrina","state_code":"12","latitude":"45.18944000","longitude":"17.66639000","population":861,"timezone":"Europe/Zagreb","type":"city","translations":{"es":"Batrina","en":"Batrina"}},{"name":"Brodski Varoš","state_code":"12","latitude":"45.18111000","longitude":"17.97861000","population":1829,"timezone":"Europe/Zagreb","type":"city","translations":{"es":"Brodski Varoš","en":"Brodski Varoš"}},{"name":"Bukovlje","state_code":"12","latitude":"45.18528000","longitude":"18.07000000","population":1733,"timezone":"Europe/Zagreb","type":"adm2","translations":{"es":"Bukovlje","en":"Bukovlje"}},{"name":"Cernik","state_code":"12","latitude":"45.28861000","longitude":"17.38194000","population":1426,"timezone":"Europe/Zagreb","type":"adm2","translations":{"es":"Cernik","en":"Cernik"}},{"name":"Davor","state_code":"12","latitude":"45.11528000","longitude":"17.51639000","population":2529,"timezone":"Europe/Zagreb","type":"adm2","translations":{"es":"Davor","en":"Davor"}},{"name":"Donji Andrijevci","state_code":"12","latitude":"45.18833000","longitude":"18.29972000","population":2097,"timezone":"Europe/Zagreb","type":"adm2","translations":{"es":"Donji Andrijevci","en":"Donji Andrijevci"}},{"name":"Garčin","state_code":"12","latitude":"45.18278000","longitude":"18.18306000","population":733,"timezone":"Europe/Zagreb","type":"adm2","translations":{"es":"Garčin","en":"Garčin"}},{"name":"Gornji Bogićevci","state_code":"12","latitude":"45.25572000","longitude":"17.23454000","population":538,"timezone":"Europe/Zagreb","type":"adm2","translations":{"es":"Gornji Bogićevci","en":"Gornji Bogićevci"}},{"name":"Grad Nova Gradiška","state_code":"12","latitude":"45.26667000","longitude":"17.40000000","population":null,"timezone":"Europe/Zagreb","type":"adm2","translations":{"es":"Grad Nova Gradiška","en":"Grad Nova Gradiška"}},{"name":"Grad Slavonski Brod","state_code":"12","latitude":"45.16267000","longitude":"18.03062000","population":null,"timezone":"Europe/Zagreb","type":"adm1","translations":{"es":"Grad Slavonski Brod","en":"Grad Slavonski Brod"}},{"name":"Gundinci","state_code":"12","latitude":"45.15833000","longitude":"18.49139000","population":1610,"timezone":"Europe/Zagreb","type":"adm2","translations":{"es":"Gundinci","en":"Gundinci"}},{"name":"Korenica","state_code":"12","latitude":"45.22472000","longitude":"18.16556000","population":1563,"timezone":"Europe/Zagreb","type":"city","translations":{"es":"Korenica","en":"Korenica"}},{"name":"Kruševica","state_code":"12","latitude":"45.07750000","longitude":"18.48278000","population":808,"timezone":"Europe/Zagreb","type":"city","translations":{"es":"Kruševica","en":"Kruševica"}},{"name":"Lužani","state_code":"12","latitude":"45.16806000","longitude":"17.70694000","population":850,"timezone":"Europe/Zagreb","type":"city","translations":{"es":"Luzani","en":"Lužani"}},{"name":"Nova Gradiška","state_code":"12","latitude":"45.25500000","longitude":"17.38306000","population":11690,"timezone":"Europe/Zagreb","type":"adm2","translations":{"es":"Nueva Gradiška","en":"Nova Gradiška"}},{"name":"Okučani","state_code":"12","latitude":"45.26034000","longitude":"17.19925000","population":1143,"timezone":"Europe/Zagreb","type":"adm2","translations":{"es":"Okučani","en":"Okučani"}},{"name":"Oprisavci","state_code":"12","latitude":"45.15111000","longitude":"18.22972000","population":1968,"timezone":"Europe/Zagreb","type":"adm2","translations":{"es":"Oprisavci","en":"Oprisavci"}},{"name":"Oriovac","state_code":"12","latitude":"45.16611000","longitude":"17.76000000","population":1490,"timezone":"Europe/Zagreb","type":"adm2","translations":{"es":"Oriovac","en":"Oriovac"}},{"name":"Podvinje","state_code":"12","latitude":"45.19028000","longitude":"18.02694000","population":3057,"timezone":"Europe/Zagreb","type":"city","translations":{"es":"Podvinje","en":"Podvinje"}},{"name":"Rešetari","state_code":"12","latitude":"45.26232000","longitude":"17.42346000","population":2072,"timezone":"Europe/Zagreb","type":"adm2","translations":{"es":"Rešetari","en":"Rešetari"}},{"name":"Ruščica","state_code":"12","latitude":"45.14667000","longitude":"18.07944000","population":1006,"timezone":"Europe/Zagreb","type":"city","translations":{"es":"Ruščica","en":"Ruščica"}},{"name":"Sibinj","state_code":"12","latitude":"45.19167000","longitude":"17.90806000","population":2088,"timezone":"Europe/Zagreb","type":"adm2","translations":{"es":"Sibinj","en":"Sibinj"}},{"name":"Sikirevci","state_code":"12","latitude":"45.10889000","longitude":"18.46444000","population":1490,"timezone":"Europe/Zagreb","type":"adm2","translations":{"es":"Sikirevci","en":"Sikirevci"}},{"name":"Slavonski Brod","state_code":"12","latitude":"45.16028000","longitude":"18.01556000","population":49891,"timezone":"Europe/Zagreb","type":"adm1","translations":{"es":"Slavonski Brod","en":"Slavonski Brod"}},{"name":"Slobodnica","state_code":"12","latitude":"45.16222000","longitude":"17.93278000","population":1314,"timezone":"Europe/Zagreb","type":"city","translations":{"es":"Slobodnica","en":"Slobodnica"}},{"name":"Stari Perkovci","state_code":"12","latitude":"45.21750000","longitude":"18.34861000","population":928,"timezone":"Europe/Zagreb","type":"city","translations":{"es":"Stari Perkovci","en":"Stari Perkovci"}},{"name":"Velika Kopanica","state_code":"12","latitude":"45.15611000","longitude":"18.39306000","population":1412,"timezone":"Europe/Zagreb","type":"adm2","translations":{"es":"Velika Kopanica","en":"Velika Kopanica"}},{"name":"Vrpolje","state_code":"12","latitude":"45.21056000","longitude":"18.40556000","population":1396,"timezone":"Europe/Zagreb","type":"adm2","translations":{"es":"Vrpolje","en":"Vrpolje"}},{"name":"Cavtat","state_code":"19","latitude":"42.58111000","longitude":"18.21806000","population":2189,"timezone":"Europe/Zagreb","type":"adm2","translations":{"es":"Cavtat","en":"Cavtat"}},{"name":"Čibača","state_code":"19","latitude":"42.62889000","longitude":"18.17111000","population":2039,"timezone":"Europe/Zagreb","type":"locality","translations":{"es":"Čibača","en":"Čibača"}},{"name":"Dubrovačko primorje","state_code":"19","latitude":"42.78988000","longitude":"17.86240000","population":1636,"timezone":"Europe/Zagreb","type":"city","translations":{"es":"Dubrovačko primorje","en":"Dubrovačko primorje"}},{"name":"Grad Dubrovnik","state_code":"19","latitude":"42.64861000","longitude":"18.09397000","population":null,"timezone":"Europe/Zagreb","type":"adm1","translations":{"es":"Grad Dubrovnik","en":"Grad Dubrovnik"}},{"name":"Grad Korčula","state_code":"19","latitude":"42.95693000","longitude":"17.13181000","population":null,"timezone":"Europe/Zagreb","type":"adm2","translations":{"es":"Grad Korčula","en":"Grad Korčula"}},{"name":"Grad Ploče","state_code":"19","latitude":"43.06667000","longitude":"17.43333000","population":4711,"timezone":"Europe/Zagreb","type":"adm2","translations":{"es":"Grad Ploče","en":"Grad Ploče"}},{"name":"Komin","state_code":"19","latitude":"43.04083000","longitude":"17.53694000","population":941,"timezone":"Europe/Zagreb","type":"city","translations":{"es":"Comín","en":"Komin"}},{"name":"Konavle","state_code":"19","latitude":"42.54010000","longitude":"18.33944000","population":null,"timezone":"Europe/Zagreb","type":"city","translations":{"es":"Konavle","en":"Konavle"}},{"name":"Korčula","state_code":"19","latitude":"42.96038000","longitude":"17.13525000","population":2659,"timezone":"Europe/Zagreb","type":"adm2","translations":{"es":"Korcula","en":"Korčula"}},{"name":"Lastovo","state_code":"19","latitude":"42.76757000","longitude":"16.89708000","population":309,"timezone":"Europe/Zagreb","type":"adm2","translations":{"es":"Lastovo","en":"Lastovo"}},{"name":"Lumbarda","state_code":"19","latitude":"42.92278000","longitude":"17.16722000","population":1209,"timezone":"Europe/Zagreb","type":"adm2","translations":{"es":"Lumbarda","en":"Lumbarda"}},{"name":"Metković","state_code":"19","latitude":"43.05417000","longitude":"17.64833000","population":15235,"timezone":"Europe/Zagreb","type":"adm2","translations":{"es":"Metković","en":"Metković"}},{"name":"Mljet","state_code":"19","latitude":"42.74439000","longitude":"17.53645000","population":null,"timezone":"Europe/Zagreb","type":"adm2","translations":{"es":"Mljet","en":"Mljet"}},{"name":"Mokošica","state_code":"19","latitude":"42.67556000","longitude":"18.09028000","population":2193,"timezone":"Europe/Zagreb","type":"city","translations":{"es":"Mokošica","en":"Mokošica"}},{"name":"Općina Lastovo","state_code":"19","latitude":"42.75000000","longitude":"16.90000000","population":null,"timezone":"Europe/Zagreb","type":"adm2","translations":{"es":"Općina Lastovo","en":"Općina Lastovo"}},{"name":"Opuzen","state_code":"19","latitude":"43.01528000","longitude":"17.56556000","population":2838,"timezone":"Europe/Zagreb","type":"adm2","translations":{"es":"Opuzen","en":"Opuzen"}},{"name":"Orebić","state_code":"19","latitude":"42.98556000","longitude":"17.17472000","population":3705,"timezone":"Europe/Zagreb","type":"adm2","translations":{"es":"Orebić","en":"Orebić"}},{"name":"Podgora","state_code":"19","latitude":"42.84861000","longitude":"17.83639000","population":2233,"timezone":"Europe/Zagreb","type":"city","translations":{"es":"Podgora","en":"Podgora"}},{"name":"Pojezerje","state_code":"19","latitude":"43.15741000","longitude":"17.45152000","population":943,"timezone":"Europe/Zagreb","type":"adm2","translations":{"es":"Pojezerje","en":"Pojezerje"}},{"name":"Slivno","state_code":"19","latitude":"42.95864000","longitude":"17.54431000","population":null,"timezone":"Europe/Zagreb","type":"city","translations":{"es":"Slivno","en":"Slivno"}},{"name":"Smokvica","state_code":"19","latitude":"42.93056000","longitude":"16.89639000","population":868,"timezone":"Europe/Zagreb","type":"adm2","translations":{"es":"Smokvica","en":"Smokvica"}},{"name":"Ston","state_code":"19","latitude":"42.83861000","longitude":"17.69639000","population":500,"timezone":"Europe/Zagreb","type":"adm2","translations":{"es":"Piedra","en":"Ston"}},{"name":"Vela Luka","state_code":"19","latitude":"42.96333000","longitude":"16.72250000","population":3772,"timezone":"Europe/Zagreb","type":"adm2","translations":{"es":"Vela Luka","en":"Vela Luka"}},{"name":"Zažablje","state_code":"19","latitude":"43.01113000","longitude":"17.65683000","population":553,"timezone":"Europe/Zagreb","type":"adm2","translations":{"es":"Zažablje","en":"Zažablje"}},{"name":"Žrnovo","state_code":"19","latitude":"42.95111000","longitude":"17.11417000","population":1401,"timezone":"Europe/Zagreb","type":"city","translations":{"es":"Žrnovo","en":"Žrnovo"}},{"name":"Župa dubrovačka","state_code":"19","latitude":"42.62683000","longitude":"18.19475000","population":953,"timezone":"Europe/Zagreb","type":"city","translations":{"es":"Župa dubrovačka","en":"Župa dubrovačka"}},{"name":"Bale","state_code":"18","latitude":"45.04056000","longitude":"13.78361000","population":1170,"timezone":"Europe/Zagreb","type":"adm2","translations":{"es":"Bala","en":"Bale"}},{"name":"Bale-Valle","state_code":"18","latitude":"45.04089000","longitude":"13.78565000","population":null,"timezone":"Europe/Zagreb","type":"adm2","translations":{"es":"Bale-Valle","en":"Bale-Valle"}},{"name":"Brtonigla","state_code":"18","latitude":"45.38139000","longitude":"13.62944000","population":705,"timezone":"Europe/Zagreb","type":"adm2","translations":{"es":"Brtonigla","en":"Brtonigla"}},{"name":"Brtonigla-Verteneglio","state_code":"18","latitude":"45.37918000","longitude":"13.62554000","population":1144,"timezone":"Europe/Zagreb","type":"adm2","translations":{"es":"Brtonigla-Verteneglio","en":"Brtonigla-Verteneglio"}},{"name":"Buje","state_code":"18","latitude":"45.41000000","longitude":"13.66194000","population":2087,"timezone":"Europe/Zagreb","type":"adm2","translations":{"es":"Buje","en":"Buje"}},{"name":"Buje-Buie","state_code":"18","latitude":"45.40790000","longitude":"13.65914000","population":null,"timezone":"Europe/Zagreb","type":"adm2","translations":{"es":"Buje-Buie","en":"Buje-Buie"}},{"name":"Buzet","state_code":"18","latitude":"45.40944000","longitude":"13.96667000","population":2339,"timezone":"Europe/Zagreb","type":"adm2","translations":{"es":"Buzet","en":"Buzet"}},{"name":"Fažana","state_code":"18","latitude":"44.92750000","longitude":"13.80361000","population":1788,"timezone":"Europe/Zagreb","type":"adm2","translations":{"es":"Fažana","en":"Fažana"}},{"name":"Fažana-Fasana","state_code":"18","latitude":"44.92822000","longitude":"13.80548000","population":null,"timezone":"Europe/Zagreb","type":"city","translations":{"es":"Fažana-Fasana","en":"Fažana-Fasana"}},{"name":"Funtana","state_code":"18","latitude":"45.17472000","longitude":"13.60500000","population":911,"timezone":"Europe/Zagreb","type":"adm2","translations":{"es":"Funtana","en":"Funtana"}},{"name":"Funtana-Fontane","state_code":"18","latitude":"45.17483000","longitude":"13.60627000","population":911,"timezone":"Europe/Zagreb","type":"adm2","translations":{"es":"Funtana-Fontane","en":"Funtana-Fontane"}},{"name":"Galižana","state_code":"18","latitude":"44.93167000","longitude":"13.86861000","population":1620,"timezone":"Europe/Zagreb","type":"city","translations":{"es":"Galižana","en":"Galižana"}},{"name":"Grad Buzet","state_code":"18","latitude":"45.41667000","longitude":"13.96667000","population":2339,"timezone":"Europe/Zagreb","type":"adm2","translations":{"es":"Grad Buzet","en":"Grad Buzet"}},{"name":"Grad Labin","state_code":"18","latitude":"45.08333000","longitude":"14.13333000","population":10424,"timezone":"Europe/Zagreb","type":"adm2","translations":{"es":"Grad Labin","en":"Grad Labin"}},{"name":"Grad Pazin","state_code":"18","latitude":"45.23333000","longitude":"13.93333000","population":8279,"timezone":"Europe/Zagreb","type":"adm1","translations":{"es":"Grad Pazin","en":"Grad Pazin"}},{"name":"Grožnjan","state_code":"18","latitude":"45.37889000","longitude":"13.72389000","population":142,"timezone":"Europe/Zagreb","type":"adm2","translations":{"es":"Grožnjan","en":"Grožnjan"}},{"name":"Grožnjan-Grisignana","state_code":"18","latitude":"45.37728000","longitude":"13.72145000","population":null,"timezone":"Europe/Zagreb","type":"city","translations":{"es":"Grožnjan-Grisignana","en":"Grožnjan-Grisignana"}},{"name":"Kanfanar","state_code":"18","latitude":"45.12194000","longitude":"13.83917000","population":485,"timezone":"Europe/Zagreb","type":"adm2","translations":{"es":"Kanfanar","en":"Kanfanar"}},{"name":"Karojba","state_code":"18","latitude":"45.30083000","longitude":"13.82306000","population":413,"timezone":"Europe/Zagreb","type":"adm2","translations":{"es":"Karojba","en":"Karojba"}},{"name":"Kaštelir-Labinci","state_code":"18","latitude":"45.30277000","longitude":"13.68841000","population":null,"timezone":"Europe/Zagreb","type":"adm2","translations":{"es":"Kaštelir-Labinci","en":"Kaštelir-Labinci"}},{"name":"Labin","state_code":"18","latitude":"45.09500000","longitude":"14.11972000","population":5806,"timezone":"Europe/Zagreb","type":"adm2","translations":{"es":"Labin","en":"Labin"}},{"name":"Ližnjan","state_code":"18","latitude":"44.82833000","longitude":"13.95694000","population":1445,"timezone":"Europe/Zagreb","type":"adm2","translations":{"es":"Ližnjan","en":"Ližnjan"}},{"name":"Ližnjan-Lisignano","state_code":"18","latitude":"44.82765000","longitude":"13.96028000","population":null,"timezone":"Europe/Zagreb","type":"city","translations":{"es":"Ližnjan-Lisignano","en":"Ližnjan-Lisignano"}},{"name":"Lupoglav","state_code":"18","latitude":"45.35204000","longitude":"14.10846000","population":298,"timezone":"Europe/Zagreb","type":"adm2","translations":{"es":"Lupoglav","en":"Lupoglav"}},{"name":"Marčana","state_code":"18","latitude":"44.95528000","longitude":"13.95389000","population":1099,"timezone":"Europe/Zagreb","type":"adm2","translations":{"es":"Marcana","en":"Marčana"}},{"name":"Medulin","state_code":"18","latitude":"44.82250000","longitude":"13.93500000","population":2830,"timezone":"Europe/Zagreb","type":"adm2","translations":{"es":"Medulin","en":"Medulin"}},{"name":"Motovun","state_code":"18","latitude":"45.33667000","longitude":"13.82861000","population":397,"timezone":"Europe/Zagreb","type":"adm2","translations":{"es":"Motovun","en":"Motovun"}},{"name":"Motovun-Montona","state_code":"18","latitude":"45.33633000","longitude":"13.82977000","population":397,"timezone":"Europe/Zagreb","type":"adm2","translations":{"es":"Motovun-Montona","en":"Motovun-Montona"}},{"name":"Novigrad","state_code":"18","latitude":"45.31500000","longitude":"13.55806000","population":2292,"timezone":"Europe/Zagreb","type":"adm2","translations":{"es":"Novigrado","en":"Novigrad"}},{"name":"Novigrad-Cittanova","state_code":"18","latitude":"45.31669000","longitude":"13.56155000","population":null,"timezone":"Europe/Zagreb","type":"adm2","translations":{"es":"Novigrad-Cittanova","en":"Novigrad-Cittanova"}},{"name":"Općina Lanišće","state_code":"18","latitude":"45.43520000","longitude":"14.08196000","population":null,"timezone":"Europe/Zagreb","type":"adm2","translations":{"es":"Općina Lanišće","en":"Općina Lanišće"}},{"name":"Oprtalj-Portole","state_code":"18","latitude":"45.38226000","longitude":"13.82406000","population":413,"timezone":"Europe/Zagreb","type":"adm2","translations":{"es":"Oprtalj-Portole","en":"Oprtalj-Portole"}},{"name":"Pazin","state_code":"18","latitude":"45.24028000","longitude":"13.93667000","population":8279,"timezone":"Europe/Zagreb","type":"adm1","translations":{"es":"Pazin","en":"Pazin"}},{"name":"Poreč","state_code":"18","latitude":"45.22567000","longitude":"13.59511000","population":8841,"timezone":"Europe/Zagreb","type":"adm2","translations":{"es":"Porec","en":"Poreč"}},{"name":"Poreč-Parenzo","state_code":"18","latitude":"45.22717000","longitude":"13.59653000","population":8841,"timezone":"Europe/Zagreb","type":"adm2","translations":{"es":"Poreč-Parenzo","en":"Poreč-Parenzo"}},{"name":"Pula","state_code":"18","latitude":"44.86833000","longitude":"13.84806000","population":52220,"timezone":"Europe/Zagreb","type":"adm2","translations":{"es":"Pula","en":"Pula"}},{"name":"Pula-Pola","state_code":"18","latitude":"44.86711000","longitude":"13.84882000","population":52220,"timezone":"Europe/Zagreb","type":"adm2","translations":{"es":"Pula-Pola","en":"Pula-Pola"}},{"name":"Rabac","state_code":"18","latitude":"45.07944000","longitude":"14.15750000","population":1257,"timezone":"Europe/Zagreb","type":"city","translations":{"es":"Rabac","en":"Rabac"}},{"name":"Raša","state_code":"18","latitude":"45.08028000","longitude":"14.07889000","population":1184,"timezone":"Europe/Zagreb","type":"adm2","translations":{"es":"Raša","en":"Raša"}},{"name":"Rovinj","state_code":"18","latitude":"45.08000000","longitude":"13.64000000","population":12968,"timezone":"Europe/Zagreb","type":"adm2","translations":{"es":"Rovinj","en":"Rovinj"}},{"name":"Rovinj-Rovigno","state_code":"18","latitude":"45.08190000","longitude":"13.63970000","population":null,"timezone":"Europe/Zagreb","type":"adm2","translations":{"es":"Rovinj-Rovigno","en":"Rovinj-Rovigno"}},{"name":"Sveta Nedelja","state_code":"18","latitude":"45.14932000","longitude":"14.09889000","population":18221,"timezone":"Europe/Zagreb","type":"adm2","translations":{"es":"Sveta Nedelja","en":"Sveta Nedelja"}},{"name":"Sveti Lovreč","state_code":"18","latitude":"45.17770000","longitude":"13.74317000","population":267,"timezone":"Europe/Zagreb","type":"adm2","translations":{"es":"Sveti Lovreč","en":"Sveti Lovreč"}},{"name":"Tar","state_code":"18","latitude":"45.30083000","longitude":"13.62528000","population":1144,"timezone":"Europe/Zagreb","type":"adm2","translations":{"es":"Alquitrán","en":"Tar"}},{"name":"Tar-Vabriga-Torre Abrega","state_code":"18","latitude":"45.29946000","longitude":"13.62489000","population":1144,"timezone":"Europe/Zagreb","type":"adm2","translations":{"es":"Tar-Vabriga-Torre Abrega","en":"Tar-Vabriga-Torre Abrega"}},{"name":"Umag","state_code":"18","latitude":"45.43139000","longitude":"13.52389000","population":6751,"timezone":"Europe/Zagreb","type":"adm2","translations":{"es":"Umag","en":"Umag"}},{"name":"Umag-Umago","state_code":"18","latitude":"45.43462000","longitude":"13.52589000","population":null,"timezone":"Europe/Zagreb","type":"adm2","translations":{"es":"Umag-Umago","en":"Umag-Umago"}},{"name":"Valbandon","state_code":"18","latitude":"44.91879000","longitude":"13.81344000","population":1675,"timezone":"Europe/Zagreb","type":"city","translations":{"es":"Valbandón","en":"Valbandon"}},{"name":"Vinež","state_code":"18","latitude":"45.09806000","longitude":"14.10694000","population":1172,"timezone":"Europe/Zagreb","type":"city","translations":{"es":"Vinež","en":"Vinež"}},{"name":"Višnjan-Visignano","state_code":"18","latitude":"45.27614000","longitude":"13.72128000","population":664,"timezone":"Europe/Zagreb","type":"adm2","translations":{"es":"Višnjan-Visignano","en":"Višnjan-Visignano"}},{"name":"Vižinada-Visinada","state_code":"18","latitude":"45.33126000","longitude":"13.75943000","population":null,"timezone":"Europe/Zagreb","type":"adm2","translations":{"es":"Vižinada-Visinada","en":"Vižinada-Visinada"}},{"name":"Vodnjan","state_code":"18","latitude":"44.95944000","longitude":"13.85167000","population":3133,"timezone":"Europe/Zagreb","type":"adm2","translations":{"es":"Vodnjan","en":"Vodnjan"}},{"name":"Vodnjan-Dignano","state_code":"18","latitude":"44.96187000","longitude":"13.85041000","population":3133,"timezone":"Europe/Zagreb","type":"adm2","translations":{"es":"Vodnjan-Dignano","en":"Vodnjan-Dignano"}},{"name":"Vrsar","state_code":"18","latitude":"45.14917000","longitude":"13.60528000","population":1535,"timezone":"Europe/Zagreb","type":"adm2","translations":{"es":"Vrsar","en":"Vrsar"}},{"name":"Vrsar-Orsera","state_code":"18","latitude":"45.15074000","longitude":"13.60558000","population":null,"timezone":"Europe/Zagreb","type":"city","translations":{"es":"Vrsar-Orsera","en":"Vrsar-Orsera"}},{"name":"Žminj","state_code":"18","latitude":"45.14278000","longitude":"13.90889000","population":826,"timezone":"Europe/Zagreb","type":"adm2","translations":{"es":"Žminj","en":"Žminj"}},{"name":"Drnje","state_code":"06","latitude":"46.20694000","longitude":"16.91694000","population":805,"timezone":"Europe/Zagreb","type":"adm2","translations":{"es":"Drnje","en":"Drnje"}},{"name":"Đelekovec","state_code":"06","latitude":"46.24989000","longitude":"16.87011000","population":null,"timezone":"Europe/Zagreb","type":"adm2","translations":{"es":"Đelekovec","en":"Đelekovec"}},{"name":"Đurđevac","state_code":"06","latitude":"46.03972000","longitude":"17.07168000","population":null,"timezone":"Europe/Zagreb","type":"adm2","translations":{"es":"Đurđevac","en":"Đurđevac"}},{"name":"Ferdinandovac","state_code":"06","latitude":"46.05000000","longitude":"17.20000000","population":1415,"timezone":"Europe/Zagreb","type":"adm2","translations":{"es":"Fernandovac","en":"Ferdinandovac"}},{"name":"Gola","state_code":"06","latitude":"46.19583000","longitude":"17.05806000","population":779,"timezone":"Europe/Zagreb","type":"adm2","translations":{"es":"Gola","en":"Gola"}},{"name":"Gornja Rijeka","state_code":"06","latitude":"46.10977000","longitude":"16.39079000","population":331,"timezone":"Europe/Zagreb","type":"adm2","translations":{"es":"Gornja Rijeka","en":"Gornja Rijeka"}},{"name":"Grad Koprivnica","state_code":"06","latitude":"46.16667000","longitude":"16.83333000","population":28580,"timezone":"Europe/Zagreb","type":"adm1","translations":{"es":"Grad Koprivnica","en":"Grad Koprivnica"}},{"name":"Grad Križevci","state_code":"06","latitude":"46.03333000","longitude":"16.56667000","population":null,"timezone":"Europe/Zagreb","type":"city","translations":{"es":"Grad Križevci","en":"Grad Križevci"}},{"name":"Hlebine","state_code":"06","latitude":"46.15694000","longitude":"16.96278000","population":1180,"timezone":"Europe/Zagreb","type":"adm2","translations":{"es":"Hlebine","en":"Hlebine"}},{"name":"Kalinovac","state_code":"06","latitude":"46.02944000","longitude":"17.11556000","population":1297,"timezone":"Europe/Zagreb","type":"adm2","translations":{"es":"Kalinovac","en":"Kalinovac"}},{"name":"Koprivnica","state_code":"06","latitude":"46.16278000","longitude":"16.82750000","population":28580,"timezone":"Europe/Zagreb","type":"adm1","translations":{"es":"Koprivnica","en":"Koprivnica"}},{"name":"Koprivnički Ivanec","state_code":"06","latitude":"46.19907000","longitude":"16.81629000","population":997,"timezone":"Europe/Zagreb","type":"adm2","translations":{"es":"Koprivnički Ivanec","en":"Koprivnički Ivanec"}},{"name":"Križevci","state_code":"06","latitude":"46.02194000","longitude":"16.54250000","population":10522,"timezone":"Europe/Zagreb","type":"adm2","translations":{"es":"Križevci","en":"Križevci"}},{"name":"Legrad","state_code":"06","latitude":"46.29750000","longitude":"16.85667000","population":862,"timezone":"Europe/Zagreb","type":"adm2","translations":{"es":"Legado","en":"Legrad"}},{"name":"Molve","state_code":"06","latitude":"46.10917000","longitude":"17.03167000","population":1195,"timezone":"Europe/Zagreb","type":"adm2","translations":{"es":"Moler","en":"Molve"}},{"name":"Novo Virje","state_code":"06","latitude":"46.09834000","longitude":"17.15215000","population":1026,"timezone":"Europe/Zagreb","type":"adm2","translations":{"es":"Nueva Virje","en":"Novo Virje"}},{"name":"Peteranec","state_code":"06","latitude":"46.19222000","longitude":"16.89167000","population":1240,"timezone":"Europe/Zagreb","type":"adm2","translations":{"es":"Peteranec","en":"Peteranec"}},{"name":"Rasinja","state_code":"06","latitude":"46.18389000","longitude":"16.70667000","population":730,"timezone":"Europe/Zagreb","type":"adm2","translations":{"es":"Rasinja","en":"Rasinja"}},{"name":"Reka","state_code":"06","latitude":"46.13028000","longitude":"16.76694000","population":1317,"timezone":"Europe/Zagreb","type":"city","translations":{"es":"Reka","en":"Reka"}},{"name":"Sigetec","state_code":"06","latitude":"46.18833000","longitude":"16.93583000","population":1016,"timezone":"Europe/Zagreb","type":"city","translations":{"es":"Sigetec","en":"Sigetec"}},{"name":"Virje","state_code":"06","latitude":"46.06722000","longitude":"16.99000000","population":2811,"timezone":"Europe/Zagreb","type":"adm2","translations":{"es":"Virje","en":"Virje"}},{"name":"Bedekovčina","state_code":"02","latitude":"46.04111000","longitude":"15.99639000","population":3119,"timezone":"Europe/Zagreb","type":"adm2","translations":{"es":"Bedekovčina","en":"Bedekovčina"}},{"name":"Budinščina","state_code":"02","latitude":"46.12785000","longitude":"16.20415000","population":510,"timezone":"Europe/Zagreb","type":"adm2","translations":{"es":"Budinščina","en":"Budinščina"}},{"name":"Đurmanec","state_code":"02","latitude":"46.19708000","longitude":"15.83786000","population":null,"timezone":"Europe/Zagreb","type":"adm2","translations":{"es":"Đurmanec","en":"Đurmanec"}},{"name":"Grad Donja Stubica","state_code":"02","latitude":"45.97955000","longitude":"15.97069000","population":5326,"timezone":"Europe/Zagreb","type":"adm2","translations":{"es":"Graduada Donja Stubica","en":"Grad Donja Stubica"}},{"name":"Grad Klanjec","state_code":"02","latitude":"46.04977000","longitude":"15.74615000","population":195,"timezone":"Europe/Zagreb","type":"adm2","translations":{"es":"Grad Klanjec","en":"Grad Klanjec"}},{"name":"Grad Krapina","state_code":"02","latitude":"46.15968000","longitude":"15.87258000","population":4201,"timezone":"Europe/Zagreb","type":"adm1","translations":{"es":"Grad Krapina","en":"Grad Krapina"}},{"name":"Grad Zabok","state_code":"02","latitude":"46.02808000","longitude":"15.90855000","population":null,"timezone":"Europe/Zagreb","type":"adm2","translations":{"es":"Grad Zabok","en":"Grad Zabok"}},{"name":"Grad Zlatar","state_code":"02","latitude":"46.09198000","longitude":"16.07695000","population":null,"timezone":"Europe/Zagreb","type":"adm2","translations":{"es":"Grado Zlatar","en":"Grad Zlatar"}},{"name":"Jesenje","state_code":"02","latitude":"46.20724000","longitude":"15.88194000","population":613,"timezone":"Europe/Zagreb","type":"city","translations":{"es":"Jesenje","en":"Jesenje"}},{"name":"Klanjec","state_code":"02","latitude":"46.04982000","longitude":"15.74418000","population":506,"timezone":"Europe/Zagreb","type":"adm2","translations":{"es":"Klanjec","en":"Klanjec"}},{"name":"Konjščina","state_code":"02","latitude":"46.05435000","longitude":"16.17763000","population":null,"timezone":"Europe/Zagreb","type":"adm2","translations":{"es":"Konjščina","en":"Konjščina"}},{"name":"Krapina","state_code":"02","latitude":"46.16083000","longitude":"15.87889000","population":11530,"timezone":"Europe/Zagreb","type":"adm1","translations":{"es":"Krapina","en":"Krapina"}},{"name":"Kumrovec","state_code":"02","latitude":"46.07750000","longitude":"15.67556000","population":245,"timezone":"Europe/Zagreb","type":"adm2","translations":{"es":"Kumrovec","en":"Kumrovec"}},{"name":"Mače","state_code":"02","latitude":"46.09472000","longitude":"16.03528000","population":675,"timezone":"Europe/Zagreb","type":"adm2","translations":{"es":"Maza","en":"Mače"}},{"name":"Marija Bistrica","state_code":"02","latitude":"46.00611000","longitude":"16.11111000","population":1045,"timezone":"Europe/Zagreb","type":"adm2","translations":{"es":"Marija Bistrica","en":"Marija Bistrica"}},{"name":"Mihovljan","state_code":"02","latitude":"46.13306000","longitude":"15.97222000","population":956,"timezone":"Europe/Zagreb","type":"adm2","translations":{"es":"Mihovljan","en":"Mihovljan"}},{"name":"Oroslavje","state_code":"02","latitude":"45.99672000","longitude":"15.91507000","population":3253,"timezone":"Europe/Zagreb","type":"adm2","translations":{"es":"Oroslavje","en":"Oroslavje"}},{"name":"Pregrada","state_code":"02","latitude":"46.16417000","longitude":"15.75083000","population":1870,"timezone":"Europe/Zagreb","type":"adm2","translations":{"es":"Pregrada","en":"Pregrada"}},{"name":"Radoboj","state_code":"02","latitude":"46.16639000","longitude":"15.92361000","population":1131,"timezone":"Europe/Zagreb","type":"adm2","translations":{"es":"Radoboj","en":"Radoboj"}},{"name":"Stubičke Toplice","state_code":"02","latitude":"45.97585000","longitude":"15.93238000","population":1775,"timezone":"Europe/Zagreb","type":"adm2","translations":{"es":"Stubičke Toplice","en":"Stubičke Toplice"}},{"name":"Sveti Križ Začretje","state_code":"02","latitude":"46.08224000","longitude":"15.90704000","population":null,"timezone":"Europe/Zagreb","type":"adm2","translations":{"es":"Sveti Križ Začretje","en":"Sveti Križ Začretje"}},{"name":"Zabok","state_code":"02","latitude":"46.02944000","longitude":"15.91500000","population":8656,"timezone":"Europe/Zagreb","type":"city","translations":{"es":"Zabok","en":"Zabok"}},{"name":"Zlatar","state_code":"02","latitude":"46.09417000","longitude":"16.07083000","population":2825,"timezone":"Europe/Zagreb","type":"adm2","translations":{"es":"Zlatar","en":"Zlatar"}},{"name":"Zlatar Bistrica","state_code":"02","latitude":"46.04788000","longitude":"16.08527000","population":1393,"timezone":"Europe/Zagreb","type":"adm2","translations":{"es":"Zlatar Bistrica","en":"Zlatar Bistrica"}},{"name":"Brinje","state_code":"09","latitude":"45.00250000","longitude":"15.13389000","population":1250,"timezone":"Europe/Zagreb","type":"adm2","translations":{"es":"Brinje","en":"Brinje"}},{"name":"Gospić","state_code":"09","latitude":"44.54611000","longitude":"15.37472000","population":6362,"timezone":"Europe/Zagreb","type":"adm1","translations":{"es":"Gospić","en":"Gospić"}},{"name":"Karlobag","state_code":"09","latitude":"44.52750000","longitude":"15.07389000","population":368,"timezone":"Europe/Zagreb","type":"adm2","translations":{"es":"Karlobag","en":"Karlobag"}},{"name":"Lički Osik","state_code":"09","latitude":"44.60389000","longitude":"15.42472000","population":1438,"timezone":"Europe/Zagreb","type":"city","translations":{"es":"Lički Osik","en":"Lički Osik"}},{"name":"Novalja","state_code":"09","latitude":"44.55778000","longitude":"14.88667000","population":2415,"timezone":"Europe/Zagreb","type":"adm2","translations":{"es":"Nueva Zelanda","en":"Novalja"}},{"name":"Otočac","state_code":"09","latitude":"44.86944000","longitude":"15.23750000","population":3852,"timezone":"Europe/Zagreb","type":"adm2","translations":{"es":"Otočac","en":"Otočac"}},{"name":"Perušić","state_code":"09","latitude":"44.64944000","longitude":"15.38333000","population":752,"timezone":"Europe/Zagreb","type":"adm2","translations":{"es":"Perušić","en":"Perušić"}},{"name":"Plitvička Jezera","state_code":"09","latitude":"44.88053000","longitude":"15.62123000","population":null,"timezone":"Europe/Zagreb","type":"city","translations":{"es":"Lagos de Plitvice","en":"Plitvička Jezera"}},{"name":"Popovača","state_code":"09","latitude":"44.63917000","longitude":"15.17917000","population":10255,"timezone":"Europe/Zagreb","type":"adm2","translations":{"es":"Popovača","en":"Popovača"}},{"name":"Senj","state_code":"09","latitude":"44.98944000","longitude":"14.90583000","population":4164,"timezone":"Europe/Zagreb","type":"adm2","translations":{"es":"Senj","en":"Senj"}},{"name":"Belica","state_code":"20","latitude":"46.40417000","longitude":"16.51833000","population":2038,"timezone":"Europe/Zagreb","type":"adm2","translations":{"es":"Bélica","en":"Belica"}},{"name":"Čakovec","state_code":"20","latitude":"46.38444000","longitude":"16.43389000","population":15078,"timezone":"Europe/Zagreb","type":"adm1","translations":{"es":"Čakovec","en":"Čakovec"}},{"name":"Dekanovec","state_code":"20","latitude":"46.44861000","longitude":"16.58472000","population":739,"timezone":"Europe/Zagreb","type":"adm2","translations":{"es":"Dekanovec","en":"Dekanovec"}},{"name":"Domašinec","state_code":"20","latitude":"46.43250000","longitude":"16.60000000","population":1456,"timezone":"Europe/Zagreb","type":"adm2","translations":{"es":"Domašinec","en":"Domašinec"}},{"name":"Goričan","state_code":"20","latitude":"46.38417000","longitude":"16.68083000","population":2343,"timezone":"Europe/Zagreb","type":"adm2","translations":{"es":"Goričan","en":"Goričan"}},{"name":"Grad Čakovec","state_code":"20","latitude":"46.38583000","longitude":"16.43333000","population":15078,"timezone":"Europe/Zagreb","type":"adm1","translations":{"es":"Grad Čakovec","en":"Grad Čakovec"}},{"name":"Hodošan","state_code":"20","latitude":"46.39528000","longitude":"16.64389000","population":1063,"timezone":"Europe/Zagreb","type":"city","translations":{"es":"Hodošan","en":"Hodošan"}},{"name":"Ivanovec","state_code":"20","latitude":"46.36833000","longitude":"16.47667000","population":1922,"timezone":"Europe/Zagreb","type":"city","translations":{"es":"Ivanovec","en":"Ivanovec"}},{"name":"Kotoriba","state_code":"20","latitude":"46.35500000","longitude":"16.81806000","population":2938,"timezone":"Europe/Zagreb","type":"adm2","translations":{"es":"Kotoriba","en":"Kotoriba"}},{"name":"Kuršanec","state_code":"20","latitude":"46.33028000","longitude":"16.40167000","population":1727,"timezone":"Europe/Zagreb","type":"city","translations":{"es":"Kuršanec","en":"Kuršanec"}},{"name":"Lopatinec","state_code":"20","latitude":"46.43333000","longitude":"16.38333000","population":906,"timezone":"Europe/Zagreb","type":"adm2","translations":{"es":"Lopatinec","en":"Lopatinec"}},{"name":"Mačkovec","state_code":"20","latitude":"46.42417000","longitude":"16.43361000","population":1222,"timezone":"Europe/Zagreb","type":"city","translations":{"es":"Mačkovec","en":"Mačkovec"}},{"name":"Mala Subotica","state_code":"20","latitude":"46.37616000","longitude":"16.52893000","population":1766,"timezone":"Europe/Zagreb","type":"adm2","translations":{"es":"Mala Subotica","en":"Mala Subotica"}},{"name":"Mihovljan","state_code":"20","latitude":"46.40861000","longitude":"16.44806000","population":1677,"timezone":"Europe/Zagreb","type":"city","translations":{"es":"Mihovljan","en":"Mihovljan"}},{"name":"Mursko Središće","state_code":"20","latitude":"46.50944000","longitude":"16.44111000","population":3321,"timezone":"Europe/Zagreb","type":"adm2","translations":{"es":"Mursko Središće","en":"Mursko Središće"}},{"name":"Nedelišće","state_code":"20","latitude":"46.37583000","longitude":"16.38750000","population":3840,"timezone":"Europe/Zagreb","type":"adm2","translations":{"es":"Nedelišće","en":"Nedelišće"}},{"name":"Novo Selo Rok","state_code":"20","latitude":"46.42839000","longitude":"16.46215000","population":1320,"timezone":"Europe/Zagreb","type":"city","translations":{"es":"Novo Selo Rok","en":"Novo Selo Rok"}},{"name":"Orehovica","state_code":"20","latitude":"46.33167000","longitude":"16.50694000","population":1803,"timezone":"Europe/Zagreb","type":"adm2","translations":{"es":"Orehovica","en":"Orehovica"}},{"name":"Peklenica","state_code":"20","latitude":"46.49528000","longitude":"16.47611000","population":1072,"timezone":"Europe/Zagreb","type":"city","translations":{"es":"Peklenica","en":"Peklenica"}},{"name":"Podturen","state_code":"20","latitude":"46.46472000","longitude":"16.54306000","population":1323,"timezone":"Europe/Zagreb","type":"adm2","translations":{"es":"Podturen","en":"Podturen"}},{"name":"Prelog","state_code":"20","latitude":"46.33500000","longitude":"16.61556000","population":4042,"timezone":"Europe/Zagreb","type":"adm2","translations":{"es":"Prelog","en":"Prelog"}},{"name":"Pribislavec","state_code":"20","latitude":"46.39250000","longitude":"16.48250000","population":2963,"timezone":"Europe/Zagreb","type":"adm2","translations":{"es":"Pribislavec","en":"Pribislavec"}},{"name":"Šenkovec","state_code":"20","latitude":"46.40889000","longitude":"16.42167000","population":2708,"timezone":"Europe/Zagreb","type":"adm2","translations":{"es":"Šenkovec","en":"Šenkovec"}},{"name":"Strahoninec","state_code":"20","latitude":"46.36889000","longitude":"16.41500000","population":2598,"timezone":"Europe/Zagreb","type":"adm2","translations":{"es":"Strahoninec","en":"Strahoninec"}},{"name":"Sveti Juraj na Bregu","state_code":"20","latitude":"46.42853000","longitude":"16.38525000","population":4929,"timezone":"Europe/Zagreb","type":"city","translations":{"es":"Sveti Juraj na Bregu","en":"Sveti Juraj na Bregu"}},{"name":"Vratišinec","state_code":"20","latitude":"46.47806000","longitude":"16.45778000","population":1155,"timezone":"Europe/Zagreb","type":"adm2","translations":{"es":"Vratišinec","en":"Vratišinec"}},{"name":"Antunovac","state_code":"14","latitude":"45.49083000","longitude":"18.67500000","population":2036,"timezone":"Europe/Zagreb","type":"adm2","translations":{"es":"Antunovac","en":"Antunovac"}},{"name":"Beli Manastir","state_code":"14","latitude":"45.77000000","longitude":"18.60361000","population":6327,"timezone":"Europe/Zagreb","type":"adm2","translations":{"es":"Beli Manastir","en":"Beli Manastir"}},{"name":"Belišće","state_code":"14","latitude":"45.68028000","longitude":"18.40583000","population":5354,"timezone":"Europe/Zagreb","type":"adm2","translations":{"es":"Belišće","en":"Belišće"}},{"name":"Bijelo Brdo","state_code":"14","latitude":"45.51722000","longitude":"18.87083000","population":1517,"timezone":"Europe/Zagreb","type":"city","translations":{"es":"Bijelo Brdo","en":"Bijelo Brdo"}},{"name":"Bilje","state_code":"14","latitude":"45.60694000","longitude":"18.74389000","population":3163,"timezone":"Europe/Zagreb","type":"adm2","translations":{"es":"Bilje","en":"Bilje"}},{"name":"Bistrinci","state_code":"14","latitude":"45.69167000","longitude":"18.39861000","population":1301,"timezone":"Europe/Zagreb","type":"city","translations":{"es":"Bistrinci","en":"Bistrinci"}},{"name":"Bizovac","state_code":"14","latitude":"45.59278000","longitude":"18.45889000","population":1713,"timezone":"Europe/Zagreb","type":"adm2","translations":{"es":"Bizovac","en":"Bizovac"}},{"name":"Brijest","state_code":"14","latitude":"45.52056000","longitude":"18.67194000","population":1005,"timezone":"Europe/Zagreb","type":"city","translations":{"es":"Brijest","en":"Brijest"}},{"name":"Budrovci","state_code":"14","latitude":"45.27111000","longitude":"18.44861000","population":1107,"timezone":"Europe/Zagreb","type":"city","translations":{"es":"Budrovci","en":"Budrovci"}},{"name":"Čeminac","state_code":"14","latitude":"45.68639000","longitude":"18.66750000","population":865,"timezone":"Europe/Zagreb","type":"adm2","translations":{"es":"Čeminac","en":"Čeminac"}},{"name":"Čepin","state_code":"14","latitude":"45.52361000","longitude":"18.56333000","population":9665,"timezone":"Europe/Zagreb","type":"adm2","translations":{"es":"Cepin","en":"Čepin"}},{"name":"Dalj","state_code":"14","latitude":"45.48438000","longitude":"18.98610000","population":2877,"timezone":"Europe/Zagreb","type":"city","translations":{"es":"Dalj","en":"Dalj"}},{"name":"Darda","state_code":"14","latitude":"45.62806000","longitude":"18.69972000","population":4151,"timezone":"Europe/Zagreb","type":"adm2","translations":{"es":"Darda","en":"Darda"}},{"name":"Donji Miholjac","state_code":"14","latitude":"45.76083000","longitude":"18.16722000","population":5330,"timezone":"Europe/Zagreb","type":"adm2","translations":{"es":"Donji Miholjac","en":"Donji Miholjac"}},{"name":"Draž","state_code":"14","latitude":"45.84222000","longitude":"18.78861000","population":355,"timezone":"Europe/Zagreb","type":"adm2","translations":{"es":"Draž","en":"Draž"}},{"name":"Đakovo","state_code":"14","latitude":"45.30833000","longitude":"18.41056000","population":16875,"timezone":"Europe/Zagreb","type":"adm2","translations":{"es":"Đakovo","en":"Đakovo"}},{"name":"Đurđenovac","state_code":"14","latitude":"45.54333000","longitude":"18.04583000","population":2318,"timezone":"Europe/Zagreb","type":"adm2","translations":{"es":"Đurđenovac","en":"Đurđenovac"}},{"name":"Erdut","state_code":"14","latitude":"45.52639000","longitude":"19.06028000","population":561,"timezone":"Europe/Zagreb","type":"adm2","translations":{"es":"Erdut","en":"Erdut"}},{"name":"Ernestinovo","state_code":"14","latitude":"45.45194000","longitude":"18.65917000","population":996,"timezone":"Europe/Zagreb","type":"adm2","translations":{"es":"Ernestinovo","en":"Ernestinovo"}},{"name":"Feričanci","state_code":"14","latitude":"45.52889000","longitude":"17.97583000","population":1332,"timezone":"Europe/Zagreb","type":"adm2","translations":{"es":"Feričanci","en":"Feričanci"}},{"name":"Gorjani","state_code":"14","latitude":"45.39889000","longitude":"18.37222000","population":794,"timezone":"Europe/Zagreb","type":"adm2","translations":{"es":"Gorjani","en":"Gorjani"}},{"name":"Grad Beli Manastir","state_code":"14","latitude":"45.77219000","longitude":"18.61084000","population":7973,"timezone":"Europe/Zagreb","type":"adm2","translations":{"es":"Grado Beli Manastir","en":"Grad Beli Manastir"}},{"name":"Grad Donji Miholjac","state_code":"14","latitude":"45.75000000","longitude":"18.16667000","population":5330,"timezone":"Europe/Zagreb","type":"adm2","translations":{"es":"Graduado Donji Miholjac","en":"Grad Donji Miholjac"}},{"name":"Grad Našice","state_code":"14","latitude":"45.50000000","longitude":"18.10000000","population":null,"timezone":"Europe/Zagreb","type":"adm2","translations":{"es":"Grad Našice","en":"Grad Našice"}},{"name":"Grad Osijek","state_code":"14","latitude":"45.58333000","longitude":"18.66667000","population":null,"timezone":"Europe/Zagreb","type":"city","translations":{"es":"Grad Osijek","en":"Grad Osijek"}},{"name":"Grad Valpovo","state_code":"14","latitude":"45.66667000","longitude":"18.41667000","population":6332,"timezone":"Europe/Zagreb","type":"adm2","translations":{"es":"Grado Valpovo","en":"Grad Valpovo"}},{"name":"Jagodnjak","state_code":"14","latitude":"45.69917000","longitude":"18.57694000","population":990,"timezone":"Europe/Zagreb","type":"adm2","translations":{"es":"Jagodnjak","en":"Jagodnjak"}},{"name":"Jelisavac","state_code":"14","latitude":"45.52889000","longitude":"18.15611000","population":1024,"timezone":"Europe/Zagreb","type":"city","translations":{"es":"Jelisavac","en":"Jelisavac"}},{"name":"Josipovac","state_code":"14","latitude":"45.58278000","longitude":"18.58139000","population":3602,"timezone":"Europe/Zagreb","type":"city","translations":{"es":"Josipovac","en":"Josipovac"}},{"name":"Karanac","state_code":"14","latitude":"45.76056000","longitude":"18.68444000","population":658,"timezone":"Europe/Zagreb","type":"city","translations":{"es":"Karanac","en":"Karanac"}},{"name":"Kneževi Vinogradi","state_code":"14","latitude":"45.75028000","longitude":"18.73306000","population":1332,"timezone":"Europe/Zagreb","type":"adm2","translations":{"es":"Kneževi Vinogradi","en":"Kneževi Vinogradi"}},{"name":"Koška","state_code":"14","latitude":"45.54528000","longitude":"18.28583000","population":1237,"timezone":"Europe/Zagreb","type":"adm2","translations":{"es":"Koška","en":"Koška"}},{"name":"Kuševac","state_code":"14","latitude":"45.34778000","longitude":"18.42889000","population":897,"timezone":"Europe/Zagreb","type":"city","translations":{"es":"Kuševac","en":"Kuševac"}},{"name":"Ladimirevci","state_code":"14","latitude":"45.62556000","longitude":"18.44861000","population":1290,"timezone":"Europe/Zagreb","type":"city","translations":{"es":"Ladimirevci","en":"Ladimirevci"}},{"name":"Laslovo","state_code":"14","latitude":"45.41500000","longitude":"18.69611000","population":898,"timezone":"Europe/Zagreb","type":"city","translations":{"es":"Laslovo","en":"Laslovo"}},{"name":"Magadenovac","state_code":"14","latitude":"45.66159000","longitude":"18.18679000","population":96,"timezone":"Europe/Zagreb","type":"adm2","translations":{"es":"Magadenovac","en":"Magadenovac"}},{"name":"Marijanci","state_code":"14","latitude":"45.66645000","longitude":"18.29284000","population":680,"timezone":"Europe/Zagreb","type":"adm2","translations":{"es":"Marijanci","en":"Marijanci"}},{"name":"Marjanci","state_code":"14","latitude":"45.66694000","longitude":"18.29222000","population":680,"timezone":"Europe/Zagreb","type":"adm2","translations":{"es":"Marjanci","en":"Marjanci"}},{"name":"Markovac Našički","state_code":"14","latitude":"45.49389000","longitude":"18.12556000","population":1396,"timezone":"Europe/Zagreb","type":"city","translations":{"es":"Markovac Našički","en":"Markovac Našički"}},{"name":"Martin","state_code":"14","latitude":"45.49222000","longitude":"18.06667000","population":945,"timezone":"Europe/Zagreb","type":"city","translations":{"es":"Martín","en":"Martin"}},{"name":"Našice","state_code":"14","latitude":"45.48861000","longitude":"18.08778000","population":7307,"timezone":"Europe/Zagreb","type":"adm2","translations":{"es":"Našice","en":"Našice"}},{"name":"Osijek","state_code":"14","latitude":"45.55111000","longitude":"18.69389000","population":75535,"timezone":"Europe/Zagreb","type":"adm1","translations":{"es":"Osijek","en":"Osijek"}},{"name":"Petlovac","state_code":"14","latitude":"45.75833000","longitude":"18.52806000","population":532,"timezone":"Europe/Zagreb","type":"adm2","translations":{"es":"Petlovac","en":"Petlovac"}},{"name":"Petrijevci","state_code":"14","latitude":"45.61278000","longitude":"18.53528000","population":1948,"timezone":"Europe/Zagreb","type":"adm2","translations":{"es":"Petrijevci","en":"Petrijevci"}},{"name":"Piškorevci","state_code":"14","latitude":"45.25528000","longitude":"18.40417000","population":1434,"timezone":"Europe/Zagreb","type":"city","translations":{"es":"Piškorevci","en":"Piškorevci"}},{"name":"Podgorač","state_code":"14","latitude":"45.45861000","longitude":"18.22278000","population":783,"timezone":"Europe/Zagreb","type":"adm2","translations":{"es":"Podgorač","en":"Podgorač"}},{"name":"Podravska Moslavina","state_code":"14","latitude":"45.78456000","longitude":"17.98410000","population":655,"timezone":"Europe/Zagreb","type":"adm2","translations":{"es":"Podravska Moslavina","en":"Podravska Moslavina"}},{"name":"Sarvaš","state_code":"14","latitude":"45.52722000","longitude":"18.83750000","population":1658,"timezone":"Europe/Zagreb","type":"city","translations":{"es":"Sarvaš","en":"Sarvaš"}},{"name":"Satnica Đakovačka","state_code":"14","latitude":"45.35367000","longitude":"18.37729000","population":1223,"timezone":"Europe/Zagreb","type":"adm2","translations":{"es":"Satnica Đakovačka","en":"Satnica Đakovačka"}},{"name":"Semeljci","state_code":"14","latitude":"45.36056000","longitude":"18.54361000","population":1025,"timezone":"Europe/Zagreb","type":"adm2","translations":{"es":"Semeljci","en":"Semeljci"}},{"name":"Široko Polje","state_code":"14","latitude":"45.40528000","longitude":"18.47250000","population":799,"timezone":"Europe/Zagreb","type":"city","translations":{"es":"Široko Polje","en":"Široko Polje"}},{"name":"Šodolovci","state_code":"14","latitude":"45.40000000","longitude":"18.62028000","population":267,"timezone":"Europe/Zagreb","type":"adm2","translations":{"es":"Šodolovci","en":"Šodolovci"}},{"name":"Strizivojna","state_code":"14","latitude":"45.22611000","longitude":"18.42389000","population":2027,"timezone":"Europe/Zagreb","type":"adm2","translations":{"es":"Strizivojna","en":"Strizivojna"}},{"name":"Tenja","state_code":"14","latitude":"45.49806000","longitude":"18.74722000","population":6260,"timezone":"Europe/Zagreb","type":"city","translations":{"es":"Tenja","en":"Tenja"}},{"name":"Valpovo","state_code":"14","latitude":"45.66083000","longitude":"18.41861000","population":6332,"timezone":"Europe/Zagreb","type":"adm2","translations":{"es":"Valpovo","en":"Valpovo"}},{"name":"Velimirovac","state_code":"14","latitude":"45.52361000","longitude":"18.10944000","population":946,"timezone":"Europe/Zagreb","type":"city","translations":{"es":"Velimirovac","en":"Velimirovac"}},{"name":"Viljevo","state_code":"14","latitude":"45.75139000","longitude":"18.06306000","population":987,"timezone":"Europe/Zagreb","type":"adm2","translations":{"es":"Viljevo","en":"Viljevo"}},{"name":"Viškovci","state_code":"14","latitude":"45.34500000","longitude":"18.46222000","population":920,"timezone":"Europe/Zagreb","type":"adm2","translations":{"es":"Viškovci","en":"Viškovci"}},{"name":"Višnjevac","state_code":"14","latitude":"45.56861000","longitude":"18.61389000","population":5870,"timezone":"Europe/Zagreb","type":"city","translations":{"es":"Višnjevac","en":"Višnjevac"}},{"name":"Vladislavci","state_code":"14","latitude":"45.45944000","longitude":"18.57417000","population":919,"timezone":"Europe/Zagreb","type":"adm2","translations":{"es":"Vladislavci","en":"Vladislavci"}},{"name":"Vuka","state_code":"14","latitude":"45.43389000","longitude":"18.50500000","population":764,"timezone":"Europe/Zagreb","type":"adm2","translations":{"es":"Vuka","en":"Vuka"}},{"name":"Brestovac","state_code":"11","latitude":"45.33056000","longitude":"17.59694000","population":597,"timezone":"Europe/Zagreb","type":"adm2","translations":{"es":"Brestovac","en":"Brestovac"}},{"name":"Grad Pakrac","state_code":"11","latitude":"45.43333000","longitude":"17.20000000","population":null,"timezone":"Europe/Zagreb","type":"adm2","translations":{"es":"Grado Pakrac","en":"Grad Pakrac"}},{"name":"Grad Požega","state_code":"11","latitude":"45.33333000","longitude":"17.66667000","population":null,"timezone":"Europe/Zagreb","type":"adm1","translations":{"es":"Grad Požega","en":"Grad Požega"}},{"name":"Jakšić","state_code":"11","latitude":"45.35765000","longitude":"17.76502000","population":1566,"timezone":"Europe/Zagreb","type":"adm2","translations":{"es":"Jakšić","en":"Jakšić"}},{"name":"Kaptol","state_code":"11","latitude":"45.43472000","longitude":"17.72611000","population":1040,"timezone":"Europe/Zagreb","type":"adm2","translations":{"es":"Kaptol","en":"Kaptol"}},{"name":"Kutjevo","state_code":"11","latitude":"45.42611000","longitude":"17.88250000","population":1941,"timezone":"Europe/Zagreb","type":"adm2","translations":{"es":"Kutjevo","en":"Kutjevo"}},{"name":"Lipik","state_code":"11","latitude":"45.41139000","longitude":"17.15222000","population":1967,"timezone":"Europe/Zagreb","type":"adm2","translations":{"es":"Lipik","en":"Lipik"}},{"name":"Pakrac","state_code":"11","latitude":"45.43639000","longitude":"17.18889000","population":4151,"timezone":"Europe/Zagreb","type":"adm2","translations":{"es":"Pakrac","en":"Pakrac"}},{"name":"Pleternica","state_code":"11","latitude":"45.28861000","longitude":"17.80639000","population":2895,"timezone":"Europe/Zagreb","type":"adm2","translations":{"es":"Pleternica","en":"Pleternica"}},{"name":"Požega","state_code":"11","latitude":"45.34028000","longitude":"17.68528000","population":16867,"timezone":"Europe/Zagreb","type":"adm1","translations":{"es":"Požega","en":"Požega"}},{"name":"Velika","state_code":"11","latitude":"45.45444000","longitude":"17.66139000","population":1650,"timezone":"Europe/Zagreb","type":"adm2","translations":{"es":"Velika","en":"Velika"}},{"name":"Vidovci","state_code":"11","latitude":"45.33250000","longitude":"17.71472000","population":1264,"timezone":"Europe/Zagreb","type":"city","translations":{"es":"Vidovci","en":"Vidovci"}},{"name":"Bakar","state_code":"08","latitude":"45.30861000","longitude":"14.53028000","population":1187,"timezone":"Europe/Zagreb","type":"adm2","translations":{"es":"Bakar","en":"Bakar"}},{"name":"Banjol","state_code":"08","latitude":"44.75000000","longitude":"14.78333000","population":1708,"timezone":"Europe/Zagreb","type":"city","translations":{"es":"Banjol","en":"Banjol"}},{"name":"Baška","state_code":"08","latitude":"44.97028000","longitude":"14.75333000","population":899,"timezone":"Europe/Zagreb","type":"adm2","translations":{"es":"Baska","en":"Baška"}},{"name":"Bribir","state_code":"08","latitude":"45.16111000","longitude":"14.76472000","population":1480,"timezone":"Europe/Zagreb","type":"adm2","translations":{"es":"Soborno","en":"Bribir"}},{"name":"Buzdohanj","state_code":"08","latitude":"45.34528000","longitude":"14.48833000","population":1648,"timezone":"Europe/Zagreb","type":"city","translations":{"es":"Buzdohanj","en":"Buzdohanj"}},{"name":"Čavle","state_code":"08","latitude":"45.35194000","longitude":"14.48389000","population":1269,"timezone":"Europe/Zagreb","type":"adm2","translations":{"es":"Čavle","en":"Čavle"}},{"name":"Cernik","state_code":"08","latitude":"45.34361000","longitude":"14.50222000","population":1035,"timezone":"Europe/Zagreb","type":"city","translations":{"es":"Cernik","en":"Cernik"}},{"name":"Cres","state_code":"08","latitude":"44.96111000","longitude":"14.40840000","population":null,"timezone":"Europe/Zagreb","type":"adm2","translations":{"es":"Cres","en":"Cres"}},{"name":"Crikvenica","state_code":"08","latitude":"45.17722000","longitude":"14.69278000","population":6239,"timezone":"Europe/Zagreb","type":"adm2","translations":{"es":"Crikvenica","en":"Crikvenica"}},{"name":"Delnice","state_code":"08","latitude":"45.40083000","longitude":"14.79972000","population":3861,"timezone":"Europe/Zagreb","type":"adm2","translations":{"es":"Delnice","en":"Delnice"}},{"name":"Dražice","state_code":"08","latitude":"45.39083000","longitude":"14.47028000","population":2064,"timezone":"Europe/Zagreb","type":"city","translations":{"es":"Dražice","en":"Dražice"}},{"name":"Drenova","state_code":"08","latitude":"45.35000000","longitude":"14.43028000","population":7063,"timezone":"Europe/Zagreb","type":"section","translations":{"es":"Drenova","en":"Drenova"}},{"name":"Fužine","state_code":"08","latitude":"45.30528000","longitude":"14.71556000","population":597,"timezone":"Europe/Zagreb","type":"adm2","translations":{"es":"Fužine","en":"Fužine"}},{"name":"Grad Čabar","state_code":"08","latitude":"45.58333000","longitude":"14.58333000","population":null,"timezone":"Europe/Zagreb","type":"city","translations":{"es":"Grado Čabar","en":"Grad Čabar"}},{"name":"Grad Crikvenica","state_code":"08","latitude":"45.16667000","longitude":"14.70000000","population":9980,"timezone":"Europe/Zagreb","type":"adm2","translations":{"es":"Grado Crikvenica","en":"Grad Crikvenica"}},{"name":"Grad Delnice","state_code":"08","latitude":"45.39806000","longitude":"14.80111000","population":3861,"timezone":"Europe/Zagreb","type":"adm2","translations":{"es":"Grado Delnice","en":"Grad Delnice"}},{"name":"Grad Krk","state_code":"08","latitude":"45.02829000","longitude":"14.57233000","population":6816,"timezone":"Europe/Zagreb","type":"adm2","translations":{"es":"Grado Krk","en":"Grad Krk"}},{"name":"Grad Opatija","state_code":"08","latitude":"45.33333000","longitude":"14.26667000","population":547,"timezone":"Europe/Zagreb","type":"city","translations":{"es":"Graduado de Opatija","en":"Grad Opatija"}},{"name":"Grad Rijeka","state_code":"08","latitude":"45.32693000","longitude":"14.43758000","population":null,"timezone":"Europe/Zagreb","type":"adm1","translations":{"es":"Grad Rijeka","en":"Grad Rijeka"}},{"name":"Grad Vrbovsko","state_code":"08","latitude":"45.37542000","longitude":"15.07856000","population":1257,"timezone":"Europe/Zagreb","type":"adm2","translations":{"es":"Grad Vrbovsko","en":"Grad Vrbovsko"}},{"name":"Hreljin","state_code":"08","latitude":"45.28250000","longitude":"14.59917000","population":2139,"timezone":"Europe/Zagreb","type":"city","translations":{"es":"Hreljin","en":"Hreljin"}},{"name":"Jadranovo","state_code":"08","latitude":"45.23111000","longitude":"14.61833000","population":1077,"timezone":"Europe/Zagreb","type":"city","translations":{"es":"Jadranovo","en":"Jadranovo"}},{"name":"Kampor","state_code":"08","latitude":"44.77500000","longitude":"14.71861000","population":1030,"timezone":"Europe/Zagreb","type":"city","translations":{"es":"Kampor","en":"Kampor"}},{"name":"Kastav","state_code":"08","latitude":"45.37528000","longitude":"14.34861000","population":10202,"timezone":"Europe/Zagreb","type":"adm2","translations":{"es":"Kastav","en":"Kastav"}},{"name":"Klana","state_code":"08","latitude":"45.44694000","longitude":"14.37694000","population":1147,"timezone":"Europe/Zagreb","type":"adm2","translations":{"es":"Klana","en":"Klana"}},{"name":"Kraljevica","state_code":"08","latitude":"45.27395000","longitude":"14.56830000","population":2415,"timezone":"Europe/Zagreb","type":"adm2","translations":{"es":"Kraljevica","en":"Kraljevica"}},{"name":"Krasica","state_code":"08","latitude":"45.30972000","longitude":"14.55556000","population":1325,"timezone":"Europe/Zagreb","type":"city","translations":{"es":"Krasica","en":"Krasica"}},{"name":"Krk","state_code":"08","latitude":"45.02744000","longitude":"14.57542000","population":3935,"timezone":"Europe/Zagreb","type":"adm2","translations":{"es":"Krk","en":"Krk"}},{"name":"Lopar","state_code":"08","latitude":"44.83250000","longitude":"14.73028000","population":1107,"timezone":"Europe/Zagreb","type":"adm2","translations":{"es":"Lopar","en":"Lopar"}},{"name":"Lovran","state_code":"08","latitude":"45.29194000","longitude":"14.27417000","population":3527,"timezone":"Europe/Zagreb","type":"adm2","translations":{"es":"Lovran","en":"Lovran"}},{"name":"Mali Lošinj","state_code":"08","latitude":"44.53056000","longitude":"14.46861000","population":5561,"timezone":"Europe/Zagreb","type":"adm2","translations":{"es":"Mali Lošinj","en":"Mali Lošinj"}},{"name":"Malinska-Dubašnica","state_code":"08","latitude":"45.12277000","longitude":"14.52873000","population":null,"timezone":"Europe/Zagreb","type":"city","translations":{"es":"Malinska-Dubašnica","en":"Malinska-Dubašnica"}},{"name":"Marčelji","state_code":"08","latitude":"45.39611000","longitude":"14.38944000","population":2535,"timezone":"Europe/Zagreb","type":"city","translations":{"es":"Marčelji","en":"Marčelji"}},{"name":"Marinići","state_code":"08","latitude":"45.36500000","longitude":"14.39389000","population":3862,"timezone":"Europe/Zagreb","type":"city","translations":{"es":"Marinići","en":"Marinići"}},{"name":"Matulji","state_code":"08","latitude":"45.36167000","longitude":"14.32500000","population":3566,"timezone":"Europe/Zagreb","type":"adm2","translations":{"es":"Matulji","en":"Matulji"}},{"name":"Mihotići","state_code":"08","latitude":"45.36125000","longitude":"14.30553000","population":862,"timezone":"Europe/Zagreb","type":"city","translations":{"es":"Mihotići","en":"Mihotići"}},{"name":"Mrkopalj","state_code":"08","latitude":"45.31556000","longitude":"14.85528000","population":557,"timezone":"Europe/Zagreb","type":"adm2","translations":{"es":"Mrkopalj","en":"Mrkopalj"}},{"name":"Njivice","state_code":"08","latitude":"45.15806000","longitude":"14.53861000","population":1115,"timezone":"Europe/Zagreb","type":"city","translations":{"es":"Njivice","en":"Njivice"}},{"name":"Novi Vinodolski","state_code":"08","latitude":"45.12806000","longitude":"14.78889000","population":3336,"timezone":"Europe/Zagreb","type":"adm2","translations":{"es":"Novi Vinodolski","en":"Novi Vinodolski"}},{"name":"Omišalj","state_code":"08","latitude":"45.21134000","longitude":"14.55495000","population":1877,"timezone":"Europe/Zagreb","type":"adm2","translations":{"es":"Omišalj","en":"Omišalj"}},{"name":"Opatija","state_code":"08","latitude":"45.33771000","longitude":"14.30515000","population":862,"timezone":"Europe/Zagreb","type":"city","translations":{"es":"Opatija","en":"Opatija"}},{"name":"Podhum","state_code":"08","latitude":"45.38722000","longitude":"14.47944000","population":1356,"timezone":"Europe/Zagreb","type":"city","translations":{"es":"Podhum","en":"Podhum"}},{"name":"Punat","state_code":"08","latitude":"45.01472000","longitude":"14.62889000","population":1900,"timezone":"Europe/Zagreb","type":"adm2","translations":{"es":"Punat","en":"Punat"}},{"name":"Rab","state_code":"08","latitude":"44.75769000","longitude":"14.75906000","population":364,"timezone":"Europe/Zagreb","type":"adm2","translations":{"es":"Rab","en":"Rab"}},{"name":"Rijeka","state_code":"08","latitude":"45.32673000","longitude":"14.44241000","population":107964,"timezone":"Europe/Zagreb","type":"adm1","translations":{"es":"Rijeka","en":"Rijeka"}},{"name":"Rubeši","state_code":"08","latitude":"45.36694000","longitude":"14.34806000","population":1730,"timezone":"Europe/Zagreb","type":"city","translations":{"es":"Rubeši","en":"Rubeši"}},{"name":"Selce","state_code":"08","latitude":"45.15639000","longitude":"14.72111000","population":1298,"timezone":"Europe/Zagreb","type":"city","translations":{"es":"Seleccionar","en":"Selce"}},{"name":"Skrad","state_code":"08","latitude":"45.42778000","longitude":"14.91111000","population":858,"timezone":"Europe/Zagreb","type":"adm2","translations":{"es":"Skrad","en":"Skrad"}},{"name":"Škrljevo","state_code":"08","latitude":"45.32053000","longitude":"14.53268000","population":1158,"timezone":"Europe/Zagreb","type":"city","translations":{"es":"Škrljevo","en":"Škrljevo"}},{"name":"Supetarska Draga","state_code":"08","latitude":"44.79750000","longitude":"14.72472000","population":937,"timezone":"Europe/Zagreb","type":"city","translations":{"es":"Supetarska Draga","en":"Supetarska Draga"}},{"name":"Vinodolska općina","state_code":"08","latitude":"45.22219000","longitude":"14.68941000","population":null,"timezone":"Europe/Zagreb","type":"city","translations":{"es":"Vinodolska općina","en":"Vinodolska općina"}},{"name":"Viškovo","state_code":"08","latitude":"45.37572000","longitude":"14.38400000","population":3602,"timezone":"Europe/Zagreb","type":"adm2","translations":{"es":"Viškovo","en":"Viškovo"}},{"name":"Vrbnik","state_code":"08","latitude":"45.07583000","longitude":"14.67250000","population":887,"timezone":"Europe/Zagreb","type":"adm2","translations":{"es":"Vrbnik","en":"Vrbnik"}},{"name":"Vrbovsko","state_code":"08","latitude":"45.36861000","longitude":"15.07833000","population":1257,"timezone":"Europe/Zagreb","type":"adm2","translations":{"es":"Vrbovsko","en":"Vrbovsko"}},{"name":"Brodarica","state_code":"15","latitude":"43.68000000","longitude":"15.91972000","population":2611,"timezone":"Europe/Zagreb","type":"city","translations":{"es":"Brodarica","en":"Brodarica"}},{"name":"Drniš","state_code":"15","latitude":"43.86250000","longitude":"16.15556000","population":2752,"timezone":"Europe/Zagreb","type":"adm2","translations":{"es":"Drniš","en":"Drniš"}},{"name":"Grad Drniš","state_code":"15","latitude":"43.83333000","longitude":"16.16667000","population":null,"timezone":"Europe/Zagreb","type":"adm2","translations":{"es":"Grado Drniš","en":"Grad Drniš"}},{"name":"Grad Šibenik","state_code":"15","latitude":"43.73576000","longitude":"15.89602000","population":31115,"timezone":"Europe/Zagreb","type":"adm1","translations":{"es":"Grado Šibenik","en":"Grad Šibenik"}},{"name":"Kistanje","state_code":"15","latitude":"43.98278000","longitude":"15.96500000","population":1638,"timezone":"Europe/Zagreb","type":"adm2","translations":{"es":"Kistanje","en":"Kistanje"}},{"name":"Knin","state_code":"15","latitude":"44.04063000","longitude":"16.19662000","population":8262,"timezone":"Europe/Zagreb","type":"adm2","translations":{"es":"Knin","en":"Knin"}},{"name":"Murter","state_code":"15","latitude":"43.82043000","longitude":"15.58988000","population":1920,"timezone":"Europe/Zagreb","type":"adm2","translations":{"es":"Asesinato","en":"Murter"}},{"name":"Murter-Kornati","state_code":"15","latitude":"43.80959000","longitude":"15.60024000","population":null,"timezone":"Europe/Zagreb","type":"adm2","translations":{"es":"Murter-Kornati","en":"Murter-Kornati"}},{"name":"Pirovac","state_code":"15","latitude":"43.81917000","longitude":"15.67278000","population":1606,"timezone":"Europe/Zagreb","type":"adm2","translations":{"es":"Pirovac","en":"Pirovac"}},{"name":"Primošten","state_code":"15","latitude":"43.58632000","longitude":"15.92302000","population":1555,"timezone":"Europe/Zagreb","type":"adm2","translations":{"es":"Primošten","en":"Primošten"}},{"name":"Promina","state_code":"15","latitude":"43.95798000","longitude":"16.09737000","population":null,"timezone":"Europe/Zagreb","type":"adm2","translations":{"es":"Promina","en":"Promina"}},{"name":"Rogoznica","state_code":"15","latitude":"43.52472000","longitude":"15.97000000","population":960,"timezone":"Europe/Zagreb","type":"adm2","translations":{"es":"Rogoznica","en":"Rogoznica"}},{"name":"Rogoznica Općina","state_code":"15","latitude":"43.53620000","longitude":"15.97086000","population":null,"timezone":"Europe/Zagreb","type":"adm2","translations":{"es":"Općina de Rogoznica","en":"Rogoznica Općina"}},{"name":"Šibenik","state_code":"15","latitude":"43.72722000","longitude":"15.90583000","population":42599,"timezone":"Europe/Zagreb","type":"adm1","translations":{"es":"Šibenik","en":"Šibenik"}},{"name":"Skradin","state_code":"15","latitude":"43.82028000","longitude":"15.92361000","population":508,"timezone":"Europe/Zagreb","type":"adm2","translations":{"es":"Skradin","en":"Skradin"}},{"name":"Tisno","state_code":"15","latitude":"43.80417000","longitude":"15.64333000","population":1192,"timezone":"Europe/Zagreb","type":"adm2","translations":{"es":"Tisno","en":"Tisno"}},{"name":"Tribunj","state_code":"15","latitude":"43.75547000","longitude":"15.74444000","population":1594,"timezone":"Europe/Zagreb","type":"adm2","translations":{"es":"Tribunj","en":"Tribunj"}},{"name":"Vodice","state_code":"15","latitude":"43.76083000","longitude":"15.78278000","population":6592,"timezone":"Europe/Zagreb","type":"adm2","translations":{"es":"Vodice","en":"Vodice"}},{"name":"Budaševo","state_code":"03","latitude":"45.47472000","longitude":"16.43667000","population":1373,"timezone":"Europe/Zagreb","type":"city","translations":{"es":"Budaševo","en":"Budaševo"}},{"name":"Dvor","state_code":"03","latitude":"45.07306000","longitude":"16.37083000","population":2996,"timezone":"Europe/Zagreb","type":"adm2","translations":{"es":"Dvor","en":"Dvor"}},{"name":"Glina","state_code":"03","latitude":"45.33806000","longitude":"16.08806000","population":4028,"timezone":"Europe/Zagreb","type":"adm2","translations":{"es":"Glina","en":"Glina"}},{"name":"Grad Glina","state_code":"03","latitude":"45.33333000","longitude":"16.10000000","population":7116,"timezone":"Europe/Zagreb","type":"adm2","translations":{"es":"Graduada Glina","en":"Grad Glina"}},{"name":"Grad Hrvatska Kostajnica","state_code":"03","latitude":"45.25000000","longitude":"16.56667000","population":1879,"timezone":"Europe/Zagreb","type":"city","translations":{"es":"Grad Hrvatska Kostajnica","en":"Grad Hrvatska Kostajnica"}},{"name":"Grad Kutina","state_code":"03","latitude":"45.50000000","longitude":"16.75000000","population":null,"timezone":"Europe/Zagreb","type":"city","translations":{"es":"Grad Kutina","en":"Grad Kutina"}},{"name":"Grad Novska","state_code":"03","latitude":"45.33333000","longitude":"17.00000000","population":null,"timezone":"Europe/Zagreb","type":"city","translations":{"es":"Grad Novska","en":"Grad Novska"}},{"name":"Grad Petrinja","state_code":"03","latitude":"45.43333000","longitude":"16.26667000","population":null,"timezone":"Europe/Zagreb","type":"city","translations":{"es":"Grad Petrinja","en":"Grad Petrinja"}},{"name":"Grad Sisak","state_code":"03","latitude":"45.50000000","longitude":"16.36667000","population":null,"timezone":"Europe/Zagreb","type":"adm1","translations":{"es":"Grad Sisak","en":"Grad Sisak"}},{"name":"Gvozd","state_code":"03","latitude":"45.35305000","longitude":"15.86563000","population":2047,"timezone":"Europe/Zagreb","type":"city","translations":{"es":"Gvozd","en":"Gvozd"}},{"name":"Hrvatska Kostajnica","state_code":"03","latitude":"45.23167000","longitude":"16.53917000","population":1439,"timezone":"Europe/Zagreb","type":"adm2","translations":{"es":"Hrvatska Kostajnica","en":"Hrvatska Kostajnica"}},{"name":"Kutina","state_code":"03","latitude":"45.47500000","longitude":"16.78194000","population":12012,"timezone":"Europe/Zagreb","type":"adm2","translations":{"es":"Kutina","en":"Kutina"}},{"name":"Lekenik","state_code":"03","latitude":"45.58556000","longitude":"16.21139000","population":1697,"timezone":"Europe/Zagreb","type":"adm2","translations":{"es":"Lekenik","en":"Lekenik"}},{"name":"Lipovljani","state_code":"03","latitude":"45.39667000","longitude":"16.88972000","population":1902,"timezone":"Europe/Zagreb","type":"adm2","translations":{"es":"Lipovljani","en":"Lipovljani"}},{"name":"Martinska Ves","state_code":"03","latitude":"45.58670000","longitude":"16.37465000","population":null,"timezone":"Europe/Zagreb","type":"adm2","translations":{"es":"Martinska Ves","en":"Martinska Ves"}},{"name":"Novska","state_code":"03","latitude":"45.34056000","longitude":"16.97694000","population":5922,"timezone":"Europe/Zagreb","type":"adm2","translations":{"es":"Nueva Zelanda","en":"Novska"}},{"name":"Općina Dvor","state_code":"03","latitude":"45.10000000","longitude":"16.30000000","population":null,"timezone":"Europe/Zagreb","type":"adm2","translations":{"es":"Općina Dvor","en":"Općina Dvor"}},{"name":"Općina Gvozd","state_code":"03","latitude":"45.33333000","longitude":"15.90000000","population":null,"timezone":"Europe/Zagreb","type":"city","translations":{"es":"Općina Gvozd","en":"Općina Gvozd"}},{"name":"Petrinja","state_code":"03","latitude":"45.43750000","longitude":"16.29000000","population":12963,"timezone":"Europe/Zagreb","type":"adm2","translations":{"es":"Petrinja","en":"Petrinja"}},{"name":"Popovača","state_code":"03","latitude":"45.56972000","longitude":"16.62500000","population":3633,"timezone":"Europe/Zagreb","type":"adm2","translations":{"es":"Popovača","en":"Popovača"}},{"name":"Repušnica","state_code":"03","latitude":"45.49278000","longitude":"16.73083000","population":1552,"timezone":"Europe/Zagreb","type":"city","translations":{"es":"República","en":"Repušnica"}},{"name":"Sisak","state_code":"03","latitude":"45.46611000","longitude":"16.37833000","population":27859,"timezone":"Europe/Zagreb","type":"adm1","translations":{"es":"Sisak","en":"Sisak"}},{"name":"Sunja","state_code":"03","latitude":"45.36850000","longitude":"16.56702000","population":1170,"timezone":"Europe/Zagreb","type":"adm2","translations":{"es":"Sunja","en":"Sunja"}},{"name":"Voloder","state_code":"03","latitude":"45.54806000","longitude":"16.67889000","population":1574,"timezone":"Europe/Zagreb","type":"city","translations":{"es":"Voloder","en":"Voloder"}},{"name":"Baška Voda","state_code":"17","latitude":"43.35694000","longitude":"16.95028000","population":1766,"timezone":"Europe/Zagreb","type":"adm2","translations":{"es":"Baška Voda","en":"Baška Voda"}},{"name":"Bol","state_code":"17","latitude":"43.26194000","longitude":"16.65500000","population":1678,"timezone":"Europe/Zagreb","type":"adm2","translations":{"es":"Bol","en":"Bol"}},{"name":"Brela","state_code":"17","latitude":"43.36889000","longitude":"16.93417000","population":1626,"timezone":"Europe/Zagreb","type":"adm2","translations":{"es":"Brela","en":"Brela"}},{"name":"Brnaze","state_code":"17","latitude":"43.68000000","longitude":"16.64972000","population":3124,"timezone":"Europe/Zagreb","type":"locality","translations":{"es":"Brnaze","en":"Brnaze"}},{"name":"Dicmo","state_code":"17","latitude":"43.63678000","longitude":"16.58978000","population":2805,"timezone":"Europe/Zagreb","type":"adm2","translations":{"es":"Dicmo","en":"Dicmo"}},{"name":"Donji Vinjani","state_code":"17","latitude":"43.44613000","longitude":"17.24064000","population":1735,"timezone":"Europe/Zagreb","type":"locality","translations":{"es":"Donji Vinjani","en":"Donji Vinjani"}},{"name":"Duće","state_code":"17","latitude":"43.44278000","longitude":"16.66833000","population":1560,"timezone":"Europe/Zagreb","type":"city","translations":{"es":"Duće","en":"Duće"}},{"name":"Dugi Rat Općina","state_code":"17","latitude":"43.44923000","longitude":"16.64738000","population":null,"timezone":"Europe/Zagreb","type":"adm2","translations":{"es":"Općina Dugi Rat","en":"Dugi Rat Općina"}},{"name":"Dugopolje","state_code":"17","latitude":"43.58056000","longitude":"16.60278000","population":3742,"timezone":"Europe/Zagreb","type":"adm2","translations":{"es":"Dugopolje","en":"Dugopolje"}},{"name":"Gala","state_code":"17","latitude":"43.71500000","longitude":"16.72694000","population":null,"timezone":"Europe/Zagreb","type":"adm2","translations":{"es":"Gala","en":"Gala"}},{"name":"Grabovci","state_code":"17","latitude":"43.49278000","longitude":"17.20111000","population":1480,"timezone":"Europe/Zagreb","type":"city","translations":{"es":"Grabovci","en":"Grabovci"}},{"name":"Grad Hvar","state_code":"17","latitude":"43.17263000","longitude":"16.44550000","population":3979,"timezone":"Europe/Zagreb","type":"adm2","translations":{"es":"Grado Hvar","en":"Grad Hvar"}},{"name":"Grad Imotski","state_code":"17","latitude":"43.43333000","longitude":"17.16667000","population":9153,"timezone":"Europe/Zagreb","type":"adm2","translations":{"es":"Graduado Imotski","en":"Grad Imotski"}},{"name":"Grad Makarska","state_code":"17","latitude":"43.30000000","longitude":"17.03333000","population":null,"timezone":"Europe/Zagreb","type":"adm2","translations":{"es":"Grado Makarska","en":"Grad Makarska"}},{"name":"Grad Omiš","state_code":"17","latitude":"43.46667000","longitude":"16.70000000","population":null,"timezone":"Europe/Zagreb","type":"adm2","translations":{"es":"Grado Omiš","en":"Grad Omiš"}},{"name":"Grad Sinj","state_code":"17","latitude":"43.72285000","longitude":"16.65819000","population":23452,"timezone":"Europe/Zagreb","type":"city","translations":{"es":"Grado Sinj","en":"Grad Sinj"}},{"name":"Grad Split","state_code":"17","latitude":"43.50000000","longitude":"16.50000000","population":null,"timezone":"Europe/Zagreb","type":"adm2","translations":{"es":"División de graduación","en":"Grad Split"}},{"name":"Grad Supetar","state_code":"17","latitude":"43.38444000","longitude":"16.55528000","population":4325,"timezone":"Europe/Zagreb","type":"adm2","translations":{"es":"Grad Supertar","en":"Grad Supetar"}},{"name":"Grad Trogir","state_code":"17","latitude":"43.52061000","longitude":"16.25144000","population":10107,"timezone":"Europe/Zagreb","type":"adm2","translations":{"es":"Grado Trogir","en":"Grad Trogir"}},{"name":"Grad Vis","state_code":"17","latitude":"43.05315000","longitude":"16.18698000","population":null,"timezone":"Europe/Zagreb","type":"adm2","translations":{"es":"Grad Vis","en":"Grad Vis"}},{"name":"Grad Vrgorac","state_code":"17","latitude":"43.20000000","longitude":"17.36667000","population":null,"timezone":"Europe/Zagreb","type":"adm2","translations":{"es":"Grado Vrgorac","en":"Grad Vrgorac"}},{"name":"Gradac","state_code":"17","latitude":"43.10583000","longitude":"17.34167000","population":989,"timezone":"Europe/Zagreb","type":"adm2","translations":{"es":"Gradac","en":"Gradac"}},{"name":"Greda","state_code":"17","latitude":"43.61528000","longitude":"16.69361000","population":1015,"timezone":"Europe/Zagreb","type":"city","translations":{"es":"Greda","en":"Greda"}},{"name":"Grubine","state_code":"17","latitude":"43.42986000","longitude":"17.16292000","population":803,"timezone":"Europe/Zagreb","type":"locality","translations":{"es":"Grubine","en":"Grubine"}},{"name":"Hrvace","state_code":"17","latitude":"43.76333000","longitude":"16.61500000","population":1483,"timezone":"Europe/Zagreb","type":"adm2","translations":{"es":"Hrvace","en":"Hrvace"}},{"name":"Hvar","state_code":"17","latitude":"43.17250000","longitude":"16.44278000","population":3979,"timezone":"Europe/Zagreb","type":"adm2","translations":{"es":"Hvar","en":"Hvar"}},{"name":"Imotski","state_code":"17","latitude":"43.44667000","longitude":"17.21667000","population":4008,"timezone":"Europe/Zagreb","type":"adm2","translations":{"es":"Imotski","en":"Imotski"}},{"name":"Jelsa","state_code":"17","latitude":"43.16139000","longitude":"16.69306000","population":1753,"timezone":"Europe/Zagreb","type":"adm2","translations":{"es":"Jelsa","en":"Jelsa"}},{"name":"Jesenice","state_code":"17","latitude":"43.46158000","longitude":"16.60197000","population":1978,"timezone":"Europe/Zagreb","type":"city","translations":{"es":"Jesenice","en":"Jesenice"}},{"name":"Kamen","state_code":"17","latitude":"43.51417000","longitude":"16.51472000","population":1821,"timezone":"Europe/Zagreb","type":"city","translations":{"es":"Kamen","en":"Kamen"}},{"name":"Kaštel Gomilica","state_code":"17","latitude":"43.55000000","longitude":"16.40000000","population":4699,"timezone":"Europe/Zagreb","type":"city","translations":{"es":"Castillo de Gomilica","en":"Kaštel Gomilica"}},{"name":"Kaštel Kambelovac","state_code":"17","latitude":"43.55000000","longitude":"16.38333000","population":5051,"timezone":"Europe/Zagreb","type":"city","translations":{"es":"Castillo Kambelovac","en":"Kaštel Kambelovac"}},{"name":"Kaštel Lukšić","state_code":"17","latitude":"43.55528000","longitude":"16.36750000","population":5221,"timezone":"Europe/Zagreb","type":"city","translations":{"es":"Kaštel Lukšić","en":"Kaštel Lukšić"}},{"name":"Kaštel Novi","state_code":"17","latitude":"43.55004510","longitude":"16.33926160","population":6507,"timezone":"Europe/Zagreb","type":"city","translations":{"es":"Castillo Novi","en":"Kaštel Novi"}},{"name":"Kaštel Štafilić","state_code":"17","latitude":"43.54586800","longitude":"16.32394170","population":2822,"timezone":"Europe/Zagreb","type":"city","translations":{"es":"Castillo de Štafilić","en":"Kaštel Štafilić"}},{"name":"Kaštel Stari","state_code":"17","latitude":"43.55000000","longitude":"16.35000000","population":6950,"timezone":"Europe/Zagreb","type":"city","translations":{"es":"Castillo Stari","en":"Kaštel Stari"}},{"name":"Kaštela","state_code":"17","latitude":"43.53865000","longitude":"16.30740000","population":null,"timezone":"Europe/Zagreb","type":"city","translations":{"es":"Kaštela","en":"Kaštela"}},{"name":"Klis","state_code":"17","latitude":"43.55944000","longitude":"16.51944000","population":3496,"timezone":"Europe/Zagreb","type":"adm2","translations":{"es":"Klis","en":"Klis"}},{"name":"Komiža","state_code":"17","latitude":"43.04306000","longitude":"16.09306000","population":1394,"timezone":"Europe/Zagreb","type":"adm2","translations":{"es":"Komiža","en":"Komiža"}},{"name":"Košute","state_code":"17","latitude":"43.63083000","longitude":"16.69500000","population":1667,"timezone":"Europe/Zagreb","type":"city","translations":{"es":"Košute","en":"Košute"}},{"name":"Lokvičići","state_code":"17","latitude":"43.46428000","longitude":"17.09142000","population":358,"timezone":"Europe/Zagreb","type":"adm2","translations":{"es":"Lokvičići","en":"Lokvičići"}},{"name":"Lovreć","state_code":"17","latitude":"43.48761000","longitude":"16.98632000","population":488,"timezone":"Europe/Zagreb","type":"adm2","translations":{"es":"Lovreć","en":"Lovreć"}},{"name":"Makarska","state_code":"17","latitude":"43.29694000","longitude":"17.01778000","population":13301,"timezone":"Europe/Zagreb","type":"adm2","translations":{"es":"Makarska","en":"Makarska"}},{"name":"Milna","state_code":"17","latitude":"43.32667000","longitude":"16.45083000","population":931,"timezone":"Europe/Zagreb","type":"adm2","translations":{"es":"Milna","en":"Milna"}},{"name":"Mravince","state_code":"17","latitude":"43.53333000","longitude":"16.52194000","population":1717,"timezone":"Europe/Zagreb","type":"city","translations":{"es":"Mravince","en":"Mravince"}},{"name":"Muć","state_code":"17","latitude":"43.69328000","longitude":"16.47267000","population":null,"timezone":"Europe/Zagreb","type":"adm2","translations":{"es":"Muć","en":"Muć"}},{"name":"Nerežišća","state_code":"17","latitude":"43.32959000","longitude":"16.57743000","population":642,"timezone":"Europe/Zagreb","type":"adm2","translations":{"es":"Nerežišća","en":"Nerežišća"}},{"name":"Okrug","state_code":"17","latitude":"43.49638000","longitude":"16.26732000","population":2760,"timezone":"Europe/Zagreb","type":"adm2","translations":{"es":"Distrito","en":"Okrug"}},{"name":"Okrug Gornji","state_code":"17","latitude":"43.49473000","longitude":"16.26531000","population":2760,"timezone":"Europe/Zagreb","type":"adm2","translations":{"es":"Distrito de Gornji","en":"Okrug Gornji"}},{"name":"Omiš","state_code":"17","latitude":"43.44472000","longitude":"16.68861000","population":5985,"timezone":"Europe/Zagreb","type":"adm2","translations":{"es":"Omiš","en":"Omiš"}},{"name":"Otok","state_code":"17","latitude":"43.68661000","longitude":"16.73488000","population":2807,"timezone":"Europe/Zagreb","type":"adm2","translations":{"es":"Otok","en":"Otok"}},{"name":"Podstrana","state_code":"17","latitude":"43.48668000","longitude":"16.55013000","population":10403,"timezone":"Europe/Zagreb","type":"cities","translations":{"es":"Podstrana","en":"Podstrana"}},{"name":"Postira","state_code":"17","latitude":"43.37551000","longitude":"16.63091000","population":1538,"timezone":"Europe/Zagreb","type":"adm2","translations":{"es":"Postira","en":"Postira"}},{"name":"Proložac","state_code":"17","latitude":"43.46690000","longitude":"17.15507000","population":1288,"timezone":"Europe/Zagreb","type":"adm2","translations":{"es":"Proložac","en":"Proložac"}},{"name":"Pučišća","state_code":"17","latitude":"43.34778000","longitude":"16.73389000","population":1341,"timezone":"Europe/Zagreb","type":"adm2","translations":{"es":"Pučišća","en":"Pučišća"}},{"name":"Runović","state_code":"17","latitude":"43.37667000","longitude":"17.23667000","population":1706,"timezone":"Europe/Zagreb","type":"adm2","translations":{"es":"Runović","en":"Runović"}},{"name":"Runovići","state_code":"17","latitude":"43.38704000","longitude":"17.23892000","population":1968,"timezone":"Europe/Zagreb","type":"adm2","translations":{"es":"Runovići","en":"Runovići"}},{"name":"Seget","state_code":"17","latitude":"43.54305000","longitude":"16.21222000","population":178,"timezone":"Europe/Zagreb","type":"city","translations":{"es":"Seget","en":"Seget"}},{"name":"Seget Vranjica","state_code":"17","latitude":"43.50999000","longitude":"16.18704000","population":1023,"timezone":"Europe/Zagreb","type":"city","translations":{"es":"Seget Vranjica","en":"Seget Vranjica"}},{"name":"Selca","state_code":"17","latitude":"43.29722000","longitude":"16.85083000","population":692,"timezone":"Europe/Zagreb","type":"adm2","translations":{"es":"Selca","en":"Selca"}},{"name":"Sinj","state_code":"17","latitude":"43.70361000","longitude":"16.63944000","population":10771,"timezone":"Europe/Zagreb","type":"adm2","translations":{"es":"Sinj","en":"Sinj"}},{"name":"Slatine","state_code":"17","latitude":"43.49944000","longitude":"16.33333000","population":924,"timezone":"Europe/Zagreb","type":"city","translations":{"es":"Slatine","en":"Slatine"}},{"name":"Solin","state_code":"17","latitude":"43.54320000","longitude":"16.49314000","population":24862,"timezone":"Europe/Zagreb","type":"adm2","translations":{"es":"Solin","en":"Solin"}},{"name":"Šolta","state_code":"17","latitude":"43.38714000","longitude":"16.28865000","population":null,"timezone":"Europe/Zagreb","type":"city","translations":{"es":"Solta","en":"Šolta"}},{"name":"Split","state_code":"17","latitude":"43.50891000","longitude":"16.43915000","population":160577,"timezone":"Europe/Zagreb","type":"adm1","translations":{"es":"Dividir","en":"Split"}},{"name":"Srinjine","state_code":"17","latitude":"43.48333000","longitude":"16.60000000","population":1978,"timezone":"Europe/Zagreb","type":"city","translations":{"es":"Srinjine","en":"Srinjine"}},{"name":"Stari Grad","state_code":"17","latitude":"43.18472000","longitude":"16.59528000","population":2772,"timezone":"Europe/Zagreb","type":"adm2","translations":{"es":"Stari Grad","en":"Stari Grad"}},{"name":"Stobreč","state_code":"17","latitude":"43.50250000","longitude":"16.52222000","population":2879,"timezone":"Europe/Zagreb","type":"city","translations":{"es":"Stobreč","en":"Stobreč"}},{"name":"Supetar","state_code":"17","latitude":"43.38417000","longitude":"16.55083000","population":3415,"timezone":"Europe/Zagreb","type":"adm2","translations":{"es":"Superar","en":"Supetar"}},{"name":"Trilj","state_code":"17","latitude":"43.61833000","longitude":"16.72417000","population":1906,"timezone":"Europe/Zagreb","type":"adm2","translations":{"es":"Trilj","en":"Trilj"}},{"name":"Trogir","state_code":"17","latitude":"43.51250000","longitude":"16.25167000","population":10150,"timezone":"Europe/Zagreb","type":"adm2","translations":{"es":"Trogir","en":"Trogir"}},{"name":"Tučepi","state_code":"17","latitude":"43.27222000","longitude":"17.05444000","population":1819,"timezone":"Europe/Zagreb","type":"adm2","translations":{"es":"Tučepi","en":"Tučepi"}},{"name":"Turjaci","state_code":"17","latitude":"43.65000000","longitude":"16.66917000","population":1014,"timezone":"Europe/Zagreb","type":"city","translations":{"es":"Turjaci","en":"Turjaci"}},{"name":"Veliki Drvenik","state_code":"17","latitude":"43.45000000","longitude":"16.15000000","population":170,"timezone":"Europe/Zagreb","type":"city","translations":{"es":"Veliki Drvenik","en":"Veliki Drvenik"}},{"name":"Vis","state_code":"17","latitude":"43.06194000","longitude":"16.18306000","population":1918,"timezone":"Europe/Zagreb","type":"adm2","translations":{"es":"Vis","en":"Vis"}},{"name":"Vranjic","state_code":"17","latitude":"43.53333000","longitude":"16.46667000","population":1064,"timezone":"Europe/Zagreb","type":"city","translations":{"es":"Vranjic","en":"Vranjic"}},{"name":"Vrgorac","state_code":"17","latitude":"43.20583000","longitude":"17.37111000","population":2132,"timezone":"Europe/Zagreb","type":"adm2","translations":{"es":"Vrgorac","en":"Vrgorac"}},{"name":"Vrlika","state_code":"17","latitude":"43.91098000","longitude":"16.39933000","population":718,"timezone":"Europe/Zagreb","type":"adm2","translations":{"es":"Vrlika","en":"Vrlika"}},{"name":"Zagvozd","state_code":"17","latitude":"43.39750000","longitude":"17.05694000","population":640,"timezone":"Europe/Zagreb","type":"adm2","translations":{"es":"Zagvozd","en":"Zagvozd"}},{"name":"Zmijavci","state_code":"17","latitude":"43.41083000","longitude":"17.20556000","population":1654,"timezone":"Europe/Zagreb","type":"adm2","translations":{"es":"Zmijavci","en":"Zmijavci"}},{"name":"Žrnovnica","state_code":"17","latitude":"43.52111000","longitude":"16.55917000","population":3279,"timezone":"Europe/Zagreb","type":"city","translations":{"es":"Žrnovnica","en":"Žrnovnica"}},{"name":"Beretinec","state_code":"05","latitude":"46.25000000","longitude":"16.30000000","population":988,"timezone":"Europe/Zagreb","type":"adm2","translations":{"es":"Beretinec","en":"Beretinec"}},{"name":"Breznica","state_code":"05","latitude":"46.07111000","longitude":"16.27111000","population":749,"timezone":"Europe/Zagreb","type":"adm2","translations":{"es":"Breznica","en":"Breznica"}},{"name":"Breznički Hum","state_code":"05","latitude":"46.10722000","longitude":"16.27667000","population":410,"timezone":"Europe/Zagreb","type":"adm2","translations":{"es":"Hum de Breznički","en":"Breznički Hum"}},{"name":"Cestica","state_code":"05","latitude":"46.37167000","longitude":"16.12528000","population":479,"timezone":"Europe/Zagreb","type":"adm2","translations":{"es":"Cestica","en":"Cestica"}},{"name":"Donje Ladanje","state_code":"05","latitude":"46.30000000","longitude":"16.16667000","population":null,"timezone":"Europe/Zagreb","type":"city","translations":{"es":"Donje Ladanje","en":"Donje Ladanje"}},{"name":"Gornje Vratno","state_code":"05","latitude":"46.35917000","longitude":"16.15444000","population":1297,"timezone":"Europe/Zagreb","type":"city","translations":{"es":"Gornje Vratno","en":"Gornje Vratno"}},{"name":"Gornji Kneginec","state_code":"05","latitude":"46.25051000","longitude":"16.37555000","population":1430,"timezone":"Europe/Zagreb","type":"adm2","translations":{"es":"Gornji Kneginec","en":"Gornji Kneginec"}},{"name":"Grad Ivanec","state_code":"05","latitude":"46.23333000","longitude":"16.13333000","population":null,"timezone":"Europe/Zagreb","type":"adm2","translations":{"es":"Graduado Ivanec","en":"Grad Ivanec"}},{"name":"Grad Ludbreg","state_code":"05","latitude":"46.25000000","longitude":"16.63333000","population":null,"timezone":"Europe/Zagreb","type":"adm2","translations":{"es":"Grad Ludbreg","en":"Grad Ludbreg"}},{"name":"Grad Novi Marof","state_code":"05","latitude":"46.16667000","longitude":"16.33333000","population":null,"timezone":"Europe/Zagreb","type":"adm2","translations":{"es":"Grado Novi Marof","en":"Grad Novi Marof"}},{"name":"Grad Varaždin","state_code":"05","latitude":"46.30354000","longitude":"16.33444000","population":null,"timezone":"Europe/Zagreb","type":"adm1","translations":{"es":"Grado Varaždin","en":"Grad Varaždin"}},{"name":"Hrašćica","state_code":"05","latitude":"46.32494000","longitude":"16.29427000","population":1270,"timezone":"Europe/Zagreb","type":"city","translations":{"es":"Hrašćica","en":"Hrašćica"}},{"name":"Ivanec","state_code":"05","latitude":"46.22306000","longitude":"16.12000000","population":4997,"timezone":"Europe/Zagreb","type":"adm2","translations":{"es":"Ivanec","en":"Ivanec"}},{"name":"Jalkovec","state_code":"05","latitude":"46.28083000","longitude":"16.31972000","population":1259,"timezone":"Europe/Zagreb","type":"city","translations":{"es":"Jalkovec","en":"Jalkovec"}},{"name":"Jalžabet","state_code":"05","latitude":"46.26083000","longitude":"16.47500000","population":1005,"timezone":"Europe/Zagreb","type":"adm2","translations":{"es":"Jalžabet","en":"Jalžabet"}},{"name":"Klenovnik","state_code":"05","latitude":"46.27028000","longitude":"16.07000000","population":925,"timezone":"Europe/Zagreb","type":"adm2","translations":{"es":"Klenovnik","en":"Klenovnik"}},{"name":"Kućan Marof","state_code":"05","latitude":"46.28944000","longitude":"16.37222000","population":1280,"timezone":"Europe/Zagreb","type":"city","translations":{"es":"Kućan Marof","en":"Kućan Marof"}},{"name":"Lepoglava","state_code":"05","latitude":"46.21056000","longitude":"16.03556000","population":3400,"timezone":"Europe/Zagreb","type":"adm2","translations":{"es":"Lepoglava","en":"Lepoglava"}},{"name":"Ljubešćica","state_code":"05","latitude":"46.16667000","longitude":"16.38333000","population":1689,"timezone":"Europe/Zagreb","type":"adm2","translations":{"es":"Ljubešćica","en":"Ljubešćica"}},{"name":"Ludbreg","state_code":"05","latitude":"46.25194000","longitude":"16.61472000","population":3463,"timezone":"Europe/Zagreb","type":"adm2","translations":{"es":"Ludbreg","en":"Ludbreg"}},{"name":"Nedeljanec","state_code":"05","latitude":"46.28778000","longitude":"16.28333000","population":1320,"timezone":"Europe/Zagreb","type":"city","translations":{"es":"Nedeljanec","en":"Nedeljanec"}},{"name":"Petrijanec","state_code":"05","latitude":"46.34917000","longitude":"16.22500000","population":1349,"timezone":"Europe/Zagreb","type":"adm2","translations":{"es":"Petrijanec","en":"Petrijanec"}},{"name":"Remetinec","state_code":"05","latitude":"46.18528000","longitude":"16.32778000","population":1351,"timezone":"Europe/Zagreb","type":"city","translations":{"es":"Remetinec","en":"Remetinec"}},{"name":"Sračinec","state_code":"05","latitude":"46.32944000","longitude":"16.27889000","population":4678,"timezone":"Europe/Zagreb","type":"adm2","translations":{"es":"Sračinec","en":"Sračinec"}},{"name":"Sveti Đurđ","state_code":"05","latitude":"46.28331000","longitude":"16.60438000","population":556,"timezone":"Europe/Zagreb","type":"adm2","translations":{"es":"Sveti Đurđ","en":"Sveti Đurđ"}},{"name":"Tužno","state_code":"05","latitude":"46.25667000","longitude":"16.23500000","population":910,"timezone":"Europe/Zagreb","type":"city","translations":{"es":"Tužno","en":"Tužno"}},{"name":"Varaždin","state_code":"05","latitude":"46.30444000","longitude":"16.33778000","population":36187,"timezone":"Europe/Zagreb","type":"adm1","translations":{"es":"Varaždin","en":"Varaždin"}},{"name":"Vidovec","state_code":"05","latitude":"46.28333000","longitude":"16.24111000","population":769,"timezone":"Europe/Zagreb","type":"adm2","translations":{"es":"Vidovec","en":"Vidovec"}},{"name":"Vinica","state_code":"05","latitude":"46.33611000","longitude":"16.14944000","population":965,"timezone":"Europe/Zagreb","type":"adm2","translations":{"es":"Vínica","en":"Vinica"}},{"name":"Čačinci","state_code":"10","latitude":"45.60389000","longitude":"17.87028000","population":1719,"timezone":"Europe/Zagreb","type":"adm2","translations":{"es":"Čačinci","en":"Čačinci"}},{"name":"Čađavica","state_code":"10","latitude":"45.74417000","longitude":"17.85472000","population":569,"timezone":"Europe/Zagreb","type":"adm2","translations":{"es":"Čađavica","en":"Čađavica"}},{"name":"Crnac","state_code":"10","latitude":"45.69611000","longitude":"17.93722000","population":407,"timezone":"Europe/Zagreb","type":"adm2","translations":{"es":"Crnac","en":"Crnac"}},