[{"name":"Anse Rouge","state_code":"AR","latitude":"19.63382000","longitude":"-73.05530000","population":4437,"timezone":"America/Port-au-Prince","type":"city","translations":{"es":"Anse Rouge","en":"Anse Rouge"}},{"name":"Arrondissement de Saint-Marc","state_code":"AR","latitude":"19.00000000","longitude":"-72.50000000","population":null,"timezone":"America/Port-au-Prince","type":"city","translations":{"es":"Distrito de Saint-Marc","en":"Arrondissement de Saint-Marc"}},{"name":"Désarmes","state_code":"AR","latitude":"18.99345000","longitude":"-72.39058000","population":15594,"timezone":"America/Port-au-Prince","type":"city","translations":{"es":"Désarmes","en":"Désarmes"}},{"name":"Dessalines","state_code":"AR","latitude":"19.26177000","longitude":"-72.51611000","population":12288,"timezone":"America/Port-au-Prince","type":"city","translations":{"es":"Dessalines","en":"Dessalines"}},{"name":"Ennery","state_code":"AR","latitude":"19.48342000","longitude":"-72.48537000","population":1511,"timezone":"America/Port-au-Prince","type":"city","translations":{"es":"Ennery","en":"Ennery"}},{"name":"Gonaïves","state_code":"AR","latitude":"19.44755000","longitude":"-72.68928000","population":84961,"timezone":"America/Port-au-Prince","type":"adm1","translations":{"es":"Gonaïves","en":"Gonaïves"}},{"name":"Grande Saline","state_code":"AR","latitude":"19.26513000","longitude":"-72.76897000","population":1787,"timezone":"America/Port-au-Prince","type":"city","translations":{"es":"Grande Salina","en":"Grande Saline"}},{"name":"Gros Morne","state_code":"AR","latitude":"19.67080000","longitude":"-72.67808000","population":7294,"timezone":"America/Port-au-Prince","type":"city","translations":{"es":"Gros Morne","en":"Gros Morne"}},{"name":"Marmelade","state_code":"AR","latitude":"19.51736000","longitude":"-72.36133000","population":2184,"timezone":"America/Port-au-Prince","type":"city","translations":{"es":"Mermelada","en":"Marmelade"}},{"name":"Saint-Marc","state_code":"AR","latitude":"19.10819000","longitude":"-72.69379000","population":266642,"timezone":"America/Port-au-Prince","type":"city","translations":{"es":"San Marcos","en":"Saint-Marc"}},{"name":"Verrettes","state_code":"AR","latitude":"19.05050000","longitude":"-72.46585000","population":48724,"timezone":"America/Port-au-Prince","type":"city","translations":{"es":"Verrettes","en":"Verrettes"}},{"name":"Arrondissement de Cerca La Source","state_code":"CE","latitude":"19.11667000","longitude":"-71.75000000","population":null,"timezone":"America/Port-au-Prince","type":"city","translations":{"es":"Distrito de Cerca La Source","en":"Arrondissement de Cerca La Source"}},{"name":"Cerca la Source","state_code":"CE","latitude":"19.16696000","longitude":"-71.79015000","population":2792,"timezone":"America/Port-au-Prince","type":"city","translations":{"es":"Cerca la fuente","en":"Cerca la Source"}},{"name":"Hinche","state_code":"CE","latitude":"19.15000000","longitude":"-72.01667000","population":120867,"timezone":"America/Port-au-Prince","type":"adm1","translations":{"es":"Hinche","en":"Hinche"}},{"name":"Lascahobas","state_code":"CE","latitude":"18.83047000","longitude":"-71.93563000","population":7574,"timezone":"America/Port-au-Prince","type":"city","translations":{"es":"Lascahobas","en":"Lascahobas"}},{"name":"Mayisad","state_code":"CE","latitude":"19.17607000","longitude":"-72.13958000","population":5204,"timezone":"America/Port-au-Prince","type":"city","translations":{"es":"Mayisad","en":"Mayisad"}},{"name":"Mirebalais","state_code":"CE","latitude":"18.83455000","longitude":"-72.10480000","population":9082,"timezone":"America/Port-au-Prince","type":"city","translations":{"es":"Mirebalais","en":"Mirebalais"}},{"name":"Thomassique","state_code":"CE","latitude":"19.08209000","longitude":"-71.83855000","population":4857,"timezone":"America/Port-au-Prince","type":"city","translations":{"es":"Thomassique","en":"Thomassique"}},{"name":"Thomonde","state_code":"CE","latitude":"19.01730000","longitude":"-71.96235000","population":3696,"timezone":"America/Port-au-Prince","type":"city","translations":{"es":"Thomonde","en":"Thomonde"}},{"name":"Anse-à-Veau","state_code":"GA","latitude":"18.50110000","longitude":"-73.34490000","population":1731,"timezone":"America/Port-au-Prince","type":"city","translations":{"es":"Anse-à-Veau","en":"Anse-à-Veau"}},{"name":"Chambellan","state_code":"GA","latitude":"18.55037000","longitude":"-74.31317000","population":1397,"timezone":"America/Port-au-Prince","type":"city","translations":{"es":"Chambellan","en":"Chambellan"}},{"name":"Corail","state_code":"GA","latitude":"18.56766000","longitude":"-73.88942000","population":2782,"timezone":"America/Port-au-Prince","type":"city","translations":{"es":"Coral","en":"Corail"}},{"name":"Dame-Marie","state_code":"GA","latitude":"18.56107000","longitude":"-74.42167000","population":6036,"timezone":"America/Port-au-Prince","type":"city","translations":{"es":"Dama María","en":"Dame-Marie"}},{"name":"Jeremi","state_code":"GA","latitude":"18.58333000","longitude":"-74.20000000","population":null,"timezone":"America/Port-au-Prince","type":"city","translations":{"es":"Jeremi","en":"Jeremi"}},{"name":"Jérémie","state_code":"GA","latitude":"18.65000000","longitude":"-74.11667000","population":97503,"timezone":"America/Port-au-Prince","type":"adm1","translations":{"es":"Jeremías","en":"Jérémie"}},{"name":"Les Abricots","state_code":"GA","latitude":"18.64901000","longitude":"-74.30786000","population":1245,"timezone":"America/Port-au-Prince","type":"city","translations":{"es":"Los albaricoques","en":"Les Abricots"}},{"name":"Les Irois","state_code":"GA","latitude":"18.40490000","longitude":"-74.45280000","population":2265,"timezone":"America/Port-au-Prince","type":"city","translations":{"es":"Los Irois","en":"Les Irois"}},{"name":"Moron","state_code":"GA","latitude":"18.56039000","longitude":"-74.25777000","population":1830,"timezone":"America/Port-au-Prince","type":"city","translations":{"es":"Imbécil","en":"Moron"}},{"name":"Petite Rivière de Nippes","state_code":"GA","latitude":"18.47611000","longitude":"-73.23495000","population":1794,"timezone":"America/Port-au-Prince","type":"city","translations":{"es":"Pequeña Rivière de Nippes","en":"Petite Rivière de Nippes"}},{"name":"Ansavo","state_code":"NI","latitude":"18.41667000","longitude":"-73.50000000","population":null,"timezone":"America/Port-au-Prince","type":"city","translations":{"es":"Ansavo","en":"Ansavo"}},{"name":"Baradères","state_code":"NI","latitude":"18.48255000","longitude":"-73.63884000","population":1666,"timezone":"America/Port-au-Prince","type":"city","translations":{"es":"Baradères","en":"Baradères"}},{"name":"Miragoâne","state_code":"NI","latitude":"18.44599000","longitude":"-73.08957000","population":89202,"timezone":"America/Port-au-Prince","type":"adm1","translations":{"es":"Miragoâne","en":"Miragoâne"}},{"name":"Petit Trou de Nippes","state_code":"NI","latitude":"18.52535000","longitude":"-73.50815000","population":2130,"timezone":"America/Port-au-Prince","type":"city","translations":{"es":"Pequeño agujero de pezones","en":"Petit Trou de Nippes"}},{"name":"Acul du Nord","state_code":"ND","latitude":"19.66667000","longitude":"-72.28333000","population":null,"timezone":"America/Port-au-Prince","type":"city","translations":{"es":"Acul du Nord","en":"Acul du Nord"}},{"name":"Arrondissement de la Grande Rivière du Nord","state_code":"ND","latitude":"19.51667000","longitude":"-72.16667000","population":null,"timezone":"America/Port-au-Prince","type":"city","translations":{"es":"Distrito de la Grande Rivière du Nord","en":"Arrondissement de la Grande Rivière du Nord"}},{"name":"Arrondissement de Plaisance","state_code":"ND","latitude":"19.66756000","longitude":"-72.54908000","population":null,"timezone":"America/Port-au-Prince","type":"city","translations":{"es":"Distrito de Plaisance","en":"Arrondissement de Plaisance"}},{"name":"Arrondissement du Borgne","state_code":"ND","latitude":"19.75000000","longitude":"-72.50000000","population":null,"timezone":"America/Port-au-Prince","type":"city","translations":{"es":"Distrito de Borgne","en":"Arrondissement du Borgne"}},{"name":"Bahon","state_code":"ND","latitude":"19.46959000","longitude":"-72.11466000","population":1618,"timezone":"America/Port-au-Prince","type":"city","translations":{"es":"Bahon","en":"Bahon"}},{"name":"Borgne","state_code":"ND","latitude":"19.84507000","longitude":"-72.52349000","population":4288,"timezone":"America/Port-au-Prince","type":"city","translations":{"es":"Borgne","en":"Borgne"}},{"name":"Dondon","state_code":"ND","latitude":"19.52734000","longitude":"-72.24337000","population":5029,"timezone":"America/Port-au-Prince","type":"city","translations":{"es":"Dondón","en":"Dondon"}},{"name":"Grande Rivière du Nord","state_code":"ND","latitude":"19.57744000","longitude":"-72.16872000","population":8836,"timezone":"America/Port-au-Prince","type":"city","translations":{"es":"Grande Rivière du Nord","en":"Grande Rivière du Nord"}},{"name":"Lenbe","state_code":"ND","latitude":"19.70603000","longitude":"-72.40336000","population":32645,"timezone":"America/Port-au-Prince","type":"city","translations":{"es":"Lenbe","en":"Lenbe"}},{"name":"Limonade","state_code":"ND","latitude":"19.67014000","longitude":"-72.12430000","population":3810,"timezone":"America/Port-au-Prince","type":"city","translations":{"es":"Limonada","en":"Limonade"}},{"name":"Milot","state_code":"ND","latitude":"19.60837000","longitude":"-72.21319000","population":5534,"timezone":"America/Port-au-Prince","type":"city","translations":{"es":"Milot","en":"Milot"}},{"name":"Okap","state_code":"ND","latitude":"19.75938000","longitude":"-72.19815000","population":134815,"timezone":"America/Port-au-Prince","type":"adm1","translations":{"es":"Está bien","en":"Okap"}},{"name":"Pignon","state_code":"ND","latitude":"19.33594000","longitude":"-72.11662000","population":6731,"timezone":"America/Port-au-Prince","type":"city","translations":{"es":"Pignon","en":"Pignon"}},{"name":"Pilate","state_code":"ND","latitude":"19.66745000","longitude":"-72.55229000","population":4227,"timezone":"America/Port-au-Prince","type":"city","translations":{"es":"Pilato","en":"Pilate"}},{"name":"Plaine du Nord","state_code":"ND","latitude":"19.67707000","longitude":"-72.26969000","population":2492,"timezone":"America/Port-au-Prince","type":"city","translations":{"es":"Llanura del Norte","en":"Plaine du Nord"}},{"name":"Plaisance","state_code":"ND","latitude":"19.59795000","longitude":"-72.46994000","population":4152,"timezone":"America/Port-au-Prince","type":"city","translations":{"es":"Plaisance","en":"Plaisance"}},{"name":"Port-Margot","state_code":"ND","latitude":"19.75180000","longitude":"-72.43006000","population":3070,"timezone":"America/Port-au-Prince","type":"city","translations":{"es":"Puerto Margot","en":"Port-Margot"}},{"name":"Quartier Morin","state_code":"ND","latitude":"19.69696000","longitude":"-72.15712000","population":1299,"timezone":"America/Port-au-Prince","type":"city","translations":{"es":"Barrio Morin","en":"Quartier Morin"}},{"name":"Ranquitte","state_code":"ND","latitude":"19.41327000","longitude":"-72.08077000","population":1391,"timezone":"America/Port-au-Prince","type":"city","translations":{"es":"Ranquitte","en":"Ranquitte"}},{"name":"Saint-Raphaël","state_code":"ND","latitude":"19.43877000","longitude":"-72.19910000","population":37739,"timezone":"America/Port-au-Prince","type":"city","translations":{"es":"San Rafael","en":"Saint-Raphaël"}},{"name":"Arrondissement de Fort Liberté","state_code":"NE","latitude":"19.56667000","longitude":"-71.83333000","population":null,"timezone":"America/Port-au-Prince","type":"city","translations":{"es":"Distrito de Fort Liberté","en":"Arrondissement de Fort Liberté"}},{"name":"Arrondissement du Trou du Nord","state_code":"NE","latitude":"19.55000000","longitude":"-71.98333000","population":null,"timezone":"America/Port-au-Prince","type":"city","translations":{"es":"Distrito del Trou du Nord","en":"Arrondissement du Trou du Nord"}},{"name":"Caracol","state_code":"NE","latitude":"19.69274000","longitude":"-72.01733000","population":1549,"timezone":"America/Port-au-Prince","type":"city","translations":{"es":"Caracol","en":"Caracol"}},{"name":"Carice","state_code":"NE","latitude":"19.37795000","longitude":"-71.83030000","population":2104,"timezone":"America/Port-au-Prince","type":"city","translations":{"es":"Carice","en":"Carice"}},{"name":"Dérac","state_code":"NE","latitude":"19.65476000","longitude":"-71.81451000","population":1855,"timezone":"America/Port-au-Prince","type":"city","translations":{"es":"Dérac","en":"Dérac"}},{"name":"Ferrier","state_code":"NE","latitude":"19.61549000","longitude":"-71.77792000","population":3804,"timezone":"America/Port-au-Prince","type":"city","translations":{"es":"Ferrier","en":"Ferrier"}},{"name":"Fort Liberté","state_code":"NE","latitude":"19.66273000","longitude":"-71.83798000","population":11465,"timezone":"America/Port-au-Prince","type":"adm1","translations":{"es":"Fuerte Libertad","en":"Fort Liberté"}},{"name":"Montòrganize","state_code":"NE","latitude":"19.40815000","longitude":"-71.78132000","population":2104,"timezone":"America/Port-au-Prince","type":"city","translations":{"es":"Montòorganize","en":"Montòrganize"}},{"name":"Ouanaminthe","state_code":"NE","latitude":"19.54934000","longitude":"-71.72475000","population":10118,"timezone":"America/Port-au-Prince","type":"city","translations":{"es":"Juana Méndez","en":"Ouanaminthe"}},{"name":"Perches","state_code":"NE","latitude":"19.52201000","longitude":"-71.92323000","population":1889,"timezone":"America/Port-au-Prince","type":"city","translations":{"es":"Perchas","en":"Perches"}},{"name":"Phaëton","state_code":"NE","latitude":"19.67525000","longitude":"-71.89691000","population":2297,"timezone":"America/Port-au-Prince","type":"city","translations":{"es":"Faetón","en":"Phaëton"}},{"name":"Trou du Nord","state_code":"NE","latitude":"19.61668000","longitude":"-72.02442000","population":10569,"timezone":"America/Port-au-Prince","type":"city","translations":{"es":"Trou du Nord","en":"Trou du Nord"}},{"name":"Wanament","state_code":"NE","latitude":"19.48333000","longitude":"-71.76667000","population":null,"timezone":"America/Port-au-Prince","type":"city","translations":{"es":"Wanament","en":"Wanament"}},{"name":"Arcahaie","state_code":"NO","latitude":"19.81667000","longitude":"-72.91667000","population":4119,"timezone":"America/Port-au-Prince","type":"city","translations":{"es":"Arcahaie","en":"Arcahaie"}},{"name":"Arrondissement de Port-de-Paix","state_code":"NO","latitude":"19.83333000","longitude":"-72.88333000","population":null,"timezone":"America/Port-au-Prince","type":"city","translations":{"es":"Distrito de Port-de-Paix","en":"Arrondissement de Port-de-Paix"}},{"name":"Arrondissement de Saint-Louis du Nord","state_code":"NO","latitude":"19.85000000","longitude":"-72.66667000","population":null,"timezone":"America/Port-au-Prince","type":"city","translations":{"es":"Distrito de Saint-Louis du Nord","en":"Arrondissement de Saint-Louis du Nord"}},{"name":"Arrondissement du Môle Saint-Nicolas","state_code":"NO","latitude":"19.75000000","longitude":"-73.25000000","population":null,"timezone":"America/Port-au-Prince","type":"city","translations":{"es":"Distrito de Môle Saint-Nicolas","en":"Arrondissement du Môle Saint-Nicolas"}},{"name":"Baie de Henne","state_code":"NO","latitude":"19.66307000","longitude":"-73.20943000","population":1660,"timezone":"America/Port-au-Prince","type":"city","translations":{"es":"Bahía de Henne","en":"Baie de Henne"}},{"name":"Bombardopolis","state_code":"NO","latitude":"19.69142000","longitude":"-73.33769000","population":1974,"timezone":"America/Port-au-Prince","type":"city","translations":{"es":"Bombardópolis","en":"Bombardopolis"}},{"name":"Fond Bassin Bleu","state_code":"NO","latitude":"19.79445000","longitude":"-72.79949000","population":1184,"timezone":"America/Port-au-Prince","type":"city","translations":{"es":"Fondo Bassin Bleu","en":"Fond Bassin Bleu"}},{"name":"Jean-Rabel","state_code":"NO","latitude":"19.85379000","longitude":"-73.19131000","population":5419,"timezone":"America/Port-au-Prince","type":"city","translations":{"es":"Jean-Rabel","en":"Jean-Rabel"}},{"name":"Môle Saint-Nicolas","state_code":"NO","latitude":"19.80700000","longitude":"-73.37605000","population":3224,"timezone":"America/Port-au-Prince","type":"city","translations":{"es":"Môle Saint-Nicolas","en":"Môle Saint-Nicolas"}},{"name":"Petite Anse","state_code":"NO","latitude":"19.63011000","longitude":"-73.15499000","population":1539,"timezone":"America/Port-au-Prince","type":"city","translations":{"es":"Pequeña Anse","en":"Petite Anse"}},{"name":"Port-de-Paix","state_code":"NO","latitude":"19.93984000","longitude":"-72.83037000","population":306217,"timezone":"America/Port-au-Prince","type":"adm1","translations":{"es":"Puerto de Paz","en":"Port-de-Paix"}},{"name":"Saint-Louis du Nord","state_code":"NO","latitude":"19.93397000","longitude":"-72.72138000","population":11849,"timezone":"America/Port-au-Prince","type":"city","translations":{"es":"San Luis del Norte","en":"Saint-Louis du Nord"}},{"name":"Ti Port-de-Paix","state_code":"NO","latitude":"19.93333000","longitude":"-72.83333000","population":34657,"timezone":"America/Port-au-Prince","type":"city","translations":{"es":"Ti Port-de-Paix","en":"Ti Port-de-Paix"}},{"name":"Anse à Galets","state_code":"OU","latitude":"18.83449000","longitude":"-72.86644000","population":7178,"timezone":"America/Port-au-Prince","type":"city","translations":{"es":"Anse à Galets","en":"Anse à Galets"}},{"name":"Arcahaie","state_code":"OU","latitude":"18.83333000","longitude":"-72.41667000","population":0,"timezone":"America/Port-au-Prince","type":"city","translations":{"es":"Arcahaie","en":"Arcahaie"}},{"name":"Arrondissement de Croix des Bouquets","state_code":"OU","latitude":"18.48333000","longitude":"-72.01667000","population":null,"timezone":"America/Port-au-Prince","type":"city","translations":{"es":"Distrito de Croix des Bouquets","en":"Arrondissement de Croix des Bouquets"}},{"name":"Arrondissement de Léogâne","state_code":"OU","latitude":"18.41667000","longitude":"-72.75000000","population":null,"timezone":"America/Port-au-Prince","type":"city","translations":{"es":"Distrito de Léogâne","en":"Arrondissement de Léogâne"}},{"name":"Arrondissement de Port-au-Prince","state_code":"OU","latitude":"18.50000000","longitude":"-72.36667000","population":null,"timezone":"America/Port-au-Prince","type":"city","translations":{"es":"Distrito de Puerto Príncipe","en":"Arrondissement de Port-au-Prince"}},{"name":"Cabaret","state_code":"OU","latitude":"18.73582000","longitude":"-72.41929000","population":3951,"timezone":"America/Port-au-Prince","type":"city","translations":{"es":"Cabaret","en":"Cabaret"}},{"name":"Carrefour","state_code":"OU","latitude":"18.54114000","longitude":"-72.39922000","population":511345,"timezone":"America/Port-au-Prince","type":"section","translations":{"es":"Carrefour","en":"Carrefour"}},{"name":"Cornillon","state_code":"OU","latitude":"18.67546000","longitude":"-71.95271000","population":7572,"timezone":"America/Port-au-Prince","type":"city","translations":{"es":"Cornillon","en":"Cornillon"}},{"name":"Croix-des-Bouquets","state_code":"OU","latitude":"18.57677000","longitude":"-72.22625000","population":229127,"timezone":"America/Port-au-Prince","type":"adm2","translations":{"es":"Cruz de los Ramos","en":"Croix-des-Bouquets"}},{"name":"Delmas 73","state_code":"OU","latitude":"18.54472000","longitude":"-72.30278000","population":382920,"timezone":"America/Port-au-Prince","type":"city","translations":{"es":"Delmas 73","en":"Delmas 73"}},{"name":"Fond Parisien","state_code":"OU","latitude":"18.50547000","longitude":"-71.98122000","population":18256,"timezone":"America/Port-au-Prince","type":"city","translations":{"es":"Fondo parisino","en":"Fond Parisien"}},{"name":"Fonds Verrettes","state_code":"OU","latitude":"18.39566000","longitude":"-71.85634000","population":2789,"timezone":"America/Port-au-Prince","type":"city","translations":{"es":"Fondos Verrettes","en":"Fonds Verrettes"}},{"name":"Grangwav","state_code":"OU","latitude":"18.42590000","longitude":"-72.76995000","population":49288,"timezone":"America/Port-au-Prince","type":"city","translations":{"es":"Grangwav","en":"Grangwav"}},{"name":"Gressier","state_code":"OU","latitude":"18.54091000","longitude":"-72.52679000","population":25947,"timezone":"America/Port-au-Prince","type":"city","translations":{"es":"Gressier","en":"Gressier"}},{"name":"Kenscoff","state_code":"OU","latitude":"18.44773000","longitude":"-72.28398000","population":42175,"timezone":"America/Port-au-Prince","type":"city","translations":{"es":"Kenscoff","en":"Kenscoff"}},{"name":"Lagonav","state_code":"OU","latitude":"18.85000000","longitude":"-73.05000000","population":null,"timezone":"America/Port-au-Prince","type":"adm1","translations":{"es":"Lagonav","en":"Lagonav"}},{"name":"Léogâne","state_code":"OU","latitude":"18.51110000","longitude":"-72.63343000","population":134190,"timezone":"America/Port-au-Prince","type":"city","translations":{"es":"Leogane","en":"Léogâne"}},{"name":"Pétionville","state_code":"OU","latitude":"18.51250000","longitude":"-72.28528000","population":283052,"timezone":"America/Port-au-Prince","type":"city","translations":{"es":"Petionville","en":"Pétionville"}},{"name":"Port-au-Prince","state_code":"OU","latitude":"18.54349000","longitude":"-72.33881000","population":1234742,"timezone":"America/Port-au-Prince","type":"capital","translations":{"es":"Puerto Príncipe","en":"Port-au-Prince"}},{"name":"Thomazeau","state_code":"OU","latitude":"18.65297000","longitude":"-72.09391000","population":52017,"timezone":"America/Port-au-Prince","type":"city","translations":{"es":"Thomazeau","en":"Thomazeau"}},{"name":"Tigwav","state_code":"OU","latitude":"18.43117000","longitude":"-72.86521000","population":117504,"timezone":"America/Port-au-Prince","type":"city","translations":{"es":"Tigwav","en":"Tigwav"}},{"name":"Aquin","state_code":"SD","latitude":"18.27974000","longitude":"-73.39433000","population":5246,"timezone":"America/Port-au-Prince","type":"city","translations":{"es":"Aquino","en":"Aquin"}},{"name":"Arrondissement de Port-Salut","state_code":"SD","latitude":"18.13333000","longitude":"-73.90000000","population":null,"timezone":"America/Port-au-Prince","type":"city","translations":{"es":"Distrito de Port-Salut","en":"Arrondissement de Port-Salut"}},{"name":"Arrondissement des Cayes","state_code":"SD","latitude":"18.30000000","longitude":"-73.83333000","population":null,"timezone":"America/Port-au-Prince","type":"city","translations":{"es":"Distrito de los Cayos","en":"Arrondissement des Cayes"}},{"name":"Cavaillon","state_code":"SD","latitude":"18.29987000","longitude":"-73.65455000","population":1023,"timezone":"America/Port-au-Prince","type":"city","translations":{"es":"Cavaillon","en":"Cavaillon"}},{"name":"Chantal","state_code":"SD","latitude":"18.20169000","longitude":"-73.88957000","population":1848,"timezone":"America/Port-au-Prince","type":"city","translations":{"es":"Chantal","en":"Chantal"}},{"name":"Chardonnière","state_code":"SD","latitude":"18.27484000","longitude":"-74.16613000","population":3930,"timezone":"America/Port-au-Prince","type":"city","translations":{"es":"Chardonnière","en":"Chardonnière"}},{"name":"Fond des Blancs","state_code":"SD","latitude":"18.27782000","longitude":"-73.12733000","population":2653,"timezone":"America/Port-au-Prince","type":"city","translations":{"es":"Fondo de blancos","en":"Fond des Blancs"}},{"name":"Koto","state_code":"SD","latitude":"18.20601000","longitude":"-74.04013000","population":2065,"timezone":"America/Port-au-Prince","type":"city","translations":{"es":"koto","en":"Koto"}},{"name":"Les Anglais","state_code":"SD","latitude":"18.30540000","longitude":"-74.21968000","population":8247,"timezone":"America/Port-au-Prince","type":"city","translations":{"es":"Los ingleses","en":"Les Anglais"}},{"name":"Les Cayes","state_code":"SD","latitude":"18.19331000","longitude":"-73.74601000","population":151696,"timezone":"America/Port-au-Prince","type":"adm1","translations":{"es":"Los Cayos","en":"Les Cayes"}},{"name":"Port-à-Piment","state_code":"SD","latitude":"18.24963000","longitude":"-74.09710000","population":3819,"timezone":"America/Port-au-Prince","type":"city","translations":{"es":"Puerto Piment","en":"Port-à-Piment"}},{"name":"Roche-à-Bateau","state_code":"SD","latitude":"18.18182000","longitude":"-74.00345000","population":1662,"timezone":"America/Port-au-Prince","type":"city","translations":{"es":"Roche-à-Bateau","en":"Roche-à-Bateau"}},{"name":"Saint-Louis du Sud","state_code":"SD","latitude":"18.26241000","longitude":"-73.54603000","population":1528,"timezone":"America/Port-au-Prince","type":"city","translations":{"es":"San Luis del Sur","en":"Saint-Louis du Sud"}},{"name":"Tiburon","state_code":"SD","latitude":"18.32589000","longitude":"-74.39598000","population":3054,"timezone":"America/Port-au-Prince","type":"city","translations":{"es":"Tiburón","en":"Tiburon"}},{"name":"Torbeck","state_code":"SD","latitude":"18.16338000","longitude":"-73.80949000","population":1918,"timezone":"America/Port-au-Prince","type":"city","translations":{"es":"Torbeck","en":"Torbeck"}},{"name":"Anse-à-Pitre","state_code":"SE","latitude":"18.05000000","longitude":"-71.75000000","population":1736,"timezone":"America/Port-au-Prince","type":"city","translations":{"es":"Anse-à-Pitre","en":"Anse-à-Pitre"}},{"name":"Arrondissement de Bainet","state_code":"SE","latitude":"18.25000000","longitude":"-72.85000000","population":null,"timezone":"America/Port-au-Prince","type":"city","translations":{"es":"Distrito de Bainet","en":"Arrondissement de Bainet"}},{"name":"Arrondissement de Jacmel","state_code":"SE","latitude":"18.33333000","longitude":"-72.50000000","population":null,"timezone":"America/Port-au-Prince","type":"city","translations":{"es":"Distrito de Jacmel","en":"Arrondissement de Jacmel"}},{"name":"Belle-Anse","state_code":"SE","latitude":"18.23768000","longitude":"-72.06638000","population":2611,"timezone":"America/Port-au-Prince","type":"city","translations":{"es":"Belle-Anse","en":"Belle-Anse"}},{"name":"Cayes-Jacmel","state_code":"SE","latitude":"18.23110000","longitude":"-72.39545000","population":1609,"timezone":"America/Port-au-Prince","type":"city","translations":{"es":"Cayos-Jacmel","en":"Cayes-Jacmel"}},{"name":"Jacmel","state_code":"SE","latitude":"18.23427000","longitude":"-72.53539000","population":137966,"timezone":"America/Port-au-Prince","type":"adm1","translations":{"es":"Jacmel","en":"Jacmel"}},{"name":"Kotdefè","state_code":"SE","latitude":"18.18872000","longitude":"-73.00287000","population":2393,"timezone":"America/Port-au-Prince","type":"city","translations":{"es":"Kotdefè","en":"Kotdefè"}},{"name":"Marigot","state_code":"SE","latitude":"18.23167000","longitude":"-72.32289000","population":1698,"timezone":"America/Port-au-Prince","type":"city","translations":{"es":"Marigot","en":"Marigot"}},{"name":"Thiotte","state_code":"SE","latitude":"18.24384000","longitude":"-71.84157000","population":2461,"timezone":"America/Port-au-Prince","type":"city","translations":{"es":"Thiotte","en":"Thiotte"}}]