[{"name":"Mongkol Borei","state_code":"1","latitude":"13.45531000","longitude":"102.99186000","population":138190,"timezone":"Asia/Phnom_Penh","type":"adm2","translations":{"es":"Mongkol Borei","en":"Mongkol Borei"}},{"name":"Paoy Paet","state_code":"1","latitude":"13.65805000","longitude":"102.56365000","population":98934,"timezone":"Asia/Phnom_Penh","type":"city","translations":{"es":"Paoy Paet","en":"Paoy Paet"}},{"name":"Sisophon","state_code":"1","latitude":"13.58588000","longitude":"102.97369000","population":23218,"timezone":"Asia/Phnom_Penh","type":"adm1","translations":{"es":"Sisofón","en":"Sisophon"}},{"name":"Srŏk Malai","state_code":"1","latitude":"13.49902000","longitude":"102.60164000","population":null,"timezone":"Asia/Phnom_Penh","type":"city","translations":{"es":"Srŏk Malai","en":"Srŏk Malai"}},{"name":"Srŏk Svay Chék","state_code":"1","latitude":"13.81305000","longitude":"102.95269000","population":null,"timezone":"Asia/Phnom_Penh","type":"adm1","translations":{"es":"Srŏk Svay Chék","en":"Srŏk Svay Chék"}},{"name":"Battambang","state_code":"2","latitude":"13.10271000","longitude":"103.19822000","population":119251,"timezone":"Asia/Phnom_Penh","type":"adm1","translations":{"es":"Battambang","en":"Battambang"}},{"name":"Srŏk Âk Phnŭm","state_code":"2","latitude":"13.23621000","longitude":"103.45894000","population":null,"timezone":"Asia/Phnom_Penh","type":"adm3","translations":{"es":"Srŏk Âk Phnŭm","en":"Srŏk Âk Phnŭm"}},{"name":"Srŏk Banăn","state_code":"2","latitude":"12.97067000","longitude":"103.04742000","population":null,"timezone":"Asia/Phnom_Penh","type":"city","translations":{"es":"Srŏk Banăn","en":"Srŏk Banăn"}},{"name":"Srŏk Bâvĭl","state_code":"2","latitude":"13.23601000","longitude":"102.82910000","population":null,"timezone":"Asia/Phnom_Penh","type":"city","translations":{"es":"Srŏk Bâvĭl","en":"Srŏk Bâvĭl"}},{"name":"Srŏk Rotanak Mondol","state_code":"2","latitude":"12.84048000","longitude":"102.88700000","population":null,"timezone":"Asia/Phnom_Penh","type":"adm2","translations":{"es":"Srŏk Rotanak Mondol","en":"Srŏk Rotanak Mondol"}},{"name":"Cheung Prey","state_code":"3","latitude":"12.10000000","longitude":"105.07000000","population":0,"timezone":"Asia/Phnom_Penh","type":"adm2","translations":{"es":"Cheung Prey","en":"Cheung Prey"}},{"name":"Kampong Cham","state_code":"3","latitude":"11.98000000","longitude":"105.44500000","population":4143,"timezone":"Asia/Phnom_Penh","type":"city","translations":{"es":"Kampong Cham","en":"Kampong Cham"}},{"name":"Srŏk Bathéay","state_code":"3","latitude":"12.02986000","longitude":"104.93171000","population":null,"timezone":"Asia/Phnom_Penh","type":"city","translations":{"es":"Srŏk Bathéay","en":"Srŏk Bathéay"}},{"name":"Baribour","state_code":"4","latitude":"12.43000000","longitude":"104.47000000","population":0,"timezone":"Asia/Phnom_Penh","type":"adm2","translations":{"es":"Baribour","en":"Baribour"}},{"name":"Kampong Chhnang","state_code":"4","latitude":"12.26000000","longitude":"104.67000000","population":75244,"timezone":"Asia/Phnom_Penh","type":"adm1","translations":{"es":"Kampong Chhnang","en":"Kampong Chhnang"}},{"name":"Rolea B'ier","state_code":"4","latitude":"12.21000000","longitude":"104.61000000","population":81134,"timezone":"Asia/Phnom_Penh","type":"adm1","translations":{"es":"Rolea B'ier","en":"Rolea B'ier"}},{"name":"Srŏk Chol Kiri","state_code":"4","latitude":"12.15861000","longitude":"104.82287000","population":null,"timezone":"Asia/Phnom_Penh","type":"city","translations":{"es":"Srŏk Chol Kiri","en":"Srŏk Chol Kiri"}},{"name":"Srŏk Sameakki Mean Chey","state_code":"4","latitude":"11.86788000","longitude":"104.55549000","population":null,"timezone":"Asia/Phnom_Penh","type":"city","translations":{"es":"Srŏk Sameakki significa Chey","en":"Srŏk Sameakki Mean Chey"}},{"name":"Kampong Speu","state_code":"5","latitude":"11.45332000","longitude":"104.52085000","population":33231,"timezone":"Asia/Phnom_Penh","type":"adm1","translations":{"es":"Kampong Speu","en":"Kampong Speu"}},{"name":"Krŏng Chbar Mon","state_code":"5","latitude":"11.47091000","longitude":"104.50655000","population":null,"timezone":"Asia/Phnom_Penh","type":"city","translations":{"es":"Krong Chbar Mon","en":"Krŏng Chbar Mon"}},{"name":"Srŏk Basedth","state_code":"5","latitude":"11.18432000","longitude":"104.53584000","population":null,"timezone":"Asia/Phnom_Penh","type":"city","translations":{"es":"Srŏk Basedth","en":"Srŏk Basedth"}},{"name":"Srŏk Kông Pĭsei","state_code":"5","latitude":"11.31648000","longitude":"104.65992000","population":null,"timezone":"Asia/Phnom_Penh","type":"city","translations":{"es":"Srŏk Kông Pĭsei","en":"Srŏk Kông Pĭsei"}},{"name":"Srŏk Ŏdŏngk","state_code":"5","latitude":"11.66845000","longitude":"104.61224000","population":null,"timezone":"Asia/Phnom_Penh","type":"city","translations":{"es":"Srŏk Ŏdŏngk","en":"Srŏk Ŏdŏngk"}},{"name":"Angkor Chey","state_code":"7","latitude":"10.76667000","longitude":"104.65000000","population":4191,"timezone":"Asia/Phnom_Penh","type":"city","translations":{"es":"Angkor Chey","en":"Angkor Chey"}},{"name":"Banteay Meas","state_code":"7","latitude":"10.61667000","longitude":"104.53333000","population":4634,"timezone":"Asia/Phnom_Penh","type":"city","translations":{"es":"Banteay Meas","en":"Banteay Meas"}},{"name":"Chhouk","state_code":"7","latitude":"10.81667000","longitude":"104.45000000","population":0,"timezone":"Asia/Phnom_Penh","type":"district","translations":{"es":"Distrito de Chhouk","en":"Chhouk"}},{"name":"Kampong Bay","state_code":"7","latitude":"10.59554000","longitude":"104.17136000","population":10514,"timezone":"Asia/Phnom_Penh","type":"section","translations":{"es":"Bahía de Kampong","en":"Kampong Bay"}},{"name":"Kampong Tranch","state_code":"7","latitude":"10.55000000","longitude":"104.46667000","population":0,"timezone":"Asia/Phnom_Penh","type":"adm2","translations":{"es":"Kampong Tranch","en":"Kampong Tranch"}},{"name":"Kampot","state_code":"7","latitude":"10.61041000","longitude":"104.18145000","population":22691,"timezone":"Asia/Phnom_Penh","type":"adm1","translations":{"es":"Kampot","en":"Kampot"}},{"name":"Srŏk Chŭm Kiri","state_code":"7","latitude":"11.00540000","longitude":"104.44207000","population":null,"timezone":"Asia/Phnom_Penh","type":"city","translations":{"es":"Srŏk Chŭm Kiri","en":"Srŏk Chŭm Kiri"}},{"name":"Srŏk Dângtóng","state_code":"7","latitude":"10.70733000","longitude":"104.42229000","population":null,"timezone":"Asia/Phnom_Penh","type":"city","translations":{"es":"Srŏk Dângtóng","en":"Srŏk Dângtóng"}},{"name":"Srok Tuek Chhou","state_code":"7","latitude":"10.74557000","longitude":"104.11013000","population":null,"timezone":"Asia/Phnom_Penh","type":"city","translations":{"es":"Srok Tuek Chhou","en":"Srok Tuek Chhou"}},{"name":"Krŏng Ta Khmau","state_code":"8","latitude":"11.45474000","longitude":"104.94350000","population":0,"timezone":"Asia/Phnom_Penh","type":"adm2","translations":{"es":"Krong Ta Khmau","en":"Krŏng Ta Khmau"}},{"name":"Srŏk Khsăch Kândal","state_code":"8","latitude":"11.69224000","longitude":"105.03732000","population":null,"timezone":"Asia/Phnom_Penh","type":"city","translations":{"es":"Srŏk Khsăch Kândal","en":"Srŏk Khsăch Kândal"}},{"name":"Ta Khmau","state_code":"8","latitude":"11.48333000","longitude":"104.95000000","population":52066,"timezone":"Asia/Phnom_Penh","type":"adm1","translations":{"es":"Ta Khmau","en":"Ta Khmau"}},{"name":"Krong Kep","state_code":"23","latitude":"10.48291000","longitude":"104.31672000","population":11658,"timezone":"Asia/Phnom_Penh","type":"adm1","translations":{"es":"Krong Kep","en":"Krong Kep"}},{"name":"Srŏk Dâmnăk Châng’aeur","state_code":"23","latitude":"10.53394000","longitude":"104.34855000","population":null,"timezone":"Asia/Phnom_Penh","type":"city","translations":{"es":"Srŏk Dâmnăk Châng’aeur","en":"Srŏk Dâmnăk Châng’aeur"}},{"name":"Koh Kong","state_code":"9","latitude":"11.61531000","longitude":"102.98380000","population":33591,"timezone":"Asia/Phnom_Penh","type":"adm1","translations":{"es":"Koh Kong","en":"Koh Kong"}},{"name":"Smach Mean Chey","state_code":"9","latitude":"11.54665000","longitude":"103.03569000","population":29329,"timezone":"Asia/Phnom_Penh","type":"adm2","translations":{"es":"Smach Mean Chey","en":"Smach Mean Chey"}},{"name":"Srae Ambel","state_code":"9","latitude":"11.10968000","longitude":"103.76226000","population":38435,"timezone":"Asia/Phnom_Penh","type":"adm2","translations":{"es":"Sra. Ambel","en":"Srae Ambel"}},{"name":"Srŏk Batum Sakôr","state_code":"9","latitude":"11.11465000","longitude":"103.38993000","population":null,"timezone":"Asia/Phnom_Penh","type":"city","translations":{"es":"Srŏk Batum Sakôr","en":"Srŏk Batum Sakôr"}},{"name":"Srŏk Môndôl Seima","state_code":"9","latitude":"11.81292000","longitude":"103.01159000","population":null,"timezone":"Asia/Phnom_Penh","type":"city","translations":{"es":"Srŏk Môndôl Seima","en":"Srŏk Môndôl Seima"}},{"name":"Kracheh","state_code":"10","latitude":"12.57000000","longitude":"106.20000000","population":null,"timezone":"Asia/Phnom_Penh","type":"city","translations":{"es":"Kracheh","en":"Kracheh"}},{"name":"Kratié","state_code":"10","latitude":"12.48811000","longitude":"106.01879000","population":19975,"timezone":"Asia/Phnom_Penh","type":"adm1","translations":{"es":"Kratié","en":"Kratié"}},{"name":"Snuol","state_code":"10","latitude":"12.19373000","longitude":"106.47361000","population":61603,"timezone":"Asia/Phnom_Penh","type":"city","translations":{"es":"Snuol","en":"Snuol"}},{"name":"Krŏng Sênmônoŭrôm","state_code":"11","latitude":"12.50480000","longitude":"107.15525000","population":null,"timezone":"Asia/Phnom_Penh","type":"adm1","translations":{"es":"Krŏng Sênmônoŭrôm","en":"Krŏng Sênmônoŭrôm"}},{"name":"Sen Monorom","state_code":"11","latitude":"12.45583000","longitude":"107.18811000","population":7944,"timezone":"Asia/Phnom_Penh","type":"adm1","translations":{"es":"Sen Monorom","en":"Sen Monorom"}},{"name":"Srŏk Kaev Seima","state_code":"11","latitude":"12.41722000","longitude":"106.77025000","population":null,"timezone":"Asia/Phnom_Penh","type":"city","translations":{"es":"Srŏk Kaev Seima","en":"Srŏk Kaev Seima"}},{"name":"Srŏk Pech Chreada","state_code":"11","latitude":"12.72780000","longitude":"107.09480000","population":null,"timezone":"Asia/Phnom_Penh","type":"city","translations":{"es":"Srŏk Pech Chreada","en":"Srŏk Pech Chreada"}},{"name":"Samraong","state_code":"22","latitude":"14.18175000","longitude":"103.51761000","population":18694,"timezone":"Asia/Phnom_Penh","type":"adm1","translations":{"es":"Samraong","en":"Samraong"}},{"name":"Srŏk Bântéay Âmpĭl","state_code":"22","latitude":"14.18590000","longitude":"103.25925000","population":null,"timezone":"Asia/Phnom_Penh","type":"city","translations":{"es":"Srŏk Bântéay Âmpĭl","en":"Srŏk Bântéay Âmpĭl"}},{"name":"Srŏk Sâmraông","state_code":"22","latitude":"14.25039000","longitude":"103.62739000","population":null,"timezone":"Asia/Phnom_Penh","type":"city","translations":{"es":"Srŏk Sâmraông","en":"Srŏk Sâmraông"}},{"name":"Srŏk Trâpeăng Prasat","state_code":"22","latitude":"14.25809000","longitude":"104.30835000","population":null,"timezone":"Asia/Phnom_Penh","type":"city","translations":{"es":"Srŏk Trâpeăng Prasat","en":"Srŏk Trâpeăng Prasat"}},{"name":"Khan Sala Krau","state_code":"24","latitude":"12.97984000","longitude":"102.63957000","population":null,"timezone":"Asia/Phnom_Penh","type":"adm2","translations":{"es":"Khan Sala Krau","en":"Khan Sala Krau"}},{"name":"Pailin","state_code":"24","latitude":"12.84895000","longitude":"102.60928000","population":21660,"timezone":"Asia/Phnom_Penh","type":"adm1","translations":{"es":"Pailín","en":"Pailin"}},{"name":"Khan 7 Makara","state_code":"12","latitude":"11.56254000","longitude":"104.91405000","population":1573544,"timezone":"Asia/Phnom_Penh","type":"capital","translations":{"es":"Khan 7 Makara","en":"Khan 7 Makara"}},{"name":"Khan Châmkar Mon","state_code":"12","latitude":"11.54390000","longitude":"104.92175000","population":1573544,"timezone":"Asia/Phnom_Penh","type":"capital","translations":{"es":"Khan Châmkar Mon","en":"Khan Châmkar Mon"}},{"name":"Khan Dângkaô","state_code":"12","latitude":"11.52457000","longitude":"104.83944000","population":3085,"timezone":"Asia/Phnom_Penh","type":"city","translations":{"es":"Khan Dângkaô","en":"Khan Dângkaô"}},{"name":"Khan Duŏn Pénh","state_code":"12","latitude":"11.57561000","longitude":"104.92025000","population":1573544,"timezone":"Asia/Phnom_Penh","type":"capital","translations":{"es":"Khan Duon Pénh","en":"Khan Duŏn Pénh"}},{"name":"Khan Méan Chey","state_code":"12","latitude":"11.51976000","longitude":"104.95467000","population":52066,"timezone":"Asia/Phnom_Penh","type":"adm1","translations":{"es":"Khan Méan Chey","en":"Khan Méan Chey"}},{"name":"Khan Russey Keo","state_code":"12","latitude":"11.61946000","longitude":"104.90990000","population":0,"timezone":"Asia/Phnom_Penh","type":"adm2","translations":{"es":"Khan Russey Keo","en":"Khan Russey Keo"}},{"name":"Khan Saen Sokh","state_code":"12","latitude":"11.61289000","longitude":"104.86078000","population":null,"timezone":"Asia/Phnom_Penh","type":"adm2","translations":{"es":"Khan Saen Sokh","en":"Khan Saen Sokh"}},{"name":"Phnom Penh","state_code":"12","latitude":"11.56245000","longitude":"104.91601000","population":1573544,"timezone":"Asia/Phnom_Penh","type":"capital","translations":{"es":"Nom Pen","en":"Phnom Penh"}},{"name":"Sangkom Thmei","state_code":"13","latitude":"13.47395000","longitude":"104.77051000","population":null,"timezone":"Asia/Phnom_Penh","type":"city","translations":{"es":"Sangkom Thmei","en":"Sangkom Thmei"}},{"name":"Srŏk Ch’êh Sên","state_code":"13","latitude":"13.58215000","longitude":"105.34533000","population":null,"timezone":"Asia/Phnom_Penh","type":"city","translations":{"es":"Srŏk Ch’êh Sên","en":"Srŏk Ch’êh Sên"}},{"name":"Srŏk Chhêb","state_code":"13","latitude":"13.91077000","longitude":"105.46180000","population":null,"timezone":"Asia/Phnom_Penh","type":"city","translations":{"es":"Srŏk Chhêb","en":"Srŏk Chhêb"}},{"name":"Srŏk Kulén","state_code":"13","latitude":"13.78597000","longitude":"104.61052000","population":null,"timezone":"Asia/Phnom_Penh","type":"city","translations":{"es":"Srŏk Kulén","en":"Srŏk Kulén"}},{"name":"Srŏk Rôviĕng","state_code":"13","latitude":"13.35105000","longitude":"105.09956000","population":null,"timezone":"Asia/Phnom_Penh","type":"city","translations":{"es":"Srŏk Rôviĕng","en":"Srŏk Rôviĕng"}},{"name":"Srŏk Tbêng Méanchey","state_code":"13","latitude":"13.78622000","longitude":"105.01586000","population":null,"timezone":"Asia/Phnom_Penh","type":"city","translations":{"es":"Srŏk Tbêng Méanchey","en":"Srŏk Tbêng Méanchey"}},{"name":"Tbeng Meanchey","state_code":"13","latitude":"13.80731000","longitude":"104.98046000","population":24380,"timezone":"Asia/Phnom_Penh","type":"adm1","translations":{"es":"Tbeng Meanchey","en":"Tbeng Meanchey"}},{"name":"Prey Veng","state_code":"14","latitude":"11.48682000","longitude":"105.32533000","population":33079,"timezone":"Asia/Phnom_Penh","type":"adm1","translations":{"es":"Presa Veng","en":"Prey Veng"}},{"name":"Srŏk Kâmpóng Léav","state_code":"14","latitude":"11.50970000","longitude":"105.30110000","population":null,"timezone":"Asia/Phnom_Penh","type":"city","translations":{"es":"Srŏk Kâmpóng Léav","en":"Srŏk Kâmpóng Léav"}},{"name":"Srŏk Mésang","state_code":"14","latitude":"11.35528000","longitude":"105.57235000","population":null,"timezone":"Asia/Phnom_Penh","type":"city","translations":{"es":"Srŏk Mésang","en":"Srŏk Mésang"}},{"name":"Srŏk Preăh Sdéch","state_code":"14","latitude":"11.08690000","longitude":"105.37497000","population":null,"timezone":"Asia/Phnom_Penh","type":"city","translations":{"es":"Srŏk Preăh Sdéch","en":"Srŏk Preăh Sdéch"}},{"name":"Bakan","state_code":"15","latitude":"12.78000000","longitude":"103.79000000","population":121229,"timezone":"Asia/Phnom_Penh","type":"adm2","translations":{"es":"Bakan","en":"Bakan"}},{"name":"Krakor","state_code":"15","latitude":"12.48000000","longitude":"104.19000000","population":74222,"timezone":"Asia/Phnom_Penh","type":"city","translations":{"es":"Krakor","en":"Krakor"}},{"name":"Pursat","state_code":"15","latitude":"12.53878000","longitude":"103.91920000","population":52476,"timezone":"Asia/Phnom_Penh","type":"adm1","translations":{"es":"Pursat","en":"Pursat"}},{"name":"Sampov Meas","state_code":"15","latitude":"12.47055000","longitude":"103.91817000","population":null,"timezone":"Asia/Phnom_Penh","type":"city","translations":{"es":"Medida Sampov","en":"Sampov Meas"}},{"name":"Srŏk Kândiĕng","state_code":"15","latitude":"12.71245000","longitude":"104.02592000","population":null,"timezone":"Asia/Phnom_Penh","type":"city","translations":{"es":"Srŏk Kândiĕng","en":"Srŏk Kândiĕng"}},{"name":"Srŏk Véal Vêng","state_code":"15","latitude":"12.24230000","longitude":"103.13444000","population":null,"timezone":"Asia/Phnom_Penh","type":"city","translations":{"es":"Srŏk Véal Vêng","en":"Srŏk Véal Vêng"}},{"name":"Banlung","state_code":"16","latitude":"13.73939000","longitude":"106.98727000","population":17000,"timezone":"Asia/Phnom_Penh","type":"adm1","translations":{"es":"Banlung","en":"Banlung"}},{"name":"Lumphat","state_code":"16","latitude":"13.49146000","longitude":"106.98022000","population":19205,"timezone":"Asia/Phnom_Penh","type":"adm2","translations":{"es":"Lumphat","en":"Lumphat"}},{"name":"Srŏk Ândong Méas","state_code":"16","latitude":"13.93352000","longitude":"107.31155000","population":null,"timezone":"Asia/Phnom_Penh","type":"city","translations":{"es":"Srŏk Ândong Méas","en":"Srŏk Ândong Méas"}},{"name":"Srŏk Bâ Kêv","state_code":"16","latitude":"13.70749000","longitude":"107.19442000","population":null,"timezone":"Asia/Phnom_Penh","type":"city","translations":{"es":"Srŏk Bâ Kêv","en":"Srŏk Bâ Kêv"}},{"name":"Srŏk Ban Lŭng","state_code":"16","latitude":"13.68200000","longitude":"107.03025000","population":null,"timezone":"Asia/Phnom_Penh","type":"city","translations":{"es":"Srŏk Ban Lŭng","en":"Srŏk Ban Lŭng"}},{"name":"Srŏk Koun Mom","state_code":"16","latitude":"13.51772000","longitude":"106.75142000","population":null,"timezone":"Asia/Phnom_Penh","type":"city","translations":{"es":"Mamá de Srŏk Koun","en":"Srŏk Koun Mom"}},{"name":"Srŏk Ou Chum","state_code":"16","latitude":"13.84069000","longitude":"107.03469000","population":null,"timezone":"Asia/Phnom_Penh","type":"city","translations":{"es":"Srŏk Ou Chum","en":"Srŏk Ou Chum"}},{"name":"Srŏk Ou Ya Dav","state_code":"16","latitude":"13.54328000","longitude":"107.44636000","population":null,"timezone":"Asia/Phnom_Penh","type":"city","translations":{"es":"Srŏk Ou Ya Dav","en":"Srŏk Ou Ya Dav"}},{"name":"Srŏk Ta Vêng","state_code":"16","latitude":"14.29192000","longitude":"107.24031000","population":null,"timezone":"Asia/Phnom_Penh","type":"adm2","translations":{"es":"Srŏk Ta Vêng","en":"Srŏk Ta Vêng"}},{"name":"Siem Reap","state_code":"17","latitude":"13.36179000","longitude":"103.86056000","population":139458,"timezone":"Asia/Phnom_Penh","type":"adm1","translations":{"es":"Siem Reap","en":"Siem Reap"}},{"name":"Srŏk Ângkôr Thum","state_code":"17","latitude":"13.57881000","longitude":"103.85645000","population":null,"timezone":"Asia/Phnom_Penh","type":"adm1","translations":{"es":"Srŏk Ângkôr Thum","en":"Srŏk Ângkôr Thum"}},{"name":"Srŏk Prasat Bakong","state_code":"17","latitude":"13.21031000","longitude":"103.97689000","population":null,"timezone":"Asia/Phnom_Penh","type":"city","translations":{"es":"Srŏk Prasat Bakong","en":"Srŏk Prasat Bakong"}},{"name":"Svay Leu","state_code":"17","latitude":"13.69168000","longitude":"104.27446000","population":12869,"timezone":"Asia/Phnom_Penh","type":"city","translations":{"es":"Svay Leu","en":"Svay Leu"}},{"name":"Varin","state_code":"17","latitude":"13.83574000","longitude":"103.89968000","population":19818,"timezone":"Asia/Phnom_Penh","type":"adm2","translations":{"es":"Varin","en":"Varin"}},{"name":"Sihanoukville","state_code":"18","latitude":"10.60932000","longitude":"103.52958000","population":71082,"timezone":"Asia/Phnom_Penh","type":"adm1","translations":{"es":"Sihanoukville","en":"Sihanoukville"}},{"name":"Srok Stueng Hav","state_code":"18","latitude":"10.85249000","longitude":"103.74016000","population":null,"timezone":"Asia/Phnom_Penh","type":"city","translations":{"es":"Srok Stueng Hav","en":"Srok Stueng Hav"}},{"name":"Srŏk Srêsén","state_code":"19","latitude":"13.60530000","longitude":"106.35819000","population":null,"timezone":"Asia/Phnom_Penh","type":"city","translations":{"es":"Srŏk Srêsén","en":"Srŏk Srêsén"}},{"name":"Stueng Traeng","state_code":"19","latitude":"13.65000000","longitude":"106.07000000","population":null,"timezone":"Asia/Phnom_Penh","type":"city","translations":{"es":"Stueng Traeng","en":"Stueng Traeng"}},{"name":"Stung Treng","state_code":"19","latitude":"13.52586000","longitude":"105.96830000","population":25000,"timezone":"Asia/Phnom_Penh","type":"adm1","translations":{"es":"Stung Treng","en":"Stung Treng"}},{"name":"Srŏk Svay Chrŭm","state_code":"20","latitude":"11.11160000","longitude":"105.69814000","population":null,"timezone":"Asia/Phnom_Penh","type":"city","translations":{"es":"Srŏk Svay Chrŭm","en":"Srŏk Svay Chrŭm"}},{"name":"Svay Rieng","state_code":"20","latitude":"11.08785000","longitude":"105.79935000","population":23956,"timezone":"Asia/Phnom_Penh","type":"adm1","translations":{"es":"Svay Rieng","en":"Svay Rieng"}},{"name":"Krŏng Doun Kaev","state_code":"21","latitude":"10.99459000","longitude":"104.79550000","population":null,"timezone":"Asia/Phnom_Penh","type":"adm1","translations":{"es":"Krong Doun Kaev","en":"Krŏng Doun Kaev"}},{"name":"Phumĭ Véal Srê","state_code":"21","latitude":"10.98081000","longitude":"104.77828000","population":44270,"timezone":"Asia/Phnom_Penh","type":"city","translations":{"es":"Phumĭ Véal Srê","en":"Phumĭ Véal Srê"}},{"name":"Srŏk Ângkôr Borei","state_code":"21","latitude":"10.99291000","longitude":"104.95177000","population":null,"timezone":"Asia/Phnom_Penh","type":"adm2","translations":{"es":"Srŏk Ângkôr Borei","en":"Srŏk Ângkôr Borei"}},{"name":"Srŏk Borei Cholsar","state_code":"21","latitude":"10.81414000","longitude":"104.98994000","population":null,"timezone":"Asia/Phnom_Penh","type":"city","translations":{"es":"Srŏk Borei Cholsar","en":"Srŏk Borei Cholsar"}},{"name":"Takeo","state_code":"21","latitude":"10.99081000","longitude":"104.78498000","population":843931,"timezone":"Asia/Phnom_Penh","type":"adm1","translations":{"es":"Takeo","en":"Takeo"}},{"name":"Suong","state_code":"25","latitude":"11.91666667","longitude":"105.65000000","population":0,"timezone":"Asia/Phnom_Penh","type":"adm1","translations":{"es":"Suong","en":"Suong"}}]