[{"name":"Abaiang","state_code":"G","latitude":"1.85293000","longitude":"172.94369000","population":91,"timezone":"Pacific/Enderbury","type":"city","translations":{"es":"Abaiang","en":"Abaiang"}},{"name":"Abemama","state_code":"G","latitude":"0.40000000","longitude":"173.86667000","population":null,"timezone":"Pacific/Enderbury","type":"city","translations":{"es":"Abemama","en":"Abemama"}},{"name":"Ambo Village","state_code":"G","latitude":"1.35317000","longitude":"173.04259000","population":1688,"timezone":"Pacific/Tarawa","type":"city","translations":{"es":"Pueblo de Ambo","en":"Ambo Village"}},{"name":"Aranuka","state_code":"G","latitude":"0.16428000","longitude":"173.60579000","population":509,"timezone":"Pacific/Tarawa","type":"city","translations":{"es":"Aranuka","en":"Aranuka"}},{"name":"Arorae","state_code":"G","latitude":"-2.63493000","longitude":"176.82229000","population":764,"timezone":"Pacific/Tarawa","type":"city","translations":{"es":"Arorae","en":"Arorae"}},{"name":"Bairiki Village","state_code":"G","latitude":"1.32924000","longitude":"172.97522000","population":2766,"timezone":"Pacific/Tarawa","type":"city","translations":{"es":"Pueblo de Bairiki","en":"Bairiki Village"}},{"name":"Banaba","state_code":"G","latitude":"-0.85500000","longitude":"169.53800000","population":null,"timezone":"Pacific/Enderbury","type":"city","translations":{"es":"Banaba","en":"Banaba"}},{"name":"Banraeaba Village","state_code":"G","latitude":"1.34540000","longitude":"173.03464000","population":1789,"timezone":"Pacific/Tarawa","type":"city","translations":{"es":"Aldea de Banraeaba","en":"Banraeaba Village"}},{"name":"Beru","state_code":"G","latitude":"-1.32957000","longitude":"175.98072000","population":2169,"timezone":"Pacific/Enderbury","type":"city","translations":{"es":"Beru","en":"Beru"}},{"name":"Betio Village","state_code":"G","latitude":"1.35797000","longitude":"172.92105000","population":12509,"timezone":"Pacific/Tarawa","type":"city","translations":{"es":"Pueblo de Betio","en":"Betio Village"}},{"name":"Bikenibeu Village","state_code":"G","latitude":"1.36730000","longitude":"173.12415000","population":6170,"timezone":"Pacific/Tarawa","type":"city","translations":{"es":"Pueblo de Bikenibeu","en":"Bikenibeu Village"}},{"name":"Bonriki Village","state_code":"G","latitude":"1.38081000","longitude":"173.13887000","population":2119,"timezone":"Pacific/Tarawa","type":"city","translations":{"es":"Pueblo de Bonriki","en":"Bonriki Village"}},{"name":"Buota Village","state_code":"G","latitude":"1.39078000","longitude":"173.13082000","population":1373,"timezone":"Pacific/Tarawa","type":"city","translations":{"es":"Pueblo de Buota","en":"Buota Village"}},{"name":"Butaritari","state_code":"G","latitude":"3.17205000","longitude":"172.79675000","population":3280,"timezone":"Pacific/Enderbury","type":"city","translations":{"es":"Butaritari","en":"Butaritari"}},{"name":"Eita Village","state_code":"G","latitude":"1.36154000","longitude":"173.08113000","population":2299,"timezone":"Pacific/Tarawa","type":"city","translations":{"es":"Pueblo de Eita","en":"Eita Village"}},{"name":"Kuria","state_code":"G","latitude":"0.26522000","longitude":"173.38881000","population":1082,"timezone":"Pacific/Enderbury","type":"city","translations":{"es":"Kuria","en":"Kuria"}},{"name":"Maiana","state_code":"G","latitude":"0.91869000","longitude":"172.99759000","population":null,"timezone":"Pacific/Enderbury","type":"city","translations":{"es":"Maiana","en":"Maiana"}},{"name":"Makin","state_code":"G","latitude":"3.38816000","longitude":"172.99656000","population":1834,"timezone":"Pacific/Tarawa","type":"city","translations":{"es":"Haciendo","en":"Makin"}},{"name":"Marakei","state_code":"G","latitude":"2.01077000","longitude":"173.27637000","population":null,"timezone":"Pacific/Enderbury","type":"city","translations":{"es":"Marakeí","en":"Marakei"}},{"name":"Nawerewere Village","state_code":"G","latitude":"1.36362000","longitude":"173.13935000","population":1780,"timezone":"Pacific/Tarawa","type":"city","translations":{"es":"Pueblo de Nawerewere","en":"Nawerewere Village"}},{"name":"Nikunau","state_code":"G","latitude":"-1.36567000","longitude":"176.46412000","population":933,"timezone":"Pacific/Tarawa","type":"city","translations":{"es":"Nikunau","en":"Nikunau"}},{"name":"Nonouti","state_code":"G","latitude":"-0.66667000","longitude":"174.35000000","population":625,"timezone":"Pacific/Tarawa","type":"city","translations":{"es":"No outi","en":"Nonouti"}},{"name":"Onotoa","state_code":"G","latitude":"-1.88587000","longitude":"175.56393000","population":null,"timezone":"Pacific/Enderbury","type":"city","translations":{"es":"Onotoa","en":"Onotoa"}},{"name":"Rawannawi Village","state_code":"G","latitude":"2.05379000","longitude":"173.26354000","population":1075,"timezone":"Pacific/Tarawa","type":"city","translations":{"es":"Pueblo de Rawannawi","en":"Rawannawi Village"}},{"name":"Tabiteuea","state_code":"G","latitude":"-1.42241000","longitude":"174.89805000","population":391,"timezone":"Pacific/Enderbury","type":"city","translations":{"es":"Tabiteuea","en":"Tabiteuea"}},{"name":"Tamana","state_code":"G","latitude":"-2.50113000","longitude":"175.98621000","population":559,"timezone":"Pacific/Tarawa","type":"city","translations":{"es":"Tamana","en":"Tamana"}},{"name":"Tarawa","state_code":"G","latitude":"1.32780000","longitude":"172.97696000","population":45989,"timezone":"Pacific/Tarawa","type":"capital","translations":{"es":"Tarawa","en":"Tarawa"}},{"name":"Teaoraereke Village","state_code":"G","latitude":"1.33309000","longitude":"173.01162000","population":3939,"timezone":"Pacific/Tarawa","type":"city","translations":{"es":"Pueblo de Teaoraereke","en":"Teaoraereke Village"}},{"name":"Temaiku Village","state_code":"G","latitude":"1.36292000","longitude":"173.16226000","population":2011,"timezone":"Pacific/Tarawa","type":"city","translations":{"es":"Pueblo de Temaiku","en":"Temaiku Village"}},{"name":"Banana Village","state_code":"L","latitude":"1.98329000","longitude":"-157.36526000","population":1170,"timezone":"Pacific/Kiritimati","type":"city","translations":{"es":"Pueblo bananero","en":"Banana Village"}},{"name":"Kiritimati","state_code":"L","latitude":"1.94000000","longitude":"-157.47500000","population":1829,"timezone":"Pacific/Kiritimati","type":"city","translations":{"es":"Kiritimati","en":"Kiritimati"}},{"name":"London Village","state_code":"L","latitude":"1.98487000","longitude":"-157.47502000","population":1829,"timezone":"Pacific/Kiritimati","type":"city","translations":{"es":"Pueblo de Londres","en":"London Village"}},{"name":"Napari Village","state_code":"L","latitude":"3.90806000","longitude":"-159.38832000","population":194,"timezone":"Pacific/Kiritimati","type":"adm3","translations":{"es":"Pueblo de Napari","en":"Napari Village"}},{"name":"Tabuaeran","state_code":"L","latitude":"3.86667000","longitude":"-159.33333000","population":null,"timezone":"Pacific/Kiritimati","type":"adm3","translations":{"es":"Tabuaeran","en":"Tabuaeran"}},{"name":"Tabwakea Village","state_code":"L","latitude":"2.01643000","longitude":"-157.48773000","population":1881,"timezone":"Pacific/Kiritimati","type":"city","translations":{"es":"Pueblo de Tabwakea","en":"Tabwakea Village"}},{"name":"Teraina","state_code":"L","latitude":"4.68764000","longitude":"-160.38803000","population":null,"timezone":"Pacific/Kiritimati","type":"city","translations":{"es":"Teraina","en":"Teraina"}},{"name":"Kanton","state_code":"P","latitude":"-2.81000000","longitude":"-171.67800000","population":null,"timezone":"Pacific/Enderbury","type":"city","translations":{"es":"Cantón","en":"Kanton"}}]