[{"name":"Changgang-gun","state_code":"04","latitude":"41.06333000","longitude":"126.72556000","population":null,"timezone":"Asia/Pyongyang","type":"city","translations":{"es":"Changgang-gun","en":"Changgang-gun"}},{"name":"Chasŏng","state_code":"04","latitude":"41.46083000","longitude":"126.64139000","population":12736,"timezone":"Asia/Pyongyang","type":"city","translations":{"es":"Chasong","en":"Chasŏng"}},{"name":"Kanggye","state_code":"04","latitude":"40.96946000","longitude":"126.58523000","population":251971,"timezone":"Asia/Pyongyang","type":"adm1","translations":{"es":"Kanggye","en":"Kanggye"}},{"name":"Manp’o","state_code":"04","latitude":"41.15472000","longitude":"126.28944000","population":116760,"timezone":"Asia/Pyongyang","type":"city","translations":{"es":"Manp'o","en":"Manp’o"}},{"name":"Anbyŏn-ŭp","state_code":"07","latitude":"39.04250000","longitude":"127.52389000","population":31845,"timezone":"Asia/Pyongyang","type":"city","translations":{"es":"Anbyŏn-ŭp","en":"Anbyŏn-ŭp"}},{"name":"Hoeyang","state_code":"07","latitude":"38.71028000","longitude":"127.59833000","population":21111,"timezone":"Asia/Pyongyang","type":"city","translations":{"es":"Hoeyang","en":"Hoeyang"}},{"name":"Kosan","state_code":"07","latitude":"38.85583000","longitude":"127.41806000","population":24822,"timezone":"Asia/Pyongyang","type":"city","translations":{"es":"Kosan","en":"Kosan"}},{"name":"T’ongch’ŏn-ŭp","state_code":"07","latitude":"38.95389000","longitude":"127.89167000","population":20575,"timezone":"Asia/Pyongyang","type":"city","translations":{"es":"T’ongch’ŏn-ŭp","en":"T’ongch’ŏn-ŭp"}},{"name":"Wŏnsan","state_code":"07","latitude":"39.15278000","longitude":"127.44361000","population":363127,"timezone":"Asia/Pyongyang","type":"adm1","translations":{"es":"Wonsan","en":"Wŏnsan"}},{"name":"Aoji","state_code":"09","latitude":"42.52448000","longitude":"130.39718000","population":34248,"timezone":"Asia/Pyongyang","type":"city","translations":{"es":"Aoji","en":"Aoji"}},{"name":"Chongjin","state_code":"09","latitude":"41.79556000","longitude":"129.77583000","population":327000,"timezone":"Asia/Pyongyang","type":"adm1","translations":{"es":"Chongjin","en":"Chongjin"}},{"name":"Hau-ri","state_code":"09","latitude":"41.20056000","longitude":"129.47028000","population":13581,"timezone":"Asia/Pyongyang","type":"locality","translations":{"es":"Hau-ri","en":"Hau-ri"}},{"name":"Hoemul-li","state_code":"09","latitude":"41.43389000","longitude":"129.67000000","population":11681,"timezone":"Asia/Pyongyang","type":"locality","translations":{"es":"Hoemul-li","en":"Hoemul-li"}},{"name":"Hoeryŏng","state_code":"09","latitude":"42.44113000","longitude":"129.74601000","population":43831,"timezone":"Asia/Pyongyang","type":"adm2","translations":{"es":"Hoeryong","en":"Hoeryŏng"}},{"name":"Kilju","state_code":"09","latitude":"40.96417000","longitude":"129.32778000","population":63652,"timezone":"Asia/Pyongyang","type":"city","translations":{"es":"Kilju","en":"Kilju"}},{"name":"Kimch’aek-si","state_code":"09","latitude":"40.66889000","longitude":"129.18972000","population":null,"timezone":"Asia/Pyongyang","type":"city","translations":{"es":"Kimch’aek-si","en":"Kimch’aek-si"}},{"name":"Komusan Il-tong","state_code":"09","latitude":"42.10914000","longitude":"129.69997000","population":12242,"timezone":"Asia/Pyongyang","type":"city","translations":{"es":"Komusan Il-tong","en":"Komusan Il-tong"}},{"name":"Kyŏngsŏng","state_code":"09","latitude":"41.58778000","longitude":"129.60611000","population":35604,"timezone":"Asia/Pyongyang","type":"city","translations":{"es":"Kyongsong","en":"Kyŏngsŏng"}},{"name":"Kyŏngwŏn","state_code":"09","latitude":"42.81361000","longitude":"130.15278000","population":107327,"timezone":"Asia/Pyongyang","type":"city","translations":{"es":"Kyongwon","en":"Kyŏngwŏn"}},{"name":"Musan-ŭp","state_code":"09","latitude":"42.22609000","longitude":"129.20776000","population":21739,"timezone":"Asia/Pyongyang","type":"city","translations":{"es":"Musan-up","en":"Musan-ŭp"}},{"name":"Namyang-dong","state_code":"09","latitude":"42.95000000","longitude":"129.86667000","population":null,"timezone":"Asia/Pyongyang","type":"city","translations":{"es":"Namyang-dong","en":"Namyang-dong"}},{"name":"Nanam","state_code":"09","latitude":"41.71361000","longitude":"129.68444000","population":34055,"timezone":"Asia/Pyongyang","type":"adm3","translations":{"es":"Nanam","en":"Nanam"}},{"name":"Onsŏng","state_code":"09","latitude":"42.95722000","longitude":"129.99333000","population":19806,"timezone":"Asia/Pyongyang","type":"city","translations":{"es":"Onsong","en":"Onsŏng"}},{"name":"Puryŏng","state_code":"09","latitude":"42.06056000","longitude":"129.71167000","population":48958,"timezone":"Asia/Pyongyang","type":"city","translations":{"es":"Puryong","en":"Puryŏng"}},{"name":"Sŭngam-nodongjagu","state_code":"09","latitude":"41.66972000","longitude":"129.66889000","population":11406,"timezone":"Asia/Pyongyang","type":"city","translations":{"es":"Sŭngam-nodongjagu","en":"Sŭngam-nodongjagu"}},{"name":"Anak","state_code":"06","latitude":"38.51083000","longitude":"125.49417000","population":19995,"timezone":"Asia/Pyongyang","type":"city","translations":{"es":"Anak","en":"Anak"}},{"name":"Hŭkkyo-ri","state_code":"06","latitude":"38.79861000","longitude":"125.79194000","population":25437,"timezone":"Asia/Pyongyang","type":"city","translations":{"es":"Hukkyo-ri","en":"Hŭkkyo-ri"}},{"name":"Hwangju-ŭp","state_code":"06","latitude":"38.67028000","longitude":"125.77611000","population":35641,"timezone":"Asia/Pyongyang","type":"city","translations":{"es":"Hwangju-up","en":"Hwangju-ŭp"}},{"name":"Koksan","state_code":"06","latitude":"38.78194000","longitude":"126.66639000","population":12923,"timezone":"Asia/Pyongyang","type":"city","translations":{"es":"Koksan","en":"Koksan"}},{"name":"Sariwŏn","state_code":"06","latitude":"38.50722000","longitude":"125.75583000","population":307764,"timezone":"Asia/Pyongyang","type":"city","translations":{"es":"Sariwon","en":"Sariwŏn"}},{"name":"Sinmak","state_code":"06","latitude":"38.41667000","longitude":"126.23333000","population":18669,"timezone":"Asia/Pyongyang","type":"city","translations":{"es":"Sinmak","en":"Sinmak"}},{"name":"Songnim","state_code":"06","latitude":"38.75417000","longitude":"125.64500000","population":null,"timezone":"Asia/Pyongyang","type":"city","translations":{"es":"Songnim","en":"Songnim"}},{"name":"Chŏngju","state_code":"03","latitude":"39.69333000","longitude":"125.21028000","population":29065,"timezone":"Asia/Pyongyang","type":"city","translations":{"es":"Chongju","en":"Chŏngju"}},{"name":"Chŏngju-gun","state_code":"03","latitude":"39.70944000","longitude":"125.25278000","population":null,"timezone":"Asia/Pyongyang","type":"city","translations":{"es":"Chongju-gun","en":"Chŏngju-gun"}},{"name":"Kujang-ŭp","state_code":"03","latitude":"39.86722000","longitude":"126.03028000","population":19522,"timezone":"Asia/Pyongyang","type":"city","translations":{"es":"Kujang-up","en":"Kujang-ŭp"}},{"name":"Kusŏng","state_code":"03","latitude":"39.98111000","longitude":"125.24472000","population":30902,"timezone":"Asia/Pyongyang","type":"city","translations":{"es":"Kusong","en":"Kusŏng"}},{"name":"Kwaksan","state_code":"03","latitude":"39.68750000","longitude":"125.08278000","population":10478,"timezone":"Asia/Pyongyang","type":"city","translations":{"es":"Kwaksan","en":"Kwaksan"}},{"name":"Panghyŏn-dong","state_code":"03","latitude":"39.88722000","longitude":"125.24139000","population":11026,"timezone":"Asia/Pyongyang","type":"city","translations":{"es":"Panghyŏn-dong","en":"Panghyŏn-dong"}},{"name":"Pukchil-lodongjagu","state_code":"03","latitude":"40.20194000","longitude":"125.74833000","population":14129,"timezone":"Asia/Pyongyang","type":"city","translations":{"es":"Pukchil-lodongjagu","en":"Pukchil-lodongjagu"}},{"name":"Sakchu-ŭp","state_code":"03","latitude":"40.38944000","longitude":"125.04667000","population":18001,"timezone":"Asia/Pyongyang","type":"city","translations":{"es":"Sakchu-up","en":"Sakchu-ŭp"}},{"name":"Sinŭiju","state_code":"03","latitude":"40.10056000","longitude":"124.39806000","population":359341,"timezone":"Asia/Pyongyang","type":"adm1","translations":{"es":"Sinŭiju","en":"Sinŭiju"}},{"name":"Ŭiju","state_code":"03","latitude":"40.19944000","longitude":"124.53167000","population":50081,"timezone":"Asia/Pyongyang","type":"city","translations":{"es":"Ŭiju","en":"Ŭiju"}},{"name":"Yŏmju-ŭp","state_code":"03","latitude":"39.89333000","longitude":"124.59806000","population":9437,"timezone":"Asia/Pyongyang","type":"city","translations":{"es":"Yŏmju-ŭp","en":"Yŏmju-ŭp"}},{"name":"Yŏngbyŏn","state_code":"03","latitude":"39.81333000","longitude":"125.80417000","population":9584,"timezone":"Asia/Pyongyang","type":"city","translations":{"es":"Yongbyon","en":"Yŏngbyŏn"}},{"name":"Chunghwa","state_code":"01","latitude":"38.86389000","longitude":"125.80000000","population":19346,"timezone":"Asia/Pyongyang","type":"city","translations":{"es":"Chunghwa","en":"Chunghwa"}},{"name":"Kangdong-ŭp","state_code":"01","latitude":"39.14250000","longitude":"126.09611000","population":28922,"timezone":"Asia/Pyongyang","type":"city","translations":{"es":"Kangdong-up","en":"Kangdong-ŭp"}},{"name":"Pyongyang","state_code":"01","latitude":"39.03385000","longitude":"125.75432000","population":2863000,"timezone":"Asia/Pyongyang","type":"capital","translations":{"es":"Pionyang","en":"Pyongyang"}},{"name":"Sunan","state_code":"01","latitude":"39.19833000","longitude":"125.69000000","population":null,"timezone":"Asia/Pyongyang","type":"city","translations":{"es":"Sunan","en":"Sunan"}},{"name":"Sŭngho 1-tong","state_code":"01","latitude":"38.99139000","longitude":"125.97778000","population":39841,"timezone":"Asia/Pyongyang","type":"city","translations":{"es":"Sŭngho 1-tong","en":"Sŭngho 1-tong"}},{"name":"Sŏnbong","state_code":"13","latitude":"42.35118000","longitude":"130.38307000","population":27331,"timezone":"Asia/Pyongyang","type":"adm2","translations":{"es":"Sonbong","en":"Sŏnbong"}},{"name":"Ungsang-nodongjagu","state_code":"13","latitude":"42.35778000","longitude":"130.46222000","population":8410,"timezone":"Asia/Pyongyang","type":"locality","translations":{"es":"Ungsang-nodongjagu","en":"Ungsang-nodongjagu"}},{"name":"Hyesan","state_code":"10","latitude":"41.40167000","longitude":"128.17778000","population":192680,"timezone":"Asia/Pyongyang","type":"adm1","translations":{"es":"Hyesan","en":"Hyesan"}},{"name":"Hyesan-dong","state_code":"10","latitude":"41.39756000","longitude":"128.17873000","population":192680,"timezone":"Asia/Pyongyang","type":"adm1","translations":{"es":"Hyesan-dong","en":"Hyesan-dong"}},{"name":"Kapsan-ŭp","state_code":"10","latitude":"41.09028000","longitude":"128.29333000","population":20406,"timezone":"Asia/Pyongyang","type":"city","translations":{"es":"Kapsan-ŭp","en":"Kapsan-ŭp"}},{"name":"Sŭngjibaegam","state_code":"10","latitude":"41.24278000","longitude":"128.79889000","population":11786,"timezone":"Asia/Pyongyang","type":"city","translations":{"es":"Sŭngjibaegam","en":"Sŭngjibaegam"}},{"name":"Hamhŭng","state_code":"08","latitude":"39.91833000","longitude":"127.53639000","population":559056,"timezone":"Asia/Pyongyang","type":"adm1","translations":{"es":"Hamhung","en":"Hamhŭng"}},{"name":"Hongwŏn","state_code":"08","latitude":"40.02528000","longitude":"127.95583000","population":70923,"timezone":"Asia/Pyongyang","type":"city","translations":{"es":"Hongwon","en":"Hongwŏn"}},{"name":"Hŭngnam","state_code":"08","latitude":"39.83167000","longitude":"127.61861000","population":99994,"timezone":"Asia/Pyongyang","type":"city","translations":{"es":"Hŭngnam","en":"Hŭngnam"}},{"name":"Iwŏn-ŭp","state_code":"08","latitude":"40.32306000","longitude":"128.65528000","population":26364,"timezone":"Asia/Pyongyang","type":"city","translations":{"es":"Iwŏn-ŭp","en":"Iwŏn-ŭp"}},{"name":"Kowŏn-ŭp","state_code":"08","latitude":"39.43806000","longitude":"127.24306000","population":21490,"timezone":"Asia/Pyongyang","type":"city","translations":{"es":"Kowŏn-ŭp","en":"Kowŏn-ŭp"}},{"name":"Samho-rodongjagu","state_code":"08","latitude":"39.94750000","longitude":"127.87111000","population":19025,"timezone":"Asia/Pyongyang","type":"city","translations":{"es":"Samho-rodongjagu","en":"Samho-rodongjagu"}},{"name":"Sinsang-ni","state_code":"08","latitude":"39.65028000","longitude":"127.40583000","population":14960,"timezone":"Asia/Pyongyang","type":"city","translations":{"es":"Sinsang-ni","en":"Sinsang-ni"}},{"name":"Yŏnggwang-ŭp","state_code":"08","latitude":"40.01833000","longitude":"127.45472000","population":21882,"timezone":"Asia/Pyongyang","type":"city","translations":{"es":"Yŏnggwang-ŭp","en":"Yŏnggwang-ŭp"}},{"name":"Yuktae-dong","state_code":"08","latitude":"40.02472000","longitude":"128.15972000","population":76427,"timezone":"Asia/Pyongyang","type":"city","translations":{"es":"Yuktae-dong","en":"Yuktae-dong"}},{"name":"Ayang-ni","state_code":"05","latitude":"38.24306000","longitude":"125.78000000","population":null,"timezone":"Asia/Pyongyang","type":"city","translations":{"es":"Ayang-ni","en":"Ayang-ni"}},{"name":"Chaeryŏng-ŭp","state_code":"05","latitude":"38.39917000","longitude":"125.61556000","population":53330,"timezone":"Asia/Pyongyang","type":"adm2","translations":{"es":"Chaeryong-up","en":"Chaeryŏng-ŭp"}},{"name":"Changyŏn","state_code":"05","latitude":"38.25083000","longitude":"125.09611000","population":39368,"timezone":"Asia/Pyongyang","type":"city","translations":{"es":"Changyon","en":"Changyŏn"}},{"name":"Haeju","state_code":"05","latitude":"38.04056000","longitude":"125.71472000","population":241599,"timezone":"Asia/Pyongyang","type":"adm1","translations":{"es":"Haeju","en":"Haeju"}},{"name":"Kaesŏng","state_code":"05","latitude":"37.97083000","longitude":"126.55444000","population":308440,"timezone":"Asia/Pyongyang","type":"adm1","translations":{"es":"Kaesong","en":"Kaesŏng"}},{"name":"Ongjin","state_code":"05","latitude":"37.93472000","longitude":"125.36194000","population":64247,"timezone":"Asia/Pyongyang","type":"city","translations":{"es":"Ong Jin","en":"Ongjin"}},{"name":"Pyŏksŏng-ŭp","state_code":"05","latitude":"38.04750000","longitude":"125.55667000","population":12937,"timezone":"Asia/Pyongyang","type":"city","translations":{"es":"Pyŏksŏng-ŭp","en":"Pyŏksŏng-ŭp"}},{"name":"Yŏnan-ŭp","state_code":"05","latitude":"37.90889000","longitude":"126.16111000","population":22665,"timezone":"Asia/Pyongyang","type":"city","translations":{"es":"Yŏnan-ŭp","en":"Yŏnan-ŭp"}},{"name":"Anju","state_code":"02","latitude":"39.61778000","longitude":"125.66472000","population":50196,"timezone":"Asia/Pyongyang","type":"city","translations":{"es":"Anju","en":"Anju"}},{"name":"Namp’o","state_code":"02","latitude":"38.73750000","longitude":"125.40778000","population":455000,"timezone":"Asia/Pyongyang","type":"adm1","translations":{"es":"Namp'o","en":"Namp’o"}},{"name":"P’yŏngsŏng","state_code":"02","latitude":"39.24639000","longitude":"125.87194000","population":100000,"timezone":"Asia/Pyongyang","type":"adm1","translations":{"es":"P’yongsong","en":"P’yŏngsŏng"}},{"name":"Sangsŏng-ni","state_code":"02","latitude":"39.16944000","longitude":"126.88556000","population":9888,"timezone":"Asia/Pyongyang","type":"city","translations":{"es":"Sangsŏng-ni","en":"Sangsŏng-ni"}},{"name":"Sil-li","state_code":"02","latitude":"39.49472000","longitude":"125.47361000","population":19463,"timezone":"Asia/Pyongyang","type":"city","translations":{"es":"Sil-li","en":"Sil-li"}},{"name":"Sinanju","state_code":"02","latitude":"39.59806000","longitude":"125.60972000","population":15693,"timezone":"Asia/Pyongyang","type":"city","translations":{"es":"Sinanju","en":"Sinanju"}},{"name":"Sunch’ŏn","state_code":"02","latitude":"39.43167000","longitude":"125.93278000","population":437000,"timezone":"Asia/Pyongyang","type":"adm3","translations":{"es":"Sunch'ŏn","en":"Sunch’ŏn"}},{"name":"Yonggang-ŭp","state_code":"02","latitude":"38.85611000","longitude":"125.42444000","population":13440,"timezone":"Asia/Pyongyang","type":"city","translations":{"es":"Yonggang-ŭp","en":"Yonggang-ŭp"}}]