[{"name":"Buk-gu","state_code":"26","latitude":"35.19724000","longitude":"128.99134000","population":0,"timezone":"Asia/Seoul","type":"city","translations":{"es":"Buk-gu","en":"Buk-gu"}},{"name":"Busan","state_code":"26","latitude":"35.10168000","longitude":"129.03004000","population":3453198,"timezone":"Asia/Seoul","type":"adm1","translations":{"es":"Busán","en":"Busan"}},{"name":"Dongnae-gu","state_code":"26","latitude":"35.20447000","longitude":"129.07800000","population":null,"timezone":"Asia/Seoul","type":"adm2","translations":{"es":"Dongnae-gu","en":"Dongnae-gu"}},{"name":"Gangseo-gu","state_code":"26","latitude":"35.15930000","longitude":"128.93300000","population":null,"timezone":"Asia/Seoul","type":"city","translations":{"es":"Gangseo-gu","en":"Gangseo-gu"}},{"name":"Geumjeong-gu","state_code":"26","latitude":"35.25863000","longitude":"129.09010000","population":null,"timezone":"Asia/Seoul","type":"adm2","translations":{"es":"Geumjeong-gu","en":"Geumjeong-gu"}},{"name":"Gijang","state_code":"26","latitude":"35.24417000","longitude":"129.21389000","population":176388,"timezone":"Asia/Seoul","type":"adm3","translations":{"es":"Gijang","en":"Gijang"}},{"name":"Gijang-gun","state_code":"26","latitude":"35.29721000","longitude":"129.20076000","population":null,"timezone":"Asia/Seoul","type":"adm3","translations":{"es":"Gijang-gun","en":"Gijang-gun"}},{"name":"Haeundae-gu","state_code":"26","latitude":"35.16665000","longitude":"129.16792000","population":null,"timezone":"Asia/Seoul","type":"city","translations":{"es":"Haeundae-gu","en":"Haeundae-gu"}},{"name":"Jung-gu","state_code":"26","latitude":"35.10594000","longitude":"129.03331000","population":null,"timezone":"Asia/Seoul","type":"city","translations":{"es":"Jung-gu","en":"Jung-gu"}},{"name":"Nam-gu","state_code":"26","latitude":"35.13648000","longitude":"129.08266000","population":0,"timezone":"Asia/Seoul","type":"adm2","translations":{"es":"Nam-gu","en":"Nam-gu"}},{"name":"Saha-gu","state_code":"26","latitude":"35.08552000","longitude":"128.98725000","population":null,"timezone":"Asia/Seoul","type":"city","translations":{"es":"Saha-gu","en":"Saha-gu"}},{"name":"Sasang-gu","state_code":"26","latitude":"35.14479000","longitude":"128.97986000","population":null,"timezone":"Asia/Seoul","type":"city","translations":{"es":"Sasang-gu","en":"Sasang-gu"}},{"name":"Seo-gu","state_code":"26","latitude":"35.12529000","longitude":"129.01946000","population":null,"timezone":"Asia/Seoul","type":"adm1","translations":{"es":"Seo-gu","en":"Seo-gu"}},{"name":"Suyeong-gu","state_code":"26","latitude":"35.15627000","longitude":"129.11253000","population":null,"timezone":"Asia/Seoul","type":"city","translations":{"es":"Suyeong-gu","en":"Suyeong-gu"}},{"name":"Yeongdo-gu","state_code":"26","latitude":"35.07849000","longitude":"129.06483000","population":null,"timezone":"Asia/Seoul","type":"adm2","translations":{"es":"Yeongdo-gu","en":"Yeongdo-gu"}},{"name":"Daegu","state_code":"27","latitude":"35.87028000","longitude":"128.59111000","population":2376044,"timezone":"Asia/Seoul","type":"adm1","translations":{"es":"Daegu","en":"Daegu"}},{"name":"Dalseo-gu","state_code":"27","latitude":"35.82569000","longitude":"128.52403000","population":null,"timezone":"Asia/Seoul","type":"city","translations":{"es":"Dalseo-gu","en":"Dalseo-gu"}},{"name":"Dalseong-gun","state_code":"27","latitude":"35.77467000","longitude":"128.42955000","population":null,"timezone":"Asia/Seoul","type":"city","translations":{"es":"Dalseong-gun","en":"Dalseong-gun"}},{"name":"Dong-gu","state_code":"27","latitude":"35.88566000","longitude":"128.63296000","population":343398,"timezone":"Asia/Seoul","type":"city","translations":{"es":"Dong-gu","en":"Dong-gu"}},{"name":"Hwawŏn","state_code":"27","latitude":"35.80167000","longitude":"128.50083000","population":64718,"timezone":"Asia/Seoul","type":"city","translations":{"es":"Hwawon","en":"Hwawŏn"}},{"name":"Jung-gu","state_code":"27","latitude":"35.86678000","longitude":"128.59538000","population":null,"timezone":"Asia/Seoul","type":"adm1","translations":{"es":"Jung-gu","en":"Jung-gu"}},{"name":"Seo-gu","state_code":"27","latitude":"35.87465000","longitude":"128.55109000","population":null,"timezone":"Asia/Seoul","type":"city","translations":{"es":"Seo-gu","en":"Seo-gu"}},{"name":"Suseong-gu","state_code":"27","latitude":"35.85905000","longitude":"128.62625000","population":null,"timezone":"Asia/Seoul","type":"city","translations":{"es":"Suseong-gu","en":"Suseong-gu"}},{"name":"Daejeon","state_code":"30","latitude":"36.34913000","longitude":"127.38493000","population":1443106,"timezone":"Asia/Seoul","type":"adm1","translations":{"es":"Daejeon","en":"Daejeon"}},{"name":"Seo-gu","state_code":"30","latitude":"36.27211000","longitude":"127.33100000","population":null,"timezone":"Asia/Seoul","type":"adm2","translations":{"es":"Seo-gu","en":"Seo-gu"}},{"name":"Sintansin","state_code":"30","latitude":"36.45361000","longitude":"127.43111000","population":15000,"timezone":"Asia/Seoul","type":"city","translations":{"es":"Sintansín","en":"Sintansin"}},{"name":"Songgangdong","state_code":"30","latitude":"36.43387000","longitude":"127.37587000","population":10000,"timezone":"Asia/Seoul","type":"section","translations":{"es":"cancióngangdong","en":"Songgangdong"}},{"name":"Yuseong-gu","state_code":"30","latitude":"36.36685000","longitude":"127.32700000","population":null,"timezone":"Asia/Seoul","type":"adm2","translations":{"es":"Yuseong-gu","en":"Yuseong-gu"}},{"name":"Cheorwon-gun","state_code":"42","latitude":"38.24391000","longitude":"127.44522000","population":null,"timezone":"Asia/Seoul","type":"city","translations":{"es":"Cheorwon-gun","en":"Cheorwon-gun"}},{"name":"Chuncheon","state_code":"42","latitude":"37.87472000","longitude":"127.73417000","population":281596,"timezone":"Asia/Seoul","type":"adm1","translations":{"es":"Chuncheon","en":"Chuncheon"}},{"name":"Chuncheon-si","state_code":"42","latitude":"37.88048000","longitude":"127.72776000","population":null,"timezone":"Asia/Seoul","type":"adm3","translations":{"es":"Chuncheon-si","en":"Chuncheon-si"}},{"name":"Donghae-si","state_code":"42","latitude":"37.52345000","longitude":"129.11357000","population":null,"timezone":"Asia/Seoul","type":"city","translations":{"es":"Donghae-si","en":"Donghae-si"}},{"name":"Gangneung","state_code":"42","latitude":"37.75266000","longitude":"128.87239000","population":210456,"timezone":"Asia/Seoul","type":"adm3","translations":{"es":"Gangneung","en":"Gangneung"}},{"name":"Gangneung-si","state_code":"42","latitude":"37.75190000","longitude":"128.87825000","population":null,"timezone":"Asia/Seoul","type":"city","translations":{"es":"Gangneung-si","en":"Gangneung-si"}},{"name":"Goseong-gun","state_code":"42","latitude":"38.37945000","longitude":"128.46755000","population":62446,"timezone":"Asia/Seoul","type":"city","translations":{"es":"Goseong-gun","en":"Goseong-gun"}},{"name":"Hoengseong-gun","state_code":"42","latitude":"37.48817000","longitude":"127.98570000","population":null,"timezone":"Asia/Seoul","type":"city","translations":{"es":"Hoengseong-gun","en":"Hoengseong-gun"}},{"name":"Hongch’ŏn","state_code":"42","latitude":"37.69180000","longitude":"127.88570000","population":75251,"timezone":"Asia/Seoul","type":"city","translations":{"es":"Hongch'on","en":"Hongch’ŏn"}},{"name":"Hongcheon-gun","state_code":"42","latitude":"37.76058000","longitude":"128.02823000","population":null,"timezone":"Asia/Seoul","type":"adm3","translations":{"es":"Hongcheon-gun","en":"Hongcheon-gun"}},{"name":"Hwacheon","state_code":"42","latitude":"38.10705000","longitude":"127.70632000","population":23822,"timezone":"Asia/Seoul","type":"adm2","translations":{"es":"Hwacheon","en":"Hwacheon"}},{"name":"Hwacheon-gun","state_code":"42","latitude":"38.14212000","longitude":"127.67615000","population":null,"timezone":"Asia/Seoul","type":"city","translations":{"es":"Hwacheon-gun","en":"Hwacheon-gun"}},{"name":"Inje-gun","state_code":"42","latitude":"38.04416000","longitude":"128.27876000","population":null,"timezone":"Asia/Seoul","type":"city","translations":{"es":"Pistola de inyección","en":"Inje-gun"}},{"name":"Jeongseon-gun","state_code":"42","latitude":"37.38911000","longitude":"128.72995000","population":null,"timezone":"Asia/Seoul","type":"city","translations":{"es":"Municipio de Jeongseon","en":"Jeongseon-gun"}},{"name":"Kosong","state_code":"42","latitude":"38.37881000","longitude":"128.46760000","population":62446,"timezone":"Asia/Seoul","type":"city","translations":{"es":"Kosong","en":"Kosong"}},{"name":"Neietsu","state_code":"42","latitude":"37.18447000","longitude":"128.46821000","population":25413,"timezone":"Asia/Seoul","type":"city","translations":{"es":"Neietsu","en":"Neietsu"}},{"name":"Pyeongchang","state_code":"42","latitude":"37.37028000","longitude":"128.39306000","population":9940,"timezone":"Asia/Seoul","type":"city","translations":{"es":"Pyeongchang","en":"Pyeongchang"}},{"name":"Pyeongchang-gun","state_code":"42","latitude":"37.36820000","longitude":"128.39550000","population":null,"timezone":"Asia/Seoul","type":"city","translations":{"es":"Pyeongchang-gun","en":"Pyeongchang-gun"}},{"name":"Samcheok-si","state_code":"42","latitude":"37.45013000","longitude":"129.16626000","population":null,"timezone":"Asia/Seoul","type":"city","translations":{"es":"Samcheok-si","en":"Samcheok-si"}},{"name":"Santyoku","state_code":"42","latitude":"37.44056000","longitude":"129.17083000","population":42145,"timezone":"Asia/Seoul","type":"city","translations":{"es":"Santyoku","en":"Santyoku"}},{"name":"Sokcho","state_code":"42","latitude":"38.20701000","longitude":"128.59181000","population":79846,"timezone":"Asia/Seoul","type":"adm2","translations":{"es":"Sokcho","en":"Sokcho"}},{"name":"Sokcho-si","state_code":"42","latitude":"38.20725000","longitude":"128.59275000","population":null,"timezone":"Asia/Seoul","type":"city","translations":{"es":"Sokcho-si","en":"Sokcho-si"}},{"name":"T’aebaek","state_code":"42","latitude":"37.17590000","longitude":"128.98890000","population":48962,"timezone":"Asia/Seoul","type":"city","translations":{"es":"T'aebaek","en":"T’aebaek"}},{"name":"Taebaek-si","state_code":"42","latitude":"37.16520000","longitude":"128.98570000","population":null,"timezone":"Asia/Seoul","type":"city","translations":{"es":"Taebaek-si","en":"Taebaek-si"}},{"name":"Tonghae","state_code":"42","latitude":"37.54389000","longitude":"129.10694000","population":101128,"timezone":"Asia/Seoul","type":"city","translations":{"es":"Tonghae","en":"Tonghae"}},{"name":"Wŏnju","state_code":"42","latitude":"37.35139000","longitude":"127.94528000","population":330854,"timezone":"Asia/Seoul","type":"city","translations":{"es":"Wonju","en":"Wŏnju"}},{"name":"Wonju-si","state_code":"42","latitude":"37.32104000","longitude":"127.92132000","population":null,"timezone":"Asia/Seoul","type":"city","translations":{"es":"Wonju-si","en":"Wonju-si"}},{"name":"Yanggu","state_code":"42","latitude":"38.10583000","longitude":"127.98944000","population":24027,"timezone":"Asia/Seoul","type":"city","translations":{"es":"Yanggu","en":"Yanggu"}},{"name":"Yanggu-gun","state_code":"42","latitude":"38.10160000","longitude":"127.98555000","population":null,"timezone":"Asia/Seoul","type":"city","translations":{"es":"Yanggu-gun","en":"Yanggu-gun"}},{"name":"Yangyang-gun","state_code":"42","latitude":"38.06215000","longitude":"128.61471000","population":null,"timezone":"Asia/Seoul","type":"city","translations":{"es":"Yangyang-gun","en":"Yangyang-gun"}},{"name":"Gwangju","state_code":"29","latitude":"35.15472000","longitude":"126.91556000","population":1398538,"timezone":"Asia/Seoul","type":"adm1","translations":{"es":"Gwangju","en":"Gwangju"}},{"name":"Gwangsan-gu","state_code":"29","latitude":"35.16158000","longitude":"126.80810000","population":null,"timezone":"Asia/Seoul","type":"city","translations":{"es":"Gwangsan-gu","en":"Gwangsan-gu"}},{"name":"Masan","state_code":"29","latitude":"35.12725000","longitude":"126.83149000","population":434371,"timezone":"Asia/Seoul","type":"city","translations":{"es":"Masan","en":"Masan"}},{"name":"Ansan-si","state_code":"41","latitude":"37.32361000","longitude":"126.82194000","population":623256,"timezone":"Asia/Seoul","type":"city","translations":{"es":"Ansan-si","en":"Ansan-si"}},{"name":"Anseong","state_code":"41","latitude":"37.01083000","longitude":"127.27028000","population":69255,"timezone":"Asia/Seoul","type":"city","translations":{"es":"Anseong","en":"Anseong"}},{"name":"Anyang-si","state_code":"41","latitude":"37.39250000","longitude":"126.92694000","population":595644,"timezone":"Asia/Seoul","type":"city","translations":{"es":"Anyang-si","en":"Anyang-si"}},{"name":"Bucheon-si","state_code":"41","latitude":"37.50440000","longitude":"126.76625000","population":null,"timezone":"Asia/Seoul","type":"city","translations":{"es":"Bucheon-si","en":"Bucheon-si"}},{"name":"Dongducheon","state_code":"41","latitude":"37.91889000","longitude":"127.06897000","population":null,"timezone":"Asia/Seoul","type":"city","translations":{"es":"Dongducheon","en":"Dongducheon"}},{"name":"Gapyeong","state_code":"41","latitude":"37.83101000","longitude":"127.51059000","population":61976,"timezone":"Asia/Seoul","type":"city","translations":{"es":"Gapyeong","en":"Gapyeong"}},{"name":"Gapyeong-gun","state_code":"41","latitude":"37.83080000","longitude":"127.51522000","population":null,"timezone":"Asia/Seoul","type":"city","translations":{"es":"Gapyeong-gun","en":"Gapyeong-gun"}},{"name":"Gimpo-si","state_code":"41","latitude":"37.63637000","longitude":"126.69270000","population":null,"timezone":"Asia/Seoul","type":"city","translations":{"es":"Gimpo-si","en":"Gimpo-si"}},{"name":"Goyang-si","state_code":"41","latitude":"37.65639000","longitude":"126.83500000","population":1061752,"timezone":"Asia/Seoul","type":"adm2","translations":{"es":"Goyang-si","en":"Goyang-si"}},{"name":"Gunpo-si","state_code":"41","latitude":"37.34261000","longitude":"126.92149000","population":null,"timezone":"Asia/Seoul","type":"city","translations":{"es":"Gunpo-si","en":"Gunpo-si"}},{"name":"Guri-si","state_code":"41","latitude":"37.59860000","longitude":"127.13940000","population":195236,"timezone":"Asia/Seoul","type":"city","translations":{"es":"Guri-si","en":"Guri-si"}},{"name":"Gwacheon-si","state_code":"41","latitude":"37.43407000","longitude":"126.99989000","population":null,"timezone":"Asia/Seoul","type":"city","translations":{"es":"Gwacheon-si","en":"Gwacheon-si"}},{"name":"Gwangju","state_code":"41","latitude":"37.41000000","longitude":"127.25722000","population":81780,"timezone":"Asia/Seoul","type":"city","translations":{"es":"Gwangju","en":"Gwangju"}},{"name":"Gwangju-si","state_code":"41","latitude":"37.40329000","longitude":"127.29855000","population":null,"timezone":"Asia/Seoul","type":"city","translations":{"es":"Gwangju","en":"Gwangju-si"}},{"name":"Gwangmyeong-si","state_code":"41","latitude":"37.44435000","longitude":"126.86499000","population":null,"timezone":"Asia/Seoul","type":"city","translations":{"es":"Gwangmyeong-si","en":"Gwangmyeong-si"}},{"name":"Hanam","state_code":"41","latitude":"37.54000000","longitude":"127.20556000","population":254415,"timezone":"Asia/Seoul","type":"city","translations":{"es":"Hanam","en":"Hanam"}},{"name":"Hanam-si","state_code":"41","latitude":"37.53895000","longitude":"127.21250000","population":null,"timezone":"Asia/Seoul","type":"city","translations":{"es":"Hanam-si","en":"Hanam-si"}},{"name":"Hwado","state_code":"41","latitude":"37.65250000","longitude":"127.30750000","population":106358,"timezone":"Asia/Seoul","type":"city","translations":{"es":"Hwado","en":"Hwado"}},{"name":"Hwaseong-si","state_code":"41","latitude":"37.20682000","longitude":"126.81690000","population":640890,"timezone":"Asia/Seoul","type":"city","translations":{"es":"Hwaseong-si","en":"Hwaseong-si"}},{"name":"Icheon-si","state_code":"41","latitude":"37.27642000","longitude":"127.43692000","population":196230,"timezone":"Asia/Seoul","type":"city","translations":{"es":"Icheon-si","en":"Icheon-si"}},{"name":"Kwangmyŏng","state_code":"41","latitude":"37.47722000","longitude":"126.86639000","population":357545,"timezone":"Asia/Seoul","type":"city","translations":{"es":"Kwangmyong","en":"Kwangmyŏng"}},{"name":"Munsan","state_code":"41","latitude":"37.85944000","longitude":"126.78500000","population":43208,"timezone":"Asia/Seoul","type":"city","translations":{"es":"Munsan","en":"Munsan"}},{"name":"Namyangju","state_code":"41","latitude":"37.63667000","longitude":"127.21417000","population":90798,"timezone":"Asia/Seoul","type":"city","translations":{"es":"Namyangju","en":"Namyangju"}},{"name":"Namyangju-si","state_code":"41","latitude":"37.65217000","longitude":"127.24010000","population":null,"timezone":"Asia/Seoul","type":"city","translations":{"es":"Namyangju-si","en":"Namyangju-si"}},{"name":"Osan","state_code":"41","latitude":"37.15222000","longitude":"127.07056000","population":229792,"timezone":"Asia/Seoul","type":"city","translations":{"es":"Osan","en":"Osan"}},{"name":"Osan-si","state_code":"41","latitude":"37.16230000","longitude":"127.05246000","population":null,"timezone":"Asia/Seoul","type":"city","translations":{"es":"Osan-si","en":"Osan-si"}},{"name":"Paju-si","state_code":"41","latitude":"37.75952000","longitude":"126.77772000","population":null,"timezone":"Asia/Seoul","type":"city","translations":{"es":"Paju-si","en":"Paju-si"}},{"name":"Pocheon-si","state_code":"41","latitude":"37.89370000","longitude":"127.20028000","population":null,"timezone":"Asia/Seoul","type":"city","translations":{"es":"Pocheon-si","en":"Pocheon-si"}},{"name":"Pubal","state_code":"41","latitude":"37.29167000","longitude":"127.50778000","population":63026,"timezone":"Asia/Seoul","type":"city","translations":{"es":"Pubal","en":"Pubal"}},{"name":"Pyeongtaek","state_code":"41","latitude":"37.01372000","longitude":"126.98748000","population":590185,"timezone":"Asia/Seoul","type":"city","translations":{"es":"Pyeongtaek","en":"Pyeongtaek"}},{"name":"Seongnam-si","state_code":"41","latitude":"37.41875000","longitude":"127.12877000","population":914832,"timezone":"Asia/Seoul","type":"city","translations":{"es":"Seongnam-si","en":"Seongnam-si"}},{"name":"Siheung","state_code":"41","latitude":"37.39067000","longitude":"126.78880000","population":519594,"timezone":"Asia/Seoul","type":"city","translations":{"es":"Siheung","en":"Siheung"}},{"name":"Suwon","state_code":"41","latitude":"37.29111000","longitude":"127.00889000","population":1234300,"timezone":"Asia/Seoul","type":"adm1","translations":{"es":"Suwon","en":"Suwon"}},{"name":"Uijeongbu-si","state_code":"41","latitude":"37.73865000","longitude":"127.04770000","population":479141,"timezone":"Asia/Seoul","type":"city","translations":{"es":"Uijeongbu-si","en":"Uijeongbu-si"}},{"name":"Uiwang-si","state_code":"41","latitude":"37.34500000","longitude":"126.97575000","population":null,"timezone":"Asia/Seoul","type":"city","translations":{"es":"Uiwang-si","en":"Uiwang-si"}},{"name":"Wabu","state_code":"41","latitude":"37.58972000","longitude":"127.22028000","population":96775,"timezone":"Asia/Seoul","type":"city","translations":{"es":"Wabu","en":"Wabu"}},{"name":"Yangju","state_code":"41","latitude":"37.83311000","longitude":"127.06169000","population":179923,"timezone":"Asia/Seoul","type":"city","translations":{"es":"Yangju","en":"Yangju"}},{"name":"Yangju-si","state_code":"41","latitude":"37.81732000","longitude":"127.04600000","population":479141,"timezone":"Asia/Seoul","type":"city","translations":{"es":"Yangju-si","en":"Yangju-si"}},{"name":"Yangp'yŏng","state_code":"41","latitude":"37.48972000","longitude":"127.49056000","population":83367,"timezone":"Asia/Seoul","type":"city","translations":{"es":"Yangp'yŏng","en":"Yangp'yŏng"}},{"name":"Yangpyeong-gun","state_code":"41","latitude":"37.48880000","longitude":"127.49222000","population":83367,"timezone":"Asia/Seoul","type":"city","translations":{"es":"Yangpyeong-gun","en":"Yangpyeong-gun"}},{"name":"Yeoju-si","state_code":"41","latitude":"37.29562000","longitude":"127.63668000","population":null,"timezone":"Asia/Seoul","type":"city","translations":{"es":"Yeoju-si","en":"Yeoju-si"}},{"name":"Yeoncheon-gun","state_code":"41","latitude":"38.09404000","longitude":"127.07577000","population":0,"timezone":"Asia/Seoul","type":"adm2","translations":{"es":"Yeoncheon-gun","en":"Yeoncheon-gun"}},{"name":"Yongin-si","state_code":"41","latitude":"37.23825000","longitude":"127.17795000","population":null,"timezone":"Asia/Seoul","type":"city","translations":{"es":"Yongin-si","en":"Yongin-si"}},{"name":"Bupyeong-gu","state_code":"28","latitude":"37.49720000","longitude":"126.71107000","population":null,"timezone":"Asia/Seoul","type":"adm2","translations":{"es":"Bupyeong-gu","en":"Bupyeong-gu"}},{"name":"Incheon","state_code":"28","latitude":"37.45646000","longitude":"126.70515000","population":2993492,"timezone":"Asia/Seoul","type":"adm1","translations":{"es":"Incheon","en":"Incheon"}},{"name":"Michuhol","state_code":"28","latitude":"37.46362000","longitude":"126.65000000","population":410913,"timezone":"Asia/Seoul","type":"city","translations":{"es":"Michuhol","en":"Michuhol"}},{"name":"Yeonsu-gu","state_code":"28","latitude":"37.41911000","longitude":"126.66489000","population":null,"timezone":"Asia/Seoul","type":"city","translations":{"es":"Yeonsu-gu","en":"Yeonsu-gu"}},{"name":"Gaigeturi","state_code":"49","latitude":"33.46444000","longitude":"126.31833000","population":23717,"timezone":"Asia/Seoul","type":"city","translations":{"es":"Gaigeturi","en":"Gaigeturi"}},{"name":"Jeju City","state_code":"49","latitude":"33.50972000","longitude":"126.52194000","population":488844,"timezone":"Asia/Seoul","type":"adm1","translations":{"es":"Ciudad de Jeju","en":"Jeju City"}},{"name":"Jeju-si","state_code":"49","latitude":"33.45578000","longitude":"126.53928000","population":null,"timezone":"Asia/Seoul","type":"city","translations":{"es":"Jeju-si","en":"Jeju-si"}},{"name":"Seogwipo","state_code":"49","latitude":"33.25333000","longitude":"126.56181000","population":183858,"timezone":"Asia/Seoul","type":"city","translations":{"es":"Seogwipo","en":"Seogwipo"}},{"name":"Boeun-gun","state_code":"43","latitude":"36.49489000","longitude":"127.72865000","population":null,"timezone":"Asia/Seoul","type":"city","translations":{"es":"Boeun-gun","en":"Boeun-gun"}},{"name":"Cheongju-si","state_code":"43","latitude":"36.63722000","longitude":"127.48972000","population":853938,"timezone":"Asia/Seoul","type":"adm1","translations":{"es":"Cheongju-si","en":"Cheongju-si"}},{"name":"Chinch'ŏn","state_code":"43","latitude":"36.85667000","longitude":"127.44333000","population":60964,"timezone":"Asia/Seoul","type":"city","translations":{"es":"Chinch'on","en":"Chinch'ŏn"}},{"name":"Chungju-si","state_code":"43","latitude":"37.01791000","longitude":"127.87713000","population":null,"timezone":"Asia/Seoul","type":"city","translations":{"es":"Chungju-si","en":"Chungju-si"}},{"name":"Danyang-gun","state_code":"43","latitude":"36.98615000","longitude":"128.36945000","population":null,"timezone":"Asia/Seoul","type":"city","translations":{"es":"Cañón Danyang","en":"Danyang-gun"}},{"name":"Eumseong-gun","state_code":"43","latitude":"36.92602000","longitude":"127.68070000","population":null,"timezone":"Asia/Seoul","type":"city","translations":{"es":"Eumseong-gun","en":"Eumseong-gun"}},{"name":"Goesan-gun","state_code":"43","latitude":"36.77179000","longitude":"127.81426000","population":null,"timezone":"Asia/Seoul","type":"city","translations":{"es":"Cañón de Goesan","en":"Goesan-gun"}},{"name":"Jecheon-si","state_code":"43","latitude":"37.06206000","longitude":"128.14065000","population":null,"timezone":"Asia/Seoul","type":"city","translations":{"es":"Jecheon-si","en":"Jecheon-si"}},{"name":"Jeungpyeong-gun","state_code":"43","latitude":"36.78377000","longitude":"127.59858000","population":null,"timezone":"Asia/Seoul","type":"city","translations":{"es":"Jeungpyeong-gun","en":"Jeungpyeong-gun"}},{"name":"Jincheon-gun","state_code":"43","latitude":"36.88281000","longitude":"127.42768000","population":null,"timezone":"Asia/Seoul","type":"city","translations":{"es":"Jincheon-gun","en":"Jincheon-gun"}},{"name":"Koesan","state_code":"43","latitude":"36.81083000","longitude":"127.79472000","population":44461,"timezone":"Asia/Seoul","type":"city","translations":{"es":"Koesan","en":"Koesan"}},{"name":"Okcheon","state_code":"43","latitude":"36.30120000","longitude":"127.56800000","population":56634,"timezone":"Asia/Seoul","type":"city","translations":{"es":"Okcheon","en":"Okcheon"}},{"name":"Okcheon-gun","state_code":"43","latitude":"36.26642000","longitude":"127.58324000","population":null,"timezone":"Asia/Seoul","type":"city","translations":{"es":"Okcheon-gun","en":"Okcheon-gun"}},{"name":"Yeongdong","state_code":"43","latitude":"36.17500000","longitude":"127.77639000","population":43680,"timezone":"Asia/Seoul","type":"adm2","translations":{"es":"Yeongdong","en":"Yeongdong"}},{"name":"Yeongdong-gun","state_code":"43","latitude":"36.21658000","longitude":"127.79374000","population":null,"timezone":"Asia/Seoul","type":"adm2","translations":{"es":"Yeongdong-gun","en":"Yeongdong-gun"}},{"name":"Andong","state_code":"47","latitude":"36.56636000","longitude":"128.72275000","population":153306,"timezone":"Asia/Seoul","type":"adm1","translations":{"es":"Andong","en":"Andong"}},{"name":"Andong-si","state_code":"47","latitude":"36.56667000","longitude":"128.71667000","population":null,"timezone":"Asia/Seoul","type":"city","translations":{"es":"Andong-si","en":"Andong-si"}},{"name":"Bonghwa-gun","state_code":"47","latitude":"36.88951000","longitude":"128.73573000","population":null,"timezone":"Asia/Seoul","type":"city","translations":{"es":"Bonghwa-gun","en":"Bonghwa-gun"}},{"name":"Cheongdo-gun","state_code":"47","latitude":"35.67166000","longitude":"128.78509000","population":null,"timezone":"Asia/Seoul","type":"city","translations":{"es":"Cheongdo-gun","en":"Cheongdo-gun"}},{"name":"Cheongsong gun","state_code":"47","latitude":"36.43351000","longitude":"129.05700000","population":31313,"timezone":"Asia/Seoul","type":"city","translations":{"es":"Cañón Cheongsong","en":"Cheongsong gun"}},{"name":"Chilgok-gun","state_code":"47","latitude":"36.01512000","longitude":"128.46138000","population":null,"timezone":"Asia/Seoul","type":"adm3","translations":{"es":"Chilgok-gun","en":"Chilgok-gun"}},{"name":"Eisen","state_code":"47","latitude":"36.82167000","longitude":"128.63083000","population":56006,"timezone":"Asia/Seoul","type":"city","translations":{"es":"Eisen","en":"Eisen"}},{"name":"Gimcheon","state_code":"47","latitude":"36.12176000","longitude":"128.11981000","population":137540,"timezone":"Asia/Seoul","type":"city","translations":{"es":"Gimcheon","en":"Gimcheon"}},{"name":"Gimcheon-si","state_code":"47","latitude":"36.14481000","longitude":"128.11157000","population":null,"timezone":"Asia/Seoul","type":"city","translations":{"es":"Gimcheon-si","en":"Gimcheon-si"}},{"name":"Goryeong-gun","state_code":"47","latitude":"35.74959000","longitude":"128.29707000","population":null,"timezone":"Asia/Seoul","type":"city","translations":{"es":"Goryeong-gun","en":"Goryeong-gun"}},{"name":"Gumi-si","state_code":"47","latitude":"36.21009000","longitude":"128.35442000","population":null,"timezone":"Asia/Seoul","type":"city","translations":{"es":"Gumi-si","en":"Gumi-si"}},{"name":"Gunwi-gun","state_code":"47","latitude":"36.16995000","longitude":"128.64705000","population":null,"timezone":"Asia/Seoul","type":"city","translations":{"es":"Gunwi-gun","en":"Gunwi-gun"}},{"name":"Gyeongju","state_code":"47","latitude":"35.84278000","longitude":"129.21167000","population":248244,"timezone":"Asia/Seoul","type":"city","translations":{"es":"Gyeongju","en":"Gyeongju"}},{"name":"Gyeongsan-si","state_code":"47","latitude":"35.83333000","longitude":"128.80000000","population":null,"timezone":"Asia/Seoul","type":"city","translations":{"es":"Gyeongsan-si","en":"Gyeongsan-si"}},{"name":"Hayang","state_code":"47","latitude":"35.91333000","longitude":"128.82000000","population":27236,"timezone":"Asia/Seoul","type":"city","translations":{"es":"Hayang","en":"Hayang"}},{"name":"Heunghae","state_code":"47","latitude":"36.10945000","longitude":"129.34517000","population":36080,"timezone":"Asia/Seoul","type":"adm3","translations":{"es":"Heunghae","en":"Heunghae"}},{"name":"Jenzan","state_code":"47","latitude":"36.24083000","longitude":"128.29750000","population":20673,"timezone":"Asia/Seoul","type":"city","translations":{"es":"Jenzan","en":"Jenzan"}},{"name":"Kunwi","state_code":"47","latitude":"36.23472000","longitude":"128.57278000","population":34293,"timezone":"Asia/Seoul","type":"city","translations":{"es":"Kunwi","en":"Kunwi"}},{"name":"Mungyeong","state_code":"47","latitude":"36.59458000","longitude":"128.19946000","population":71863,"timezone":"Asia/Seoul","type":"city","translations":{"es":"Mungyeong","en":"Mungyeong"}},{"name":"Mungyeong-si","state_code":"47","latitude":"36.58755000","longitude":"128.18624000","population":null,"timezone":"Asia/Seoul","type":"city","translations":{"es":"Mungyeong-si","en":"Mungyeong-si"}},{"name":"Pohang","state_code":"47","latitude":"36.02917000","longitude":"129.36481000","population":503780,"timezone":"Asia/Seoul","type":"adm2","translations":{"es":"Pohang","en":"Pohang"}},{"name":"Pohang-si","state_code":"47","latitude":"36.08333000","longitude":"129.36667000","population":null,"timezone":"Asia/Seoul","type":"city","translations":{"es":"Pohang-si","en":"Pohang-si"}},{"name":"Sangju","state_code":"47","latitude":"36.41528000","longitude":"128.16056000","population":102892,"timezone":"Asia/Seoul","type":"city","translations":{"es":"Sangju","en":"Sangju"}},{"name":"Seongju-gun","state_code":"47","latitude":"35.91888000","longitude":"128.28838000","population":null,"timezone":"Asia/Seoul","type":"city","translations":{"es":"Seongju-gun","en":"Seongju-gun"}},{"name":"Uiseong-gun","state_code":"47","latitude":"36.36122000","longitude":"128.61517000","population":null,"timezone":"Asia/Seoul","type":"city","translations":{"es":"Uiseong-gun","en":"Uiseong-gun"}},{"name":"Uljin-gun","state_code":"47","latitude":"36.91968000","longitude":"129.31966000","population":null,"timezone":"Asia/Seoul","type":"city","translations":{"es":"Cañón Uljin","en":"Uljin-gun"}},{"name":"Ulleung-gun","state_code":"47","latitude":"37.50442000","longitude":"130.86084000","population":null,"timezone":"Asia/Seoul","type":"city","translations":{"es":"Ulleung-gun","en":"Ulleung-gun"}},{"name":"Waegwan","state_code":"47","latitude":"35.99251000","longitude":"128.39785000","population":29691,"timezone":"Asia/Seoul","type":"adm3","translations":{"es":"Waegwan","en":"Waegwan"}},{"name":"Yecheon-gun","state_code":"47","latitude":"36.65272000","longitude":"128.43007000","population":null,"timezone":"Asia/Seoul","type":"city","translations":{"es":"Yecheon-gun","en":"Yecheon-gun"}},{"name":"Yeongcheon-si","state_code":"47","latitude":"36.00000000","longitude":"129.00000000","population":null,"timezone":"Asia/Seoul","type":"city","translations":{"es":"Yeongcheon-si","en":"Yeongcheon-si"}},{"name":"Yeongdeok-gun","state_code":"47","latitude":"36.48125000","longitude":"129.31078000","population":null,"timezone":"Asia/Seoul","type":"city","translations":{"es":"Yeongdeok-gun","en":"Yeongdeok-gun"}},{"name":"Yeongju-si","state_code":"47","latitude":"36.87459000","longitude":"128.58631000","population":null,"timezone":"Asia/Seoul","type":"city","translations":{"es":"Yeongju-si","en":"Yeongju-si"}},{"name":"Yeongyang-gun","state_code":"47","latitude":"36.69592000","longitude":"129.14196000","population":null,"timezone":"Asia/Seoul","type":"city","translations":{"es":"Yeongyang-gun","en":"Yeongyang-gun"}},{"name":"Yeonil","state_code":"47","latitude":"35.99526000","longitude":"129.35162000","population":0,"timezone":"Asia/Seoul","type":"adm2","translations":{"es":"Yeonil","en":"Yeonil"}},{"name":"Buan-gun","state_code":"45","latitude":"35.70000000","longitude":"126.66667000","population":null,"timezone":"Asia/Seoul","type":"city","translations":{"es":"Buan-gun","en":"Buan-gun"}},{"name":"Changsu","state_code":"45","latitude":"35.64842000","longitude":"127.51523000","population":26463,"timezone":"Asia/Seoul","type":"city","translations":{"es":"Changsu","en":"Changsu"}},{"name":"Gimje-si","state_code":"45","latitude":"35.80701000","longitude":"126.90755000","population":93111,"timezone":"Asia/Seoul","type":"city","translations":{"es":"Gimje-si","en":"Gimje-si"}},{"name":"Gochang-gun","state_code":"45","latitude":"35.43483000","longitude":"126.70047000","population":72996,"timezone":"Asia/Seoul","type":"city","translations":{"es":"pistola gochang","en":"Gochang-gun"}},{"name":"Gunsan","state_code":"45","latitude":"35.97861000","longitude":"126.71139000","population":264656,"timezone":"Asia/Seoul","type":"city","translations":{"es":"Gunsan","en":"Gunsan"}},{"name":"Gunsan-si","state_code":"45","latitude":"35.93583000","longitude":"126.68338000","population":278289,"timezone":"Asia/Seoul","type":"city","translations":{"es":"Gunsan-si","en":"Gunsan-si"}},{"name":"Iksan","state_code":"45","latitude":"35.94389000","longitude":"126.95444000","population":270758,"timezone":"Asia/Seoul","type":"city","translations":{"es":"Iksan","en":"Iksan"}},{"name":"Iksan-si","state_code":"45","latitude":"36.03718000","longitude":"126.98897000","population":308794,"timezone":"Asia/Seoul","type":"city","translations":{"es":"Iksan-si","en":"Iksan-si"}},{"name":"Imsil","state_code":"45","latitude":"35.61306000","longitude":"127.27944000","population":25693,"timezone":"Asia/Seoul","type":"adm3","translations":{"es":"Imsil","en":"Imsil"}},{"name":"Imsil-gun","state_code":"45","latitude":"35.62160000","longitude":"127.23187000","population":null,"timezone":"Asia/Seoul","type":"city","translations":{"es":"Cañón Imsil","en":"Imsil-gun"}},{"name":"Jangsu-gun","state_code":"45","latitude":"35.62504000","longitude":"127.56358000","population":null,"timezone":"Asia/Seoul","type":"city","translations":{"es":"Jangsu-gun","en":"Jangsu-gun"}},{"name":"Jeongeup","state_code":"45","latitude":"35.60004000","longitude":"126.91699000","population":139876,"timezone":"Asia/Seoul","type":"city","translations":{"es":"Jeongeup","en":"Jeongeup"}},{"name":"Jeongeup-si","state_code":"45","latitude":"35.60000000","longitude":"126.91667000","population":139876,"timezone":"Asia/Seoul","type":"city","translations":{"es":"Jeongeup-si","en":"Jeongeup-si"}},{"name":"Jeonju","state_code":"45","latitude":"35.82194000","longitude":"127.14889000","population":629618,"timezone":"Asia/Seoul","type":"adm1","translations":{"es":"Jeonju","en":"Jeonju"}},{"name":"Jeonju-si","state_code":"45","latitude":"35.83333000","longitude":"127.15000000","population":null,"timezone":"Asia/Seoul","type":"city","translations":{"es":"Jeonju-si","en":"Jeonju-si"}},{"name":"Jinan-gun","state_code":"45","latitude":"35.80472000","longitude":"127.47579000","population":null,"timezone":"Asia/Seoul","type":"city","translations":{"es":"Jinan-gun","en":"Jinan-gun"}},{"name":"Kimje","state_code":"45","latitude":"35.80167000","longitude":"126.88889000","population":44894,"timezone":"Asia/Seoul","type":"city","translations":{"es":"Kimje","en":"Kimje"}},{"name":"Koch'ang","state_code":"45","latitude":"35.43333000","longitude":"126.70000000","population":72996,"timezone":"Asia/Seoul","type":"city","translations":{"es":"Koch'ang","en":"Koch'ang"}},{"name":"Muju-gun","state_code":"45","latitude":"35.93172000","longitude":"127.71118000","population":null,"timezone":"Asia/Seoul","type":"city","translations":{"es":"Muju-gun","en":"Muju-gun"}},{"name":"Namwon","state_code":"45","latitude":"35.44821000","longitude":"127.38007000","population":0,"timezone":"Asia/Seoul","type":"city","translations":{"es":"Namwon","en":"Namwon"}},{"name":"Nangen","state_code":"45","latitude":"35.41000000","longitude":"127.38583000","population":81257,"timezone":"Asia/Seoul","type":"city","translations":{"es":"Nangen","en":"Nangen"}},{"name":"Puan","state_code":"45","latitude":"35.72806000","longitude":"126.73194000","population":22267,"timezone":"Asia/Seoul","type":"city","translations":{"es":"Puan","en":"Puan"}},{"name":"Sunchang-gun","state_code":"45","latitude":"35.37651000","longitude":"127.14967000","population":null,"timezone":"Asia/Seoul","type":"city","translations":{"es":"Sunchang-gun","en":"Sunchang-gun"}},{"name":"Wanju","state_code":"45","latitude":"35.84509000","longitude":"127.14752000","population":84009,"timezone":"Asia/Seoul","type":"city","translations":{"es":"Wanju","en":"Wanju"}},{"name":"Sejong","state_code":"50","latitude":"36.59245000","longitude":"127.29223000","population":386256,"timezone":"Asia/Seoul","type":"adm1","translations":{"es":"Sejong","en":"Sejong"}},{"name":"Dobong-gu","state_code":"11","latitude":"37.65066000","longitude":"127.03011000","population":null,"timezone":"Asia/Seoul","type":"city","translations":{"es":"Dobong-gu","en":"Dobong-gu"}},{"name":"Dongdaemun-gu","state_code":"11","latitude":"37.58189000","longitude":"127.05408000","population":null,"timezone":"Asia/Seoul","type":"city","translations":{"es":"Dongdaemun-gu","en":"Dongdaemun-gu"}},{"name":"Dongjak-gu","state_code":"11","latitude":"37.50056000","longitude":"126.95149000","population":null,"timezone":"Asia/Seoul","type":"city","translations":{"es":"Dongjak-gu","en":"Dongjak-gu"}},{"name":"Eunpyeong-gu","state_code":"11","latitude":"37.61846000","longitude":"126.92780000","population":null,"timezone":"Asia/Seoul","type":"adm3","translations":{"es":"Eunpyeong-gu","en":"Eunpyeong-gu"}},{"name":"Gangbuk-gu","state_code":"11","latitude":"37.63490000","longitude":"127.02015000","population":null,"timezone":"Asia/Seoul","type":"city","translations":{"es":"Gangbuk-gu","en":"Gangbuk-gu"}},{"name":"Gangdong-gu","state_code":"11","latitude":"37.55274000","longitude":"127.14546000","population":null,"timezone":"Asia/Seoul","type":"city","translations":{"es":"Gangdong-gu","en":"Gangdong-gu"}},{"name":"Gangnam-gu","state_code":"11","latitude":"37.49510000","longitude":"127.06278000","population":null,"timezone":"Asia/Seoul","type":"city","translations":{"es":"Gangnam-gu","en":"Gangnam-gu"}},{"name":"Gangseo-gu","state_code":"11","latitude":"37.56227000","longitude":"126.81622000","population":null,"timezone":"Asia/Seoul","type":"adm2","translations":{"es":"Gangseo-gu","en":"Gangseo-gu"}},{"name":"Geumcheon-gu","state_code":"11","latitude":"37.47486000","longitude":"126.89106000","population":null,"timezone":"Asia/Seoul","type":"city","translations":{"es":"Geumcheon-gu","en":"Geumcheon-gu"}},{"name":"Guro-gu","state_code":"11","latitude":"37.49447000","longitude":"126.85020000","population":null,"timezone":"Asia/Seoul","type":"city","translations":{"es":"Guro-gu","en":"Guro-gu"}},{"name":"Gwanak-gu","state_code":"11","latitude":"37.47876000","longitude":"126.95235000","population":null,"timezone":"Asia/Seoul","type":"city","translations":{"es":"Gwanak-gu","en":"Gwanak-gu"}},{"name":"Gwangjin-gu","state_code":"11","latitude":"37.53913000","longitude":"127.08366000","population":null,"timezone":"Asia/Seoul","type":"city","translations":{"es":"Gwangjin-gu","en":"Gwangjin-gu"}},{"name":"Jongno-gu","state_code":"11","latitude":"37.57290000","longitude":"126.97928000","population":null,"timezone":"Asia/Seoul","type":"city","translations":{"es":"Jongno-gu","en":"Jongno-gu"}},{"name":"Jung-gu","state_code":"11","latitude":"37.55986000","longitude":"126.99398000","population":null,"timezone":"Asia/Seoul","type":"city","translations":{"es":"Jung-gu","en":"Jung-gu"}},{"name":"Jungnang-gu","state_code":"11","latitude":"37.60199000","longitude":"127.10461000","population":null,"timezone":"Asia/Seoul","type":"city","translations":{"es":"Jungnang-gu","en":"Jungnang-gu"}},{"name":"Mapo-gu","state_code":"11","latitude":"37.55438000","longitude":"126.90926000","population":null,"timezone":"Asia/Seoul","type":"city","translations":{"es":"Mapo-gu","en":"Mapo-gu"}},{"name":"Nowon-gu","state_code":"11","latitude":"37.66045000","longitude":"127.06718000","population":null,"timezone":"Asia/Seoul","type":"city","translations":{"es":"Nowon-gu","en":"Nowon-gu"}},{"name":"Seocho-gu","state_code":"11","latitude":"37.49447000","longitude":"127.01088000","population":null,"timezone":"Asia/Seoul","type":"city","translations":{"es":"Seocho-gu","en":"Seocho-gu"}},{"name":"Seodaemun-gu","state_code":"11","latitude":"37.57809000","longitude":"126.93506000","population":null,"timezone":"Asia/Seoul","type":"city","translations":{"es":"Seodaemun-gu","en":"Seodaemun-gu"}},{"name":"Seongbuk-gu","state_code":"11","latitude":"37.60267000","longitude":"127.01448000","population":null,"timezone":"Asia/Seoul","type":"city","translations":{"es":"Seongbuk-gu","en":"Seongbuk-gu"}},{"name":"Seongdong-gu","state_code":"11","latitude":"37.54784000","longitude":"127.02461000","population":null,"timezone":"Asia/Seoul","type":"city","translations":{"es":"Seongdong-gu","en":"Seongdong-gu"}},{"name":"Seoul","state_code":"11","latitude":"37.56600000","longitude":"126.97840000","population":9668465,"timezone":"Asia/Seoul","type":"capital","translations":{"es":"Seúl","en":"Seoul"}},{"name":"Songpa-gu","state_code":"11","latitude":"37.50210000","longitude":"127.11113000","population":null,"timezone":"Asia/Seoul","type":"city","translations":{"es":"Songpa-gu","en":"Songpa-gu"}},{"name":"Yangcheon-gu","state_code":"11","latitude":"37.52157000","longitude":"126.85827000","population":null,"timezone":"Asia/Seoul","type":"city","translations":{"es":"Yangcheon-gu","en":"Yangcheon-gu"}},{"name":"Yeongdeungpo-gu","state_code":"11","latitude":"37.52606000","longitude":"126.90308000","population":null,"timezone":"Asia/Seoul","type":"city","translations":{"es":"Yeongdeungpo-gu","en":"Yeongdeungpo-gu"}},{"name":"Yongsan-dong","state_code":"11","latitude":"37.54450000","longitude":"126.98370000","population":14192,"timezone":"Asia/Seoul","type":"city","translations":{"es":"Yongsan-dong","en":"Yongsan-dong"}},{"name":"Yongsan-gu","state_code":"11","latitude":"37.53391000","longitude":"126.97750000","population":10349312,"timezone":"Asia/Seoul","type":"capital","translations":{"es":"Yongsan-gu","en":"Yongsan-gu"}},{"name":"Asan","state_code":"44","latitude":"36.78361000","longitude":"127.00417000","population":97749,"timezone":"Asia/Seoul","type":"city","translations":{"es":"Asan","en":"Asan"}},{"name":"Asan-si","state_code":"44","latitude":"36.80791000","longitude":"126.97769000","population":242575,"timezone":"Asia/Seoul","type":"city","translations":{"es":"Asan-si","en":"Asan-si"}},{"name":"Boryeong","state_code":"44","latitude":"36.34931000","longitude":"126.59772000","population":94191,"timezone":"Asia/Seoul","type":"adm2","translations":{"es":"Boryeong","en":"Boryeong"}},{"name":"Boryeong-si","state_code":"44","latitude":"36.35649000","longitude":"126.59444000","population":null,"timezone":"Asia/Seoul","type":"city","translations":{"es":"Boryeong-si","en":"Boryeong-si"}},{"name":"Buyeo","state_code":"44","latitude":"36.27472000","longitude":"126.90906000","population":59823,"timezone":"Asia/Seoul","type":"adm2","translations":{"es":"Buyeo","en":"Buyeo"}},{"name":"Buyeo-gun","state_code":"44","latitude":"36.26257000","longitude":"126.85802000","population":null,"timezone":"Asia/Seoul","type":"city","translations":{"es":"Buyeo-gun","en":"Buyeo-gun"}},{"name":"Cheonan","state_code":"44","latitude":"36.80650000","longitude":"127.15220000","population":656583,"timezone":"Asia/Seoul","type":"city","translations":{"es":"Cheonan","en":"Cheonan"}},{"name":"Cheonan-si","state_code":"44","latitude":"36.80488000","longitude":"127.19431000","population":null,"timezone":"Asia/Seoul","type":"city","translations":{"es":"Cheonan-si","en":"Cheonan-si"}},{"name":"Cheongyang-gun","state_code":"44","latitude":"36.41676000","longitude":"126.79419000","population":null,"timezone":"Asia/Seoul","type":"adm2","translations":{"es":"Cheongyang-gun","en":"Cheongyang-gun"}},{"name":"Geumsan-gun","state_code":"44","latitude":"36.13381000","longitude":"127.48062000","population":null,"timezone":"Asia/Seoul","type":"city","translations":{"es":"Geumsan-gun","en":"Geumsan-gun"}},{"name":"Gongju","state_code":"44","latitude":"36.45556000","longitude":"127.12472000","population":72435,"timezone":"Asia/Seoul","type":"city","translations":{"es":"Gongju","en":"Gongju"}},{"name":"Gongju-si","state_code":"44","latitude":"36.50000000","longitude":"127.08333000","population":null,"timezone":"Asia/Seoul","type":"city","translations":{"es":"Gongju-si","en":"Gongju-si"}},{"name":"Gyeryong-si","state_code":"44","latitude":"36.29304000","longitude":"127.22575000","population":null,"timezone":"Asia/Seoul","type":"city","translations":{"es":"Gyeryong-si","en":"Gyeryong-si"}},{"name":"Hongseong","state_code":"44","latitude":"36.60090000","longitude":"126.66500000","population":99050,"timezone":"Asia/Seoul","type":"adm1","translations":{"es":"Hongseong","en":"Hongseong"}},{"name":"Hongseong-gun","state_code":"44","latitude":"36.56705000","longitude":"126.62626000","population":null,"timezone":"Asia/Seoul","type":"city","translations":{"es":"Hongseong-gun","en":"Hongseong-gun"}},{"name":"Kinzan","state_code":"44","latitude":"36.10306000","longitude":"127.48889000","population":25243,"timezone":"Asia/Seoul","type":"city","translations":{"es":"Kinzan","en":"Kinzan"}},{"name":"Nonsan","state_code":"44","latitude":"36.20389000","longitude":"127.08472000","population":43845,"timezone":"Asia/Seoul","type":"city","translations":{"es":"Nonsan","en":"Nonsan"}},{"name":"Nonsan-si","state_code":"44","latitude":"36.19774000","longitude":"127.12143000","population":null,"timezone":"Asia/Seoul","type":"city","translations":{"es":"Nonsan-si","en":"Nonsan-si"}},{"name":"Seocheon-gun","state_code":"44","latitude":"36.10600000","longitude":"126.69716000","population":null,"timezone":"Asia/Seoul","type":"city","translations":{"es":"Seocheon-gun","en":"Seocheon-gun"}},{"name":"Seonghwan","state_code":"44","latitude":"36.91556000","longitude":"127.13139000","population":29239,"timezone":"Asia/Seoul","type":"city","translations":{"es":"Seonghwan","en":"Seonghwan"}},{"name":"Seosan","state_code":"44","latitude":"36.78167000","longitude":"126.45222000","population":74208,"timezone":"Asia/Seoul","type":"city","translations":{"es":"Seosan","en":"Seosan"}},{"name":"Seosan-si","state_code":"44","latitude":"36.78518000","longitude":"126.46568000","population":null,"timezone":"Asia/Seoul","type":"city","translations":{"es":"Seosan-si","en":"Seosan-si"}},{"name":"Taean-gun","state_code":"44","latitude":"36.70036000","longitude":"126.28391000","population":null,"timezone":"Asia/Seoul","type":"city","translations":{"es":"Taean-gun","en":"Taean-gun"}},{"name":"Taesal-li","state_code":"44","latitude":"36.97140000","longitude":"126.45420000","population":23149,"timezone":"Asia/Seoul","type":"city","translations":{"es":"Taesal-li","en":"Taesal-li"}},{"name":"Tangjin","state_code":"44","latitude":"36.89444000","longitude":"126.62972000","population":32778,"timezone":"Asia/Seoul","type":"city","translations":{"es":"tanjin","en":"Tangjin"}},{"name":"Yesan","state_code":"44","latitude":"36.67756000","longitude":"126.84272000","population":39409,"timezone":"Asia/Seoul","type":"city","translations":{"es":"Yesan","en":"Yesan"}},{"name":"Yesan-gun","state_code":"44","latitude":"36.68218000","longitude":"126.79592000","population":null,"timezone":"Asia/Seoul","type":"city","translations":{"es":"Yesan-gun","en":"Yesan-gun"}},{"name":"Yŏnmu","state_code":"44","latitude":"36.12944000","longitude":"127.10000000","population":25015,"timezone":"Asia/Seoul","type":"city","translations":{"es":"Yŏnmu","en":"Yŏnmu"}},{"name":"Changnyeong","state_code":"48","latitude":"35.54145000","longitude":"128.49506000","population":74668,"timezone":"Asia/Seoul","type":"city","translations":{"es":"Changnyeong","en":"Changnyeong"}},{"name":"Changnyeong-gun","state_code":"48","latitude":"35.50822000","longitude":"128.49020000","population":null,"timezone":"Asia/Seoul","type":"city","translations":{"es":"Changnyeong-gun","en":"Changnyeong-gun"}},{"name":"Changwon","state_code":"48","latitude":"35.22806000","longitude":"128.68111000","population":1009998,"timezone":"Asia/Seoul","type":"adm1","translations":{"es":"Changwon","en":"Changwon"}},{"name":"Changwon-si","state_code":"48","latitude":"35.27533000","longitude":"128.65152000","population":null,"timezone":"Asia/Seoul","type":"city","translations":{"es":"Changwon-si","en":"Changwon-si"}},{"name":"Chinju","state_code":"48","latitude":"35.19278000","longitude":"128.08472000","population":307242,"timezone":"Asia/Seoul","type":"city","translations":{"es":"Chinju","en":"Chinju"}},{"name":"Geochang-gun","state_code":"48","latitude":"35.73034000","longitude":"127.90149000","population":null,"timezone":"Asia/Seoul","type":"city","translations":{"es":"Cañón Geochang","en":"Geochang-gun"}},{"name":"Geoje-si","state_code":"48","latitude":"34.90000000","longitude":"128.66666000","population":null,"timezone":"Asia/Seoul","type":"city","translations":{"es":"Geoje-si","en":"Geoje-si"}},{"name":"Gimhae-si","state_code":"48","latitude":"35.25000000","longitude":"128.86667000","population":null,"timezone":"Asia/Seoul","type":"city","translations":{"es":"Gimhae-si","en":"Gimhae-si"}},{"name":"Goseong","state_code":"48","latitude":"34.97631000","longitude":"128.32361000","population":26704,"timezone":"Asia/Seoul","type":"city","translations":{"es":"Goseong","en":"Goseong"}},{"name":"Goseong-gun","state_code":"48","latitude":"35.01478000","longitude":"128.28244000","population":null,"timezone":"Asia/Seoul","type":"city","translations":{"es":"Goseong-gun","en":"Goseong-gun"}},{"name":"Hadong-gun","state_code":"48","latitude":"35.13628000","longitude":"127.77291000","population":null,"timezone":"Asia/Seoul","type":"adm3","translations":{"es":"Hadong-gun","en":"Hadong-gun"}},{"name":"Haman-gun","state_code":"48","latitude":"35.29117000","longitude":"128.42970000","population":null,"timezone":"Asia/Seoul","type":"adm3","translations":{"es":"Amán-gun","en":"Haman-gun"}},{"name":"Hapcheon-gun","state_code":"48","latitude":"35.57410000","longitude":"128.13841000","population":null,"timezone":"Asia/Seoul","type":"city","translations":{"es":"Cañón Hapcheon","en":"Hapcheon-gun"}},{"name":"Jinju-si","state_code":"48","latitude":"35.20445000","longitude":"128.12408000","population":340816,"timezone":"Asia/Seoul","type":"city","translations":{"es":"Jinju-si","en":"Jinju-si"}},{"name":"Kimhae","state_code":"48","latitude":"35.23417000","longitude":"128.88111000","population":531966,"timezone":"Asia/Seoul","type":"city","translations":{"es":"Kimhae","en":"Kimhae"}},{"name":"Kyosai","state_code":"48","latitude":"34.85028000","longitude":"128.58861000","population":72124,"timezone":"Asia/Seoul","type":"city","translations":{"es":"Kyosai","en":"Kyosai"}},{"name":"Miryang","state_code":"48","latitude":"35.49333000","longitude":"128.74889000","population":53103,"timezone":"Asia/Seoul","type":"city","translations":{"es":"Miryang","en":"Miryang"}},{"name":"Miryang-si","state_code":"48","latitude":"35.49750000","longitude":"128.78690000","population":108621,"timezone":"Asia/Seoul","type":"city","translations":{"es":"Miryang-si","en":"Miryang-si"}},{"name":"Naesŏ","state_code":"48","latitude":"35.24972000","longitude":"128.52000000","population":80987,"timezone":"Asia/Seoul","type":"city","translations":{"es":"Naesŏ","en":"Naesŏ"}},{"name":"Namhae-gun","state_code":"48","latitude":"34.80433000","longitude":"127.92708000","population":null,"timezone":"Asia/Seoul","type":"city","translations":{"es":"Distrito Namhae","en":"Namhae-gun"}},{"name":"Sacheon-si","state_code":"48","latitude":"35.00385000","longitude":"128.06857000","population":null,"timezone":"Asia/Seoul","type":"city","translations":{"es":"Sacheon-si","en":"Sacheon-si"}},{"name":"Sancheong-gun","state_code":"48","latitude":"35.36625000","longitude":"127.87065000","population":null,"timezone":"Asia/Seoul","type":"city","translations":{"es":"Sancheong-gun","en":"Sancheong-gun"}},{"name":"Sinhyeon","state_code":"48","latitude":"34.88250000","longitude":"128.62667000","population":82560,"timezone":"Asia/Seoul","type":"city","translations":{"es":"Sinhyeon","en":"Sinhyeon"}},{"name":"Uiryeong-gun","state_code":"48","latitude":"35.39230000","longitude":"128.26917000","population":null,"timezone":"Asia/Seoul","type":"city","translations":{"es":"Uiryeong-gun","en":"Uiryeong-gun"}},{"name":"Ungsang","state_code":"48","latitude":"35.40611000","longitude":"129.16861000","population":83360,"timezone":"Asia/Seoul","type":"city","translations":{"es":"Ungsang","en":"Ungsang"}},{"name":"Yangsan","state_code":"48","latitude":"35.34199000","longitude":"129.03358000","population":297532,"timezone":"Asia/Seoul","type":"adm2","translations":{"es":"Yangsan","en":"Yangsan"}},{"name":"Beolgyo","state_code":"46","latitude":"34.84897000","longitude":"127.34052000","population":19842,"timezone":"Asia/Seoul","type":"adm3","translations":{"es":"Beolgyo","en":"Beolgyo"}},{"name":"Boseong-gun","state_code":"46","latitude":"34.84622000","longitude":"127.22189000","population":null,"timezone":"Asia/Seoul","type":"adm3","translations":{"es":"Boseong-gun","en":"Boseong-gun"}},{"name":"Damyang-gun","state_code":"46","latitude":"35.33976000","longitude":"126.99125000","population":null,"timezone":"Asia/Seoul","type":"adm2","translations":{"es":"Cañón Damyang","en":"Damyang-gun"}},{"name":"Gangjin-gun","state_code":"46","latitude":"34.61787000","longitude":"126.76758000","population":null,"timezone":"Asia/Seoul","type":"adm3","translations":{"es":"Gangjin-gun","en":"Gangjin-gun"}},{"name":"Goheung-gun","state_code":"46","latitude":"34.58333000","longitude":"127.33333000","population":null,"timezone":"Asia/Seoul","type":"adm4","translations":{"es":"Goheung-gun","en":"Goheung-gun"}},{"name":"Gokseong-gun","state_code":"46","latitude":"35.21449000","longitude":"127.26280000","population":null,"timezone":"Asia/Seoul","type":"adm3","translations":{"es":"Gokseong-gun","en":"Gokseong-gun"}},{"name":"Gurye-gun","state_code":"46","latitude":"35.23616000","longitude":"127.50129000","population":null,"timezone":"Asia/Seoul","type":"city","translations":{"es":"Gurye-gun","en":"Gurye-gun"}},{"name":"Gwangyang","state_code":"46","latitude":"34.94140000","longitude":"127.69569000","population":154266,"timezone":"Asia/Seoul","type":"adm2","translations":{"es":"Gwangyang","en":"Gwangyang"}},{"name":"Gwangyang-si","state_code":"46","latitude":"35.04007000","longitude":"127.60949000","population":null,"timezone":"Asia/Seoul","type":"city","translations":{"es":"Gwangyang","en":"Gwangyang-si"}},{"name":"Haenam","state_code":"46","latitude":"34.57111000","longitude":"126.59889000","population":23928,"timezone":"Asia/Seoul","type":"city","translations":{"es":"Haenam","en":"Haenam"}},{"name":"Haenam-gun","state_code":"46","latitude":"34.54047000","longitude":"126.51870000","population":null,"timezone":"Asia/Seoul","type":"city","translations":{"es":"Haenam-gun","en":"Haenam-gun"}},{"name":"Hampyeong-gun","state_code":"46","latitude":"35.14988000","longitude":"126.53337000","population":null,"timezone":"Asia/Seoul","type":"adm3","translations":{"es":"Hampyeong-gun","en":"Hampyeong-gun"}},{"name":"Hwasun","state_code":"46","latitude":"35.06125000","longitude":"126.98746000","population":59914,"timezone":"Asia/Seoul","type":"adm2","translations":{"es":"Hwasun","en":"Hwasun"}},{"name":"Hwasun-gun","state_code":"46","latitude":"35.00468000","longitude":"127.02648000","population":null,"timezone":"Asia/Seoul","type":"city","translations":{"es":"Hwasun-gun","en":"Hwasun-gun"}},{"name":"Jangheung-gun","state_code":"46","latitude":"34.70555000","longitude":"126.94905000","population":null,"timezone":"Asia/Seoul","type":"adm3","translations":{"es":"Jangheung-gun","en":"Jangheung-gun"}},{"name":"Jangseong-gun","state_code":"46","latitude":"35.32734000","longitude":"126.76817000","population":null,"timezone":"Asia/Seoul","type":"adm2","translations":{"es":"Jangseong-gun","en":"Jangseong-gun"}},{"name":"Jindo-gun","state_code":"46","latitude":"34.41958000","longitude":"126.22599000","population":null,"timezone":"Asia/Seoul","type":"city","translations":{"es":"Jindo-gun","en":"Jindo-gun"}},{"name":"Kurye","state_code":"46","latitude":"35.20944000","longitude":"127.46444000","population":30000,"timezone":"Asia/Seoul","type":"city","translations":{"es":"Kurye","en":"Kurye"}},{"name":"Kwangyang","state_code":"46","latitude":"34.97528000","longitude":"127.58917000","population":89281,"timezone":"Asia/Seoul","type":"city","translations":{"es":"Kwangyang","en":"Kwangyang"}},{"name":"Mokpo","state_code":"46","latitude":"34.81282000","longitude":"126.39181000","population":268402,"timezone":"Asia/Seoul","type":"adm2","translations":{"es":"Mokpo","en":"Mokpo"}},{"name":"Mokpo-si","state_code":"46","latitude":"34.81226000","longitude":"126.39179000","population":null,"timezone":"Asia/Seoul","type":"adm3","translations":{"es":"Mokpo-si","en":"Mokpo-si"}},{"name":"Muan","state_code":"46","latitude":"34.99014000","longitude":"126.47899000","population":92009,"timezone":"Asia/Seoul","type":"adm1","translations":{"es":"Muan","en":"Muan"}},{"name":"Muan-gun","state_code":"46","latitude":"34.95642000","longitude":"126.44041000","population":null,"timezone":"Asia/Seoul","type":"adm3","translations":{"es":"Muan-gun","en":"Muan-gun"}},{"name":"Naju","state_code":"46","latitude":"35.02920000","longitude":"126.71750000","population":42459,"timezone":"Asia/Seoul","type":"adm2","translations":{"es":"Naju","en":"Naju"}},{"name":"Naju-si","state_code":"46","latitude":"35.05683000","longitude":"126.67362000","population":null,"timezone":"Asia/Seoul","type":"city","translations":{"es":"Naju-si","en":"Naju-si"}},{"name":"Sinan","state_code":"46","latitude":"34.82620000","longitude":"126.10863000","population":53150,"timezone":"Asia/Seoul","type":"city","translations":{"es":"Sinan","en":"Sinan"}},{"name":"Sinan-gun","state_code":"46","latitude":"34.83107000","longitude":"126.09872000","population":null,"timezone":"Asia/Seoul","type":"city","translations":{"es":"Sinan-gun","en":"Sinan-gun"}},{"name":"Suncheon","state_code":"46","latitude":"34.95050000","longitude":"127.48784000","population":265390,"timezone":"Asia/Seoul","type":"adm2","translations":{"es":"Suncheon","en":"Suncheon"}},{"name":"Suncheon-si","state_code":"46","latitude":"34.97162000","longitude":"127.46096000","population":null,"timezone":"Asia/Seoul","type":"adm3","translations":{"es":"Suncheon-si","en":"Suncheon-si"}},{"name":"Wando-gun","state_code":"46","latitude":"34.31182000","longitude":"126.73845000","population":null,"timezone":"Asia/Seoul","type":"city","translations":{"es":"Pistola Wando","en":"Wando-gun"}},{"name":"Yeongam","state_code":"46","latitude":"34.80059000","longitude":"126.69669000","population":51573,"timezone":"Asia/Seoul","type":"adm2","translations":{"es":"Yeongam","en":"Yeongam"}},{"name":"Yeongam-gun","state_code":"46","latitude":"34.79790000","longitude":"126.62651000","population":null,"timezone":"Asia/Seoul","type":"adm3","translations":{"es":"Yeongam-gun","en":"Yeongam-gun"}},{"name":"Yeonggwang","state_code":"46","latitude":"35.27814000","longitude":"126.51181000","population":51688,"timezone":"Asia/Seoul","type":"adm3","translations":{"es":"Yeonggwang","en":"Yeonggwang"}},{"name":"Yeonggwang-gun","state_code":"46","latitude":"35.28711000","longitude":"126.43616000","population":null,"timezone":"Asia/Seoul","type":"city","translations":{"es":"Yeonggwang-gun","en":"Yeonggwang-gun"}},{"name":"Yeosu","state_code":"46","latitude":"34.76062000","longitude":"127.66215000","population":273761,"timezone":"Asia/Seoul","type":"adm2","translations":{"es":"Yeosu","en":"Yeosu"}},{"name":"Buk-gu","state_code":"31","latitude":"35.58243000","longitude":"129.36049000","population":0,"timezone":"Asia/Seoul","type":"adm2","translations":{"es":"Buk-gu","en":"Buk-gu"}},{"name":"Dong-gu","state_code":"31","latitude":"35.50470000","longitude":"129.41860000","population":343398,"timezone":"Asia/Seoul","type":"city","translations":{"es":"Dong-gu","en":"Dong-gu"}},{"name":"Jung-gu","state_code":"31","latitude":"35.56840000","longitude":"129.33226000","population":null,"timezone":"Asia/Seoul","type":"city","translations":{"es":"Jung-gu","en":"Jung-gu"}},{"name":"Nam-gu","state_code":"31","latitude":"35.54382000","longitude":"129.32917000","population":0,"timezone":"Asia/Seoul","type":"city","translations":{"es":"Nam-gu","en":"Nam-gu"}},{"name":"Ulju-gun","state_code":"31","latitude":"35.56233000","longitude":"129.12690000","population":null,"timezone":"Asia/Seoul","type":"city","translations":{"es":"Ulju-gun","en":"Ulju-gun"}},{"name":"Ulsan","state_code":"31","latitude":"35.53722000","longitude":"129.31667000","population":1127553,"timezone":"Asia/Seoul","type":"adm1","translations":{"es":"Ulsan","en":"Ulsan"}}]