[{"name":"Al Aḩmadī","state_code":"AH","latitude":"29.07694000","longitude":"48.08389000","population":637411,"timezone":"Asia/Kuwait","type":"adm1","translations":{"es":"Al Ahmadī","en":"Al Aḩmadī"}},{"name":"Al Faḩāḩīl","state_code":"AH","latitude":"29.08250000","longitude":"48.13028000","population":68290,"timezone":"Asia/Kuwait","type":"city","translations":{"es":"Al Faḩāḩīl","en":"Al Faḩāḩīl"}},{"name":"Al Finţās","state_code":"AH","latitude":"29.17389000","longitude":"48.12111000","population":23071,"timezone":"Asia/Kuwait","type":"city","translations":{"es":"Al Fintas","en":"Al Finţās"}},{"name":"Al Mahbūlah","state_code":"AH","latitude":"29.14500000","longitude":"48.13028000","population":18178,"timezone":"Asia/Kuwait","type":"city","translations":{"es":"Al Mahbulá","en":"Al Mahbūlah"}},{"name":"Al Manqaf","state_code":"AH","latitude":"29.09611000","longitude":"48.13278000","population":39025,"timezone":"Asia/Kuwait","type":"city","translations":{"es":"Al Manqaf","en":"Al Manqaf"}},{"name":"Al Wafrah","state_code":"AH","latitude":"28.63917000","longitude":"47.93056000","population":10017,"timezone":"Asia/Kuwait","type":"city","translations":{"es":"Al Wafrah","en":"Al Wafrah"}},{"name":"Ar Riqqah","state_code":"AH","latitude":"29.14583000","longitude":"48.09472000","population":52068,"timezone":"Asia/Kuwait","type":"city","translations":{"es":"Ar Riqqah","en":"Ar Riqqah"}},{"name":"Ad Dasmah","state_code":"KU","latitude":"29.36500000","longitude":"48.00139000","population":17585,"timezone":"Asia/Kuwait","type":"city","translations":{"es":"Ad Dasmah","en":"Ad Dasmah"}},{"name":"Ar Rābiyah","state_code":"KU","latitude":"29.29500000","longitude":"47.93306000","population":36447,"timezone":"Asia/Kuwait","type":"section","translations":{"es":"Ar Rābiyah","en":"Ar Rābiyah"}},{"name":"Ash Shāmīyah","state_code":"KU","latitude":"29.34722000","longitude":"47.96167000","population":13762,"timezone":"Asia/Kuwait","type":"section","translations":{"es":"Ash Shāmīyah","en":"Ash Shāmīyah"}},{"name":"Az Zawr","state_code":"KU","latitude":"29.44250000","longitude":"48.27472000","population":5750,"timezone":"Asia/Kuwait","type":"city","translations":{"es":"Az Zawr","en":"Az Zawr"}},{"name":"Kuwait City","state_code":"KU","latitude":"29.36972000","longitude":"47.97833000","population":2989000,"timezone":"Asia/Kuwait","type":"capital","translations":{"es":"Ciudad de Kuwait","en":"Kuwait City"}},{"name":"Al Farwānīyah","state_code":"FA","latitude":"29.27750000","longitude":"47.95861000","population":86525,"timezone":"Asia/Kuwait","type":"adm1","translations":{"es":"Al Farwaniyah","en":"Al Farwānīyah"}},{"name":"Janūb as Surrah","state_code":"FA","latitude":"29.26917000","longitude":"47.97806000","population":18496,"timezone":"Asia/Kuwait","type":"city","translations":{"es":"Janūb como Surrah","en":"Janūb as Surrah"}},{"name":"Al Jahrā’","state_code":"JA","latitude":"29.33750000","longitude":"47.65806000","population":24281,"timezone":"Asia/Kuwait","type":"adm1","translations":{"es":"Al Jahrā’","en":"Al Jahrā’"}},{"name":"Ar Rumaythīyah","state_code":"HA","latitude":"29.31167000","longitude":"48.07417000","population":58135,"timezone":"Asia/Kuwait","type":"section","translations":{"es":"Ar Rumaythiyah","en":"Ar Rumaythīyah"}},{"name":"As Sālimīyah","state_code":"HA","latitude":"29.33389000","longitude":"48.07611000","population":147649,"timezone":"Asia/Kuwait","type":"section","translations":{"es":"Como Sālimīyah","en":"As Sālimīyah"}},{"name":"Bayān","state_code":"HA","latitude":"29.30320000","longitude":"48.04881000","population":30635,"timezone":"Asia/Kuwait","type":"section","translations":{"es":"Bayán","en":"Bayān"}},{"name":"Ḩawallī","state_code":"HA","latitude":"29.33278000","longitude":"48.02861000","population":164212,"timezone":"Asia/Kuwait","type":"adm1","translations":{"es":"Hawalli","en":"Ḩawallī"}},{"name":"Salwá","state_code":"HA","latitude":"29.29583000","longitude":"48.07861000","population":40945,"timezone":"Asia/Kuwait","type":"section","translations":{"es":"Salwá","en":"Salwá"}},{"name":"Abu Al Hasaniya","state_code":"MU","latitude":"29.19076000","longitude":"48.11355000","population":1350,"timezone":"Asia/Kuwait","type":"city","translations":{"es":"Abu Al Hasaniya","en":"Abu Al Hasaniya"}},{"name":"Abu Fatira","state_code":"MU","latitude":"29.19746000","longitude":"48.10278000","population":1240,"timezone":"Asia/Kuwait","type":"city","translations":{"es":"Abu Fatira","en":"Abu Fatira"}},{"name":"Al Funayţīs","state_code":"MU","latitude":"29.22528000","longitude":"48.10167000","population":1878,"timezone":"Asia/Kuwait","type":"city","translations":{"es":"Al Funayţīs","en":"Al Funayţīs"}},{"name":"Al-Masayel","state_code":"MU","latitude":"29.23930000","longitude":"48.08862000","population":2458,"timezone":"Asia/Kuwait","type":"city","translations":{"es":"Al-Masayel","en":"Al-Masayel"}},{"name":"Şabāḩ as Sālim","state_code":"MU","latitude":"29.25722000","longitude":"48.05722000","population":139163,"timezone":"Asia/Kuwait","type":"city","translations":{"es":"Şabāḩ como Sālim","en":"Şabāḩ as Sālim"}}]