[{"name":"Akkol","state_code":"11","latitude":"51.99374000","longitude":"70.94704000","population":2605,"timezone":"Asia/Almaty","type":"adm2","translations":{"es":"Akkol","en":"Akkol"}},{"name":"Akkol’","state_code":"11","latitude":"53.29617000","longitude":"69.59997000","population":16773,"timezone":"Asia/Almaty","type":"city","translations":{"es":"Akkol’","en":"Akkol’"}},{"name":"Aksu","state_code":"11","latitude":"52.44422000","longitude":"71.95761000","population":8543,"timezone":"Asia/Almaty","type":"city","translations":{"es":"Aksu","en":"Aksu"}},{"name":"Astrakhan","state_code":"11","latitude":"51.53092000","longitude":"69.79684000","population":6459,"timezone":"Asia/Almaty","type":"adm2","translations":{"es":"Astracán","en":"Astrakhan"}},{"name":"Atbasar","state_code":"11","latitude":"51.80652000","longitude":"68.35996000","population":31434,"timezone":"Asia/Almaty","type":"adm2","translations":{"es":"Atbasar","en":"Atbasar"}},{"name":"Balkashino","state_code":"11","latitude":"52.51779000","longitude":"68.75160000","population":6147,"timezone":"Asia/Almaty","type":"adm2","translations":{"es":"Balkashino","en":"Balkashino"}},{"name":"Bestobe","state_code":"11","latitude":"52.49795000","longitude":"73.09592000","population":7189,"timezone":"Asia/Almaty","type":"city","translations":{"es":"Bestobe","en":"Bestobe"}},{"name":"Derzhavīnsk","state_code":"11","latitude":"51.09922000","longitude":"66.31557000","population":null,"timezone":"Asia/Almaty","type":"adm2","translations":{"es":"Derzhavinsk","en":"Derzhavīnsk"}},{"name":"Egindiköl","state_code":"11","latitude":"51.05412000","longitude":"69.47928000","population":2976,"timezone":"Asia/Almaty","type":"adm2","translations":{"es":"Egindiköl","en":"Egindiköl"}},{"name":"Esil","state_code":"11","latitude":"51.95495000","longitude":"66.40841000","population":13504,"timezone":"Asia/Almaty","type":"adm2","translations":{"es":"Esil","en":"Esil"}},{"name":"Kokshetau","state_code":"11","latitude":"53.28333000","longitude":"69.40000000","population":179907,"timezone":"Asia/Almaty","type":"adm1","translations":{"es":"Kokshetau","en":"Kokshetau"}},{"name":"Krasnogorskiy","state_code":"11","latitude":"52.24560000","longitude":"66.52081000","population":3646,"timezone":"Asia/Almaty","type":"city","translations":{"es":"Krasnogorskiy","en":"Krasnogorskiy"}},{"name":"Makinsk","state_code":"11","latitude":"52.63290000","longitude":"70.41911000","population":17775,"timezone":"Asia/Almaty","type":"adm2","translations":{"es":"Makinsk","en":"Makinsk"}},{"name":"Shantobe","state_code":"11","latitude":"52.45376000","longitude":"68.17475000","population":5626,"timezone":"Asia/Almaty","type":"city","translations":{"es":"Shantobe","en":"Shantobe"}},{"name":"Shchuchinsk","state_code":"11","latitude":"52.93592000","longitude":"70.18895000","population":45004,"timezone":"Asia/Almaty","type":"adm2","translations":{"es":"Shchuchinsk","en":"Shchuchinsk"}},{"name":"Shortandy","state_code":"11","latitude":"51.69946000","longitude":"70.99457000","population":6025,"timezone":"Asia/Almaty","type":"adm2","translations":{"es":"Shortandy","en":"Shortandy"}},{"name":"Stepnogorsk","state_code":"11","latitude":"52.35062000","longitude":"71.88161000","population":46947,"timezone":"Asia/Almaty","type":"adm2","translations":{"es":"Stepnogorsk","en":"Stepnogorsk"}},{"name":"Stepnyak","state_code":"11","latitude":"52.83489000","longitude":"70.78861000","population":4212,"timezone":"Asia/Almaty","type":"adm2","translations":{"es":"Stepnyak","en":"Stepnyak"}},{"name":"Yermentau","state_code":"11","latitude":"51.62364000","longitude":"73.10265000","population":14169,"timezone":"Asia/Almaty","type":"adm2","translations":{"es":"Yermentau","en":"Yermentau"}},{"name":"Zavodskoy","state_code":"11","latitude":"52.47031000","longitude":"72.01514000","population":6043,"timezone":"Asia/Almaty","type":"city","translations":{"es":"Zavodskoy","en":"Zavodskoy"}},{"name":"Zhaqsy","state_code":"11","latitude":"51.91058000","longitude":"67.31665000","population":5001,"timezone":"Asia/Almaty","type":"adm2","translations":{"es":"Zhaqsy","en":"Zhaqsy"}},{"name":"Zholymbet","state_code":"11","latitude":"51.74211000","longitude":"71.71245000","population":6876,"timezone":"Asia/Almaty","type":"city","translations":{"es":"Zholymbet","en":"Zholymbet"}},{"name":"Aktobe","state_code":"15","latitude":"50.27969000","longitude":"57.20718000","population":570475,"timezone":"Asia/Aqtobe","type":"adm1","translations":{"es":"Aktobe","en":"Aktobe"}},{"name":"Batamshinskiy","state_code":"15","latitude":"50.56022000","longitude":"58.27715000","population":null,"timezone":"Asia/Almaty","type":"city","translations":{"es":"Batamshinskiy","en":"Batamshinskiy"}},{"name":"Bayganin","state_code":"15","latitude":"48.68975000","longitude":"55.87512000","population":7657,"timezone":"Asia/Aqtobe","type":"city","translations":{"es":"Bayganin","en":"Bayganin"}},{"name":"Embi","state_code":"15","latitude":"48.82981000","longitude":"58.15042000","population":18760,"timezone":"Asia/Aqtobe","type":"city","translations":{"es":"Embi","en":"Embi"}},{"name":"Kandyagash","state_code":"15","latitude":"49.46912000","longitude":"57.41914000","population":29169,"timezone":"Asia/Aqtobe","type":"adm2","translations":{"es":"Kandyagash","en":"Kandyagash"}},{"name":"Khromtau","state_code":"15","latitude":"50.25117000","longitude":"58.44003000","population":26641,"timezone":"Asia/Almaty","type":"adm2","translations":{"es":"Khromtau","en":"Khromtau"}},{"name":"Martuk","state_code":"15","latitude":"50.74746000","longitude":"56.50611000","population":7756,"timezone":"Asia/Aqtobe","type":"adm2","translations":{"es":"Martuk","en":"Martuk"}},{"name":"Shalqar","state_code":"15","latitude":"47.83333000","longitude":"59.60000000","population":null,"timezone":"Asia/Almaty","type":"city","translations":{"es":"Shalqar","en":"Shalqar"}},{"name":"Shubarkuduk","state_code":"15","latitude":"49.14391000","longitude":"56.48196000","population":14125,"timezone":"Asia/Aqtobe","type":"adm2","translations":{"es":"Shubarkuduk","en":"Shubarkuduk"}},{"name":"Shubarshi","state_code":"15","latitude":"48.58022000","longitude":"57.18289000","population":8651,"timezone":"Asia/Aqtobe","type":"city","translations":{"es":"Shubarshi","en":"Shubarshi"}},{"name":"Temir","state_code":"15","latitude":"49.14132000","longitude":"57.12855000","population":2560,"timezone":"Asia/Aqtobe","type":"city","translations":{"es":"Temir","en":"Temir"}},{"name":"Yrghyz","state_code":"15","latitude":"48.61667000","longitude":"61.26667000","population":null,"timezone":"Asia/Almaty","type":"adm2","translations":{"es":"Yrghyz","en":"Yrghyz"}},{"name":"Bakanas","state_code":"19","latitude":"44.80838000","longitude":"76.27214000","population":5004,"timezone":"Asia/Almaty","type":"adm2","translations":{"es":"Bakanas","en":"Bakanas"}},{"name":"Balpyk Bī","state_code":"19","latitude":"44.90225000","longitude":"78.23157000","population":11810,"timezone":"Asia/Almaty","type":"adm2","translations":{"es":"Balpyk Bi","en":"Balpyk Bī"}},{"name":"Burunday","state_code":"19","latitude":"43.35567000","longitude":"76.85477000","population":20996,"timezone":"Asia/Almaty","type":"city","translations":{"es":"Burunday","en":"Burunday"}},{"name":"Chemolgan","state_code":"19","latitude":"43.37633000","longitude":"76.62456000","population":13616,"timezone":"Asia/Almaty","type":"city","translations":{"es":"Chemolgan","en":"Chemolgan"}},{"name":"Druzhba","state_code":"19","latitude":"45.25332000","longitude":"82.48044000","population":2930,"timezone":"Asia/Almaty","type":"city","translations":{"es":"Druzhba","en":"Druzhba"}},{"name":"Esik","state_code":"19","latitude":"43.35520000","longitude":"77.45245000","population":33032,"timezone":"Asia/Almaty","type":"city","translations":{"es":"Esik","en":"Esik"}},{"name":"Kapshagay","state_code":"19","latitude":"43.86681000","longitude":"77.06304000","population":null,"timezone":"Asia/Almaty","type":"city","translations":{"es":"Kapshagay","en":"Kapshagay"}},{"name":"Kegen","state_code":"19","latitude":"43.02143000","longitude":"79.22055000","population":9049,"timezone":"Asia/Almaty","type":"adm2","translations":{"es":"Kegen","en":"Kegen"}},{"name":"Lepsy","state_code":"19","latitude":"46.23500000","longitude":"78.94556000","population":null,"timezone":"Asia/Almaty","type":"city","translations":{"es":"Lepsia","en":"Lepsy"}},{"name":"Matay","state_code":"19","latitude":"45.89500000","longitude":"78.71806000","population":3000,"timezone":"Asia/Almaty","type":"city","translations":{"es":"Matay","en":"Matay"}},{"name":"Otegen Batyra","state_code":"19","latitude":"43.41949000","longitude":"77.02020000","population":18864,"timezone":"Asia/Almaty","type":"adm2","translations":{"es":"Otegen Batyra","en":"Otegen Batyra"}},{"name":"Pervomayka","state_code":"19","latitude":"43.37361000","longitude":"76.94000000","population":7874,"timezone":"Asia/Almaty","type":"city","translations":{"es":"Pervomayka","en":"Pervomayka"}},{"name":"Sarkand","state_code":"19","latitude":"45.41126000","longitude":"79.91545000","population":76919,"timezone":"Asia/Almaty","type":"adm2","translations":{"es":"Sarkand","en":"Sarkand"}},{"name":"Saryozek","state_code":"19","latitude":"44.36178000","longitude":"77.97279000","population":15359,"timezone":"Asia/Almaty","type":"adm2","translations":{"es":"Saryozek","en":"Saryozek"}},{"name":"Taldykorgan","state_code":"19","latitude":"45.01556000","longitude":"78.37389000","population":116558,"timezone":"Asia/Almaty","type":"adm1","translations":{"es":"Taldykorgan","en":"Taldykorgan"}},{"name":"Talghar","state_code":"19","latitude":"43.30348000","longitude":"77.24085000","population":null,"timezone":"Asia/Almaty","type":"adm2","translations":{"es":"Talghar","en":"Talghar"}},{"name":"Tekeli","state_code":"19","latitude":"44.83322000","longitude":"78.83089000","population":29253,"timezone":"Asia/Almaty","type":"city","translations":{"es":"Tekeli","en":"Tekeli"}},{"name":"Turgen","state_code":"19","latitude":"43.40056000","longitude":"77.59333000","population":13000,"timezone":"Asia/Almaty","type":"city","translations":{"es":"Turgen","en":"Turgen"}},{"name":"Ülken","state_code":"19","latitude":"45.21194000","longitude":"73.97861000","population":3735,"timezone":"Asia/Almaty","type":"city","translations":{"es":"Ülken","en":"Ülken"}},{"name":"Ush-Tyube","state_code":"19","latitude":"45.25201000","longitude":"77.98007000","population":null,"timezone":"Asia/Almaty","type":"adm2","translations":{"es":"Ush-Tyube","en":"Ush-Tyube"}},{"name":"Zharkent","state_code":"19","latitude":"44.16660000","longitude":"80.00655000","population":34422,"timezone":"Asia/Almaty","type":"adm2","translations":{"es":"Zharkent","en":"Zharkent"}},{"name":"Almaty","state_code":"75","latitude":"43.25667000","longitude":"76.92861000","population":2228675,"timezone":"Asia/Almaty","type":"adm1","translations":{"es":"Almaty","en":"Almaty"}},{"name":"Nur-Sultan","state_code":"71","latitude":"51.18010000","longitude":"71.44598000","population":345604,"timezone":"Asia/Almaty","type":"capital","translations":{"es":"Nur-Sultán","en":"Nur-Sultan"}},{"name":"Akkol’","state_code":"23","latitude":"48.77177000","longitude":"53.18580000","population":null,"timezone":"Asia/Almaty","type":"city","translations":{"es":"Akkol’","en":"Akkol’"}},{"name":"Atyrau","state_code":"23","latitude":"47.11667000","longitude":"51.88333000","population":295496,"timezone":"Asia/Atyrau","type":"adm1","translations":{"es":"Atyrau","en":"Atyrau"}},{"name":"Balykshi","state_code":"23","latitude":"47.06667000","longitude":"51.86667000","population":19260,"timezone":"Asia/Atyrau","type":"city","translations":{"es":"Balykshi","en":"Balykshi"}},{"name":"Bayshonas","state_code":"23","latitude":"47.24139000","longitude":"52.94111000","population":null,"timezone":"Asia/Almaty","type":"city","translations":{"es":"Bayshonas","en":"Bayshonas"}},{"name":"Dossor","state_code":"23","latitude":"47.52722000","longitude":"52.98111000","population":13806,"timezone":"Asia/Almaty","type":"city","translations":{"es":"Dossor","en":"Dossor"}},{"name":"Inderbor","state_code":"23","latitude":"48.55000000","longitude":"51.78333000","population":15664,"timezone":"Asia/Atyrau","type":"city","translations":{"es":"Inderbor","en":"Inderbor"}},{"name":"Makhambet","state_code":"23","latitude":"47.66667000","longitude":"51.58333000","population":8905,"timezone":"Asia/Almaty","type":"adm2","translations":{"es":"Makhambet","en":"Makhambet"}},{"name":"Maloye Ganyushkino","state_code":"23","latitude":"46.60000000","longitude":"49.26667000","population":8387,"timezone":"Asia/Atyrau","type":"section","translations":{"es":"Maloye Ganyushkino","en":"Maloye Ganyushkino"}},{"name":"Maqat","state_code":"23","latitude":"47.65000000","longitude":"53.31667000","population":null,"timezone":"Asia/Almaty","type":"city","translations":{"es":"Maqat","en":"Maqat"}},{"name":"Miyaly","state_code":"23","latitude":"48.88504000","longitude":"53.79194000","population":6213,"timezone":"Asia/Atyrau","type":"adm2","translations":{"es":"Miyaly","en":"Miyaly"}},{"name":"Qaraton","state_code":"23","latitude":"46.43528000","longitude":"53.48639000","population":null,"timezone":"Asia/Almaty","type":"city","translations":{"es":"Qaraton","en":"Qaraton"}},{"name":"Qulsary","state_code":"23","latitude":"46.95307000","longitude":"54.01978000","population":51216,"timezone":"Asia/Atyrau","type":"city","translations":{"es":"Qulsary","en":"Qulsary"}},{"name":"Shalkar","state_code":"23","latitude":"48.03333000","longitude":"48.90000000","population":27833,"timezone":"Asia/Atyrau","type":"city","translations":{"es":"Shalkar","en":"Shalkar"}},{"name":"Altayskiy","state_code":"63","latitude":"50.24593000","longitude":"82.36252000","population":2678,"timezone":"Asia/Almaty","type":"city","translations":{"es":"Altayskiy","en":"Altayskiy"}},{"name":"Aqtoghay","state_code":"63","latitude":"46.95000000","longitude":"79.66667000","population":null,"timezone":"Asia/Almaty","type":"city","translations":{"es":"Aqtoghay","en":"Aqtoghay"}},{"name":"Asūbulaq","state_code":"63","latitude":"49.55688000","longitude":"83.06355000","population":null,"timezone":"Asia/Almaty","type":"city","translations":{"es":"Asūbulaq","en":"Asūbulaq"}},{"name":"Auezov","state_code":"63","latitude":"49.71003000","longitude":"81.58018000","population":4209,"timezone":"Asia/Almaty","type":"city","translations":{"es":"Auezov","en":"Auezov"}},{"name":"Ayagoz","state_code":"63","latitude":"47.96447000","longitude":"80.43437000","population":33479,"timezone":"Asia/Almaty","type":"adm2","translations":{"es":"Ayagoz","en":"Ayagoz"}},{"name":"Belogorskīy","state_code":"63","latitude":"49.47698000","longitude":"83.14803000","population":null,"timezone":"Asia/Almaty","type":"city","translations":{"es":"Belogorskiy","en":"Belogorskīy"}},{"name":"Belousovka","state_code":"63","latitude":"50.13287000","longitude":"82.52481000","population":9948,"timezone":"Asia/Almaty","type":"city","translations":{"es":"Belousovka","en":"Belousovka"}},{"name":"Borodulikha","state_code":"63","latitude":"50.71841000","longitude":"80.92950000","population":5931,"timezone":"Asia/Almaty","type":"adm2","translations":{"es":"Borodulikha","en":"Borodulikha"}},{"name":"Georgīevka","state_code":"63","latitude":"49.32671000","longitude":"81.57373000","population":22047,"timezone":"Asia/Almaty","type":"adm2","translations":{"es":"Georgievka","en":"Georgīevka"}},{"name":"Glubokoye","state_code":"63","latitude":"50.13887000","longitude":"82.31114000","population":11192,"timezone":"Asia/Almaty","type":"adm2","translations":{"es":"Glubokoye","en":"Glubokoye"}},{"name":"Kurchatov","state_code":"63","latitude":"50.75617000","longitude":"78.54188000","population":12383,"timezone":"Asia/Almaty","type":"adm2","translations":{"es":"Kurchátov","en":"Kurchatov"}},{"name":"Kurchum","state_code":"63","latitude":"48.56603000","longitude":"83.66146000","population":8800,"timezone":"Asia/Almaty","type":"adm2","translations":{"es":"Kurchum","en":"Kurchum"}},{"name":"Maleyevsk","state_code":"63","latitude":"49.81441000","longitude":"84.29102000","population":2678,"timezone":"Asia/Almaty","type":"city","translations":{"es":"Maleyevsk","en":"Maleyevsk"}},{"name":"Ognevka","state_code":"63","latitude":"49.68351000","longitude":"83.01674000","population":1722,"timezone":"Asia/Almaty","type":"city","translations":{"es":"Ognevka","en":"Ognevka"}},{"name":"Priisk Boko","state_code":"63","latitude":"49.06028000","longitude":"81.64528000","population":null,"timezone":"Asia/Almaty","type":"city","translations":{"es":"Priisk Boko","en":"Priisk Boko"}},{"name":"Qaraūyl","state_code":"63","latitude":"48.94509000","longitude":"79.25502000","population":5261,"timezone":"Asia/Almaty","type":"adm2","translations":{"es":"Qaraulilo","en":"Qaraūyl"}},{"name":"Ridder","state_code":"63","latitude":"50.34413000","longitude":"83.51287000","population":50874,"timezone":"Asia/Almaty","type":"adm2","translations":{"es":"Ridder","en":"Ridder"}},{"name":"Semey","state_code":"63","latitude":"50.42675000","longitude":"80.26669000","population":350201,"timezone":"Asia/Almaty","type":"adm1","translations":{"es":"Semey","en":"Semey"}},{"name":"Shar","state_code":"63","latitude":"49.58720000","longitude":"81.04883000","population":8156,"timezone":"Asia/Almaty","type":"adm2","translations":{"es":"Compartir","en":"Shar"}},{"name":"Shemonaīkha","state_code":"63","latitude":"50.62811000","longitude":"81.91213000","population":18448,"timezone":"Asia/Almaty","type":"adm2","translations":{"es":"Shemonaikha","en":"Shemonaīkha"}},{"name":"Suykbulak","state_code":"63","latitude":"49.70837000","longitude":"81.04854000","population":1244,"timezone":"Asia/Almaty","type":"city","translations":{"es":"Suykbulak","en":"Suykbulak"}},{"name":"Tūghyl","state_code":"63","latitude":"47.72521000","longitude":"84.20629000","population":6696,"timezone":"Asia/Almaty","type":"city","translations":{"es":"Tughyl","en":"Tūghyl"}},{"name":"Urzhar","state_code":"63","latitude":"47.09302000","longitude":"81.62939000","population":14826,"timezone":"Asia/Almaty","type":"city","translations":{"es":"Urzhar","en":"Urzhar"}},{"name":"Ust-Kamenogorsk","state_code":"63","latitude":"49.97143000","longitude":"82.60586000","population":319067,"timezone":"Asia/Almaty","type":"adm1","translations":{"es":"Ust-Kamenogorsk","en":"Ust-Kamenogorsk"}},{"name":"Ūst’-Talovka","state_code":"63","latitude":"50.54927000","longitude":"81.84997000","population":6122,"timezone":"Asia/Almaty","type":"city","translations":{"es":"Ūst’-Talovka","en":"Ūst’-Talovka"}},{"name":"Zaysan","state_code":"63","latitude":"47.46657000","longitude":"84.87144000","population":18430,"timezone":"Asia/Almaty","type":"city","translations":{"es":"Zaysan","en":"Zaysan"}},{"name":"Zhalghyztobe","state_code":"63","latitude":"49.21094000","longitude":"81.21596000","population":4400,"timezone":"Asia/Almaty","type":"city","translations":{"es":"Zhalghyztobe","en":"Zhalghyztobe"}},{"name":"Zhanga Buqtyrma","state_code":"63","latitude":"49.62950000","longitude":"83.52475000","population":null,"timezone":"Asia/Almaty","type":"city","translations":{"es":"Zhanga Buqtyrma","en":"Zhanga Buqtyrma"}},{"name":"Zhezkent","state_code":"63","latitude":"50.93112000","longitude":"81.36150000","population":8896,"timezone":"Asia/Almaty","type":"city","translations":{"es":"Zhezkent","en":"Zhezkent"}},{"name":"Zyryanovsk","state_code":"63","latitude":"49.72654000","longitude":"84.27318000","population":null,"timezone":"Asia/Almaty","type":"city","translations":{"es":"Zyryanovsk","en":"Zyryanovsk"}},{"name":"Aqbaqay","state_code":"31","latitude":"45.00000000","longitude":"72.78333000","population":1804,"timezone":"Asia/Almaty","type":"city","translations":{"es":"Aqbaqay","en":"Aqbaqay"}},{"name":"Chu","state_code":"31","latitude":"43.60334000","longitude":"73.75919000","population":null,"timezone":"Asia/Almaty","type":"city","translations":{"es":"Chu","en":"Chu"}},{"name":"Georgiyevka","state_code":"31","latitude":"43.03882000","longitude":"74.71287000","population":9821,"timezone":"Asia/Almaty","type":"city","translations":{"es":"Georgiyevka","en":"Georgiyevka"}},{"name":"Granitogorsk","state_code":"31","latitude":"42.74400000","longitude":"73.46848000","population":2004,"timezone":"Asia/Almaty","type":"city","translations":{"es":"Granitogorsk","en":"Granitogorsk"}},{"name":"Karatau","state_code":"31","latitude":"43.17869000","longitude":"70.46768000","population":30204,"timezone":"Asia/Almaty","type":"adm2","translations":{"es":"Karatau","en":"Karatau"}},{"name":"Khantaū","state_code":"31","latitude":"44.22744000","longitude":"73.79555000","population":1403,"timezone":"Asia/Almaty","type":"city","translations":{"es":"Khantaū","en":"Khantaū"}},{"name":"Lugovoy","state_code":"31","latitude":"42.94197000","longitude":"72.76098000","population":10422,"timezone":"Asia/Almaty","type":"city","translations":{"es":"Lugovoy","en":"Lugovoy"}},{"name":"Lugovoye","state_code":"31","latitude":"42.91010000","longitude":"72.72066000","population":null,"timezone":"Asia/Almaty","type":"adm2","translations":{"es":"Lugovoye","en":"Lugovoye"}},{"name":"Merke","state_code":"31","latitude":"42.86976000","longitude":"73.18463000","population":null,"timezone":"Asia/Almaty","type":"adm2","translations":{"es":"Merke","en":"Merke"}},{"name":"Moyynkum","state_code":"31","latitude":"44.28461000","longitude":"72.93920000","population":null,"timezone":"Asia/Almaty","type":"adm2","translations":{"es":"Moyynkum","en":"Moyynkum"}},{"name":"Mynaral","state_code":"31","latitude":"45.41611000","longitude":"73.68444000","population":1303,"timezone":"Asia/Almaty","type":"city","translations":{"es":"Mynaral","en":"Mynaral"}},{"name":"Oytal","state_code":"31","latitude":"42.90573000","longitude":"73.26972000","population":9821,"timezone":"Asia/Almaty","type":"city","translations":{"es":"Oytal","en":"Oytal"}},{"name":"Sarykemer","state_code":"31","latitude":"43.00000000","longitude":"71.50000000","population":15132,"timezone":"Asia/Almaty","type":"adm2","translations":{"es":"Sarykemer","en":"Sarykemer"}},{"name":"Shyghanaq","state_code":"31","latitude":"44.83056000","longitude":"70.00194000","population":null,"timezone":"Asia/Almaty","type":"city","translations":{"es":"Shyghanaq","en":"Shyghanaq"}},{"name":"Taraz","state_code":"31","latitude":"42.90000000","longitude":"71.36667000","population":418368,"timezone":"Asia/Almaty","type":"adm1","translations":{"es":"Taraz","en":"Taraz"}},{"name":"Zhangatas","state_code":"31","latitude":"43.56222000","longitude":"69.73428000","population":null,"timezone":"Asia/Almaty","type":"adm2","translations":{"es":"Zhangatas","en":"Zhangatas"}},{"name":"Abay","state_code":"35","latitude":"49.63575000","longitude":"72.86164000","population":25550,"timezone":"Asia/Almaty","type":"adm2","translations":{"es":"Abay","en":"Abay"}},{"name":"Abay Qalasy","state_code":"35","latitude":"49.63333000","longitude":"72.88333000","population":0,"timezone":"Asia/Almaty","type":"city","translations":{"es":"Abay Qalasy","en":"Abay Qalasy"}},{"name":"Aksu-Ayuly","state_code":"35","latitude":"48.76788000","longitude":"73.67272000","population":4587,"timezone":"Asia/Almaty","type":"adm2","translations":{"es":"Aksu-Ayuly","en":"Aksu-Ayuly"}},{"name":"Aktas","state_code":"35","latitude":"49.77952000","longitude":"72.96128000","population":9888,"timezone":"Asia/Almaty","type":"city","translations":{"es":"Aktas","en":"Aktas"}},{"name":"Aktau","state_code":"35","latitude":"48.03333000","longitude":"72.83333000","population":9977,"timezone":"Asia/Almaty","type":"city","translations":{"es":"Aktau","en":"Aktau"}},{"name":"Aktogay","state_code":"35","latitude":"48.16667000","longitude":"75.30000000","population":3741,"timezone":"Asia/Almaty","type":"city","translations":{"es":"Aktogay","en":"Aktogay"}},{"name":"Aqadyr","state_code":"35","latitude":"48.26014000","longitude":"72.85851000","population":9710,"timezone":"Asia/Almaty","type":"city","translations":{"es":"Aqadyr","en":"Aqadyr"}},{"name":"Aqshataū","state_code":"35","latitude":"47.98917000","longitude":"74.05750000","population":4899,"timezone":"Asia/Almaty","type":"city","translations":{"es":"Aqshataū","en":"Aqshataū"}},{"name":"Aqtoghay Aūdany","state_code":"35","latitude":"48.50000000","longitude":"74.75000000","population":null,"timezone":"Asia/Almaty","type":"city","translations":{"es":"Aqtoghay Aūdany","en":"Aqtoghay Aūdany"}},{"name":"Atasū","state_code":"35","latitude":"48.68659000","longitude":"71.64469000","population":null,"timezone":"Asia/Almaty","type":"city","translations":{"es":"Atasū","en":"Atasū"}},{"name":"Balqash","state_code":"35","latitude":"46.84806000","longitude":"74.99500000","population":null,"timezone":"Asia/Almaty","type":"adm2","translations":{"es":"Balqash","en":"Balqash"}},{"name":"Bukhar-Zhyrau","state_code":"35","latitude":"49.85658000","longitude":"73.68118000","population":64003,"timezone":"Asia/Almaty","type":"city","translations":{"es":"Bujar-Zhyrau","en":"Bukhar-Zhyrau"}},{"name":"Dolinka","state_code":"35","latitude":"49.67685000","longitude":"72.67822000","population":4643,"timezone":"Asia/Almaty","type":"city","translations":{"es":"Dolinka","en":"Dolinka"}},{"name":"Karagandy","state_code":"35","latitude":"49.80187000","longitude":"73.10211000","population":497777,"timezone":"Asia/Almaty","type":"adm1","translations":{"es":"Karagandy","en":"Karagandy"}},{"name":"Kīevka","state_code":"35","latitude":"50.26212000","longitude":"71.54839000","population":7037,"timezone":"Asia/Almaty","type":"adm2","translations":{"es":"Kievka","en":"Kīevka"}},{"name":"Koktal","state_code":"35","latitude":"49.65000000","longitude":"73.51667000","population":1403,"timezone":"Asia/Almaty","type":"city","translations":{"es":"Koktal","en":"Koktal"}},{"name":"Kushoky","state_code":"35","latitude":"50.23091000","longitude":"73.40146000","population":3920,"timezone":"Asia/Almaty","type":"city","translations":{"es":"Kushoky","en":"Kushoky"}},{"name":"Kyzylzhar","state_code":"35","latitude":"49.98197000","longitude":"72.60761000","population":1514,"timezone":"Asia/Almaty","type":"city","translations":{"es":"Kyzylzhar","en":"Kyzylzhar"}},{"name":"Moyynty","state_code":"35","latitude":"47.22111000","longitude":"73.36694000","population":1860,"timezone":"Asia/Almaty","type":"city","translations":{"es":"Moyynty","en":"Moyynty"}},{"name":"Novodolinskiy","state_code":"35","latitude":"49.70650000","longitude":"72.70807000","population":5167,"timezone":"Asia/Almaty","type":"city","translations":{"es":"Novodolinskiy","en":"Novodolinskiy"}},{"name":"Osakarovka","state_code":"35","latitude":"50.56219000","longitude":"72.57089000","population":7305,"timezone":"Asia/Almaty","type":"adm2","translations":{"es":"Osakarovka","en":"Osakarovka"}},{"name":"Prigorodnoye","state_code":"35","latitude":"49.69244000","longitude":"75.58438000","population":3563,"timezone":"Asia/Almaty","type":"city","translations":{"es":"Prigorodnoye","en":"Prigorodnoye"}},{"name":"Priozersk","state_code":"35","latitude":"46.03106000","longitude":"73.70247000","population":13329,"timezone":"Asia/Almaty","type":"city","translations":{"es":"Priozersk","en":"Priozersk"}},{"name":"Qarazhal","state_code":"35","latitude":"48.00627000","longitude":"70.79607000","population":null,"timezone":"Asia/Almaty","type":"adm2","translations":{"es":"Qarazhal","en":"Qarazhal"}},{"name":"Qarqaraly","state_code":"35","latitude":"49.41287000","longitude":"75.47286000","population":8195,"timezone":"Asia/Almaty","type":"adm2","translations":{"es":"Qarqaraly","en":"Qarqaraly"}},{"name":"Saryshaghan","state_code":"35","latitude":"46.11917000","longitude":"73.61917000","population":4365,"timezone":"Asia/Almaty","type":"city","translations":{"es":"Saryshaghan","en":"Saryshaghan"}},{"name":"Sayaq","state_code":"35","latitude":"47.00000000","longitude":"77.26667000","population":4500,"timezone":"Asia/Almaty","type":"city","translations":{"es":"Sayaq","en":"Sayaq"}},{"name":"Shakhan","state_code":"35","latitude":"49.81958000","longitude":"72.65407000","population":13273,"timezone":"Asia/Almaty","type":"city","translations":{"es":"Shakhan","en":"Shakhan"}},{"name":"Shakhtinsk","state_code":"35","latitude":"49.70885000","longitude":"72.59212000","population":41602,"timezone":"Asia/Almaty","type":"adm2","translations":{"es":"Shakhtinsk","en":"Shakhtinsk"}},{"name":"Shashūbay","state_code":"35","latitude":"46.81694000","longitude":"75.04028000","population":null,"timezone":"Asia/Almaty","type":"city","translations":{"es":"Shashūbay","en":"Shashūbay"}},{"name":"Shubarköl","state_code":"35","latitude":"48.88222000","longitude":"68.80722000","population":1247,"timezone":"Asia/Almaty","type":"city","translations":{"es":"Aceite de Shubark","en":"Shubarköl"}},{"name":"Soran","state_code":"35","latitude":"49.79080000","longitude":"72.83744000","population":null,"timezone":"Asia/Almaty","type":"adm2","translations":{"es":"Soran","en":"Soran"}},{"name":"Temirtau","state_code":"35","latitude":"50.05494000","longitude":"72.96464000","population":296523,"timezone":"Asia/Almaty","type":"adm2","translations":{"es":"Temirtau","en":"Temirtau"}},{"name":"Tokarevka","state_code":"35","latitude":"50.11573000","longitude":"73.16034000","population":4098,"timezone":"Asia/Almaty","type":"city","translations":{"es":"Tokarevka","en":"Tokarevka"}},{"name":"Verkhniye Kayrakty","state_code":"35","latitude":"48.68333000","longitude":"73.28333000","population":1158,"timezone":"Asia/Almaty","type":"city","translations":{"es":"Verkhniye Kayrakty","en":"Verkhniye Kayrakty"}},{"name":"Zhambyl","state_code":"35","latitude":"47.20694000","longitude":"71.39694000","population":23397,"timezone":"Asia/Almaty","type":"city","translations":{"es":"Zhambyl","en":"Zhambyl"}},{"name":"Zharyk","state_code":"35","latitude":"48.85692000","longitude":"72.83598000","population":2940,"timezone":"Asia/Almaty","type":"city","translations":{"es":"Zharyk","en":"Zharyk"}},{"name":"Zhezqazghan","state_code":"35","latitude":"47.78333000","longitude":"67.76667000","population":null,"timezone":"Asia/Almaty","type":"city","translations":{"es":"Zhezqazghan","en":"Zhezqazghan"}},{"name":"Arkalyk","state_code":"39","latitude":"50.24915000","longitude":"66.92027000","population":28169,"timezone":"Asia/Almaty","type":"adm2","translations":{"es":"Arkalik","en":"Arkalyk"}},{"name":"Ayat","state_code":"39","latitude":"52.83554000","longitude":"62.52078000","population":3130,"timezone":"Asia/Qostanay","type":"city","translations":{"es":"Ayat","en":"Ayat"}},{"name":"Borovskoy","state_code":"39","latitude":"53.79270000","longitude":"64.18268000","population":9659,"timezone":"Asia/Qostanay","type":"adm2","translations":{"es":"Borovskoy","en":"Borovskoy"}},{"name":"Dzhetygara","state_code":"39","latitude":"52.19019000","longitude":"61.19894000","population":43104,"timezone":"Asia/Qostanay","type":"adm2","translations":{"es":"Dzhetygara","en":"Dzhetygara"}},{"name":"Fyodorovka","state_code":"39","latitude":"53.63809000","longitude":"62.69653000","population":8317,"timezone":"Asia/Qostanay","type":"adm2","translations":{"es":"Fyodorovka","en":"Fyodorovka"}},{"name":"Karasu","state_code":"39","latitude":"52.65995000","longitude":"65.48421000","population":3554,"timezone":"Asia/Qostanay","type":"adm2","translations":{"es":"Karasu","en":"Karasu"}},{"name":"Komsomolets","state_code":"39","latitude":"53.75019000","longitude":"62.05840000","population":null,"timezone":"Asia/Almaty","type":"city","translations":{"es":"Komsomolets","en":"Komsomolets"}},{"name":"Kostanay","state_code":"39","latitude":"53.21435000","longitude":"63.62463000","population":258990,"timezone":"Asia/Qostanay","type":"adm1","translations":{"es":"Kostanái","en":"Kostanay"}},{"name":"Lisakovsk","state_code":"39","latitude":"52.54707000","longitude":"62.49987000","population":40000,"timezone":"Asia/Qostanay","type":"adm2","translations":{"es":"Lisakovski","en":"Lisakovsk"}},{"name":"Ordzhonikidze","state_code":"39","latitude":"52.44772000","longitude":"61.74942000","population":null,"timezone":"Asia/Almaty","type":"city","translations":{"es":"Ordzhonikidze","en":"Ordzhonikidze"}},{"name":"Qashar","state_code":"39","latitude":"53.36799000","longitude":"62.86839000","population":10285,"timezone":"Asia/Qostanay","type":"city","translations":{"es":"Qashar","en":"Qashar"}},{"name":"Qusmuryn","state_code":"39","latitude":"52.45107000","longitude":"64.61977000","population":null,"timezone":"Asia/Almaty","type":"adm3","translations":{"es":"Qusmuryn","en":"Qusmuryn"}},{"name":"Rudnyy","state_code":"39","latitude":"52.97290000","longitude":"63.11677000","population":null,"timezone":"Asia/Almaty","type":"adm2","translations":{"es":"Rudnyy","en":"Rudnyy"}},{"name":"Tobol","state_code":"39","latitude":"52.69366000","longitude":"62.59140000","population":7155,"timezone":"Asia/Qostanay","type":"city","translations":{"es":"Tobol","en":"Tobol"}},{"name":"Torghay","state_code":"39","latitude":"49.63389000","longitude":"63.49806000","population":null,"timezone":"Asia/Almaty","type":"adm2","translations":{"es":"Torghay","en":"Torghay"}},{"name":"Troyebratskiy","state_code":"39","latitude":"54.44306000","longitude":"66.07982000","population":2951,"timezone":"Asia/Qostanay","type":"city","translations":{"es":"Troyebratskiy","en":"Troyebratskiy"}},{"name":"Aral","state_code":"43","latitude":"46.80000000","longitude":"61.66667000","population":0,"timezone":"Asia/Almaty","type":"adm2","translations":{"es":"Aral","en":"Aral"}},{"name":"Ayteke Bi","state_code":"43","latitude":"45.84607000","longitude":"62.15264000","population":44502,"timezone":"Asia/Almaty","type":"city","translations":{"es":"Ayteke Bi","en":"Ayteke Bi"}},{"name":"Belköl","state_code":"43","latitude":"44.81162000","longitude":"65.58796000","population":1486,"timezone":"Asia/Qyzylorda","type":"city","translations":{"es":"Belköl","en":"Belköl"}},{"name":"Dzhalagash","state_code":"43","latitude":"45.08333000","longitude":"64.66667000","population":null,"timezone":"Asia/Almaty","type":"adm2","translations":{"es":"Dzhalagash","en":"Dzhalagash"}},{"name":"Kyzylorda","state_code":"43","latitude":"44.85278000","longitude":"65.50917000","population":354800,"timezone":"Asia/Qyzylorda","type":"adm1","translations":{"es":"Kyzylorda","en":"Kyzylorda"}},{"name":"Qazaly","state_code":"43","latitude":"45.76278000","longitude":"62.10750000","population":78517,"timezone":"Asia/Almaty","type":"city","translations":{"es":"Qazaly","en":"Qazaly"}},{"name":"Sekseūil","state_code":"43","latitude":"47.09000000","longitude":"61.15194000","population":null,"timezone":"Asia/Almaty","type":"city","translations":{"es":"Sexo","en":"Sekseūil"}},{"name":"Shalqīya","state_code":"43","latitude":"44.00947000","longitude":"67.41062000","population":3822,"timezone":"Asia/Qyzylorda","type":"city","translations":{"es":"Shalqiya","en":"Shalqīya"}},{"name":"Shīeli","state_code":"43","latitude":"44.16882000","longitude":"66.73887000","population":31691,"timezone":"Asia/Almaty","type":"adm2","translations":{"es":"Shieli","en":"Shīeli"}},{"name":"Tasböget","state_code":"43","latitude":"44.77384000","longitude":"65.55227000","population":null,"timezone":"Asia/Almaty","type":"city","translations":{"es":"Tasböget","en":"Tasböget"}},{"name":"Terenozek","state_code":"43","latitude":"45.05053000","longitude":"64.98395000","population":9661,"timezone":"Asia/Qyzylorda","type":"adm2","translations":{"es":"Terenozek","en":"Terenozek"}},{"name":"Yanykurgan","state_code":"43","latitude":"43.90652000","longitude":"67.24637000","population":21339,"timezone":"Asia/Qyzylorda","type":"adm2","translations":{"es":"Yanykurgan","en":"Yanykurgan"}},{"name":"Zhosaly","state_code":"43","latitude":"45.48778000","longitude":"64.07806000","population":18563,"timezone":"Asia/Qyzylorda","type":"adm2","translations":{"es":"Zhosaly","en":"Zhosaly"}},{"name":"Aktau","state_code":"47","latitude":"43.65000000","longitude":"51.16667000","population":261907,"timezone":"Asia/Almaty","type":"adm1","translations":{"es":"Aktau","en":"Aktau"}},{"name":"Baūtīno","state_code":"47","latitude":"44.54479000","longitude":"50.24629000","population":3247,"timezone":"Asia/Aqtau","type":"city","translations":{"es":"Bautino","en":"Baūtīno"}},{"name":"Beyneu","state_code":"47","latitude":"45.31667000","longitude":"55.20000000","population":14245,"timezone":"Asia/Aqtau","type":"adm2","translations":{"es":"Beyneu","en":"Beyneu"}},{"name":"Fort-Shevchenko","state_code":"47","latitude":"44.50654000","longitude":"50.26388000","population":5213,"timezone":"Asia/Aqtau","type":"adm2","translations":{"es":"Fuerte Shevchenko","en":"Fort-Shevchenko"}},{"name":"Munayshy","state_code":"47","latitude":"43.49111000","longitude":"52.10861000","population":null,"timezone":"Asia/Almaty","type":"city","translations":{"es":"Munayshy","en":"Munayshy"}},{"name":"Ömirzaq","state_code":"47","latitude":"43.59786000","longitude":"51.24171000","population":1885,"timezone":"Asia/Aqtau","type":"city","translations":{"es":"Ömirzaq","en":"Ömirzaq"}},{"name":"Sayötesh","state_code":"47","latitude":"44.32781000","longitude":"53.53246000","population":1571,"timezone":"Asia/Aqtau","type":"city","translations":{"es":"Sayötesh","en":"Sayötesh"}},{"name":"Shetpe","state_code":"47","latitude":"44.16667000","longitude":"52.11667000","population":11836,"timezone":"Asia/Almaty","type":"city","translations":{"es":"Shetpe","en":"Shetpe"}},{"name":"Taūshyq","state_code":"47","latitude":"44.34678000","longitude":"51.34932000","population":2600,"timezone":"Asia/Aqtau","type":"city","translations":{"es":"Taūshyq","en":"Taūshyq"}},{"name":"Yeraliyev","state_code":"47","latitude":"43.18032000","longitude":"51.68116000","population":11836,"timezone":"Asia/Aqtau","type":"adm2","translations":{"es":"Yeraliyev","en":"Yeraliyev"}},{"name":"Zhanaozen","state_code":"47","latitude":"43.34116000","longitude":"52.86192000","population":103598,"timezone":"Asia/Aqtau","type":"city","translations":{"es":"Zhanaozen","en":"Zhanaozen"}},{"name":"Zhetibay","state_code":"47","latitude":"43.59417000","longitude":"52.07889000","population":11731,"timezone":"Asia/Almaty","type":"city","translations":{"es":"Zhetibay","en":"Zhetibay"}},{"name":"Birlestik","state_code":"59","latitude":"53.58414000","longitude":"68.35382000","population":1354,"timezone":"Asia/Almaty","type":"city","translations":{"es":"Birlestik","en":"Birlestik"}},{"name":"Bishkul","state_code":"59","latitude":"54.77763000","longitude":"69.09951000","population":5423,"timezone":"Asia/Almaty","type":"city","translations":{"es":"Biskul","en":"Bishkul"}},{"name":"Bulayevo","state_code":"59","latitude":"54.90596000","longitude":"70.44155000","population":8433,"timezone":"Asia/Almaty","type":"adm2","translations":{"es":"Bulayevo","en":"Bulayevo"}},{"name":"Būrabay","state_code":"59","latitude":"53.08382000","longitude":"70.31379000","population":6500,"timezone":"Asia/Almaty","type":"city","translations":{"es":"Burabay","en":"Būrabay"}},{"name":"Kzyltu","state_code":"59","latitude":"53.63589000","longitude":"72.34079000","population":null,"timezone":"Asia/Almaty","type":"city","translations":{"es":"Kzyltu","en":"Kzyltu"}},{"name":"Novoishimskiy","state_code":"59","latitude":"53.19806000","longitude":"66.76944000","population":6062,"timezone":"Asia/Almaty","type":"city","translations":{"es":"Novoishimskiy","en":"Novoishimskiy"}},{"name":"Petropavl","state_code":"59","latitude":"54.86667000","longitude":"69.15000000","population":222044,"timezone":"Asia/Almaty","type":"adm1","translations":{"es":"Petropavl","en":"Petropavl"}},{"name":"Sergeyevka","state_code":"59","latitude":"53.88139000","longitude":"67.40882000","population":8845,"timezone":"Asia/Almaty","type":"adm2","translations":{"es":"Sergeevka","en":"Sergeyevka"}},{"name":"Smirnovo","state_code":"59","latitude":"54.51480000","longitude":"69.42732000","population":5742,"timezone":"Asia/Almaty","type":"adm2","translations":{"es":"Smirnovo","en":"Smirnovo"}},{"name":"Taiynsha","state_code":"59","latitude":"53.84796000","longitude":"69.76773000","population":13148,"timezone":"Asia/Almaty","type":"city","translations":{"es":"Taiynsha","en":"Taiynsha"}},{"name":"Talshik","state_code":"59","latitude":"53.63736000","longitude":"71.87404000","population":3111,"timezone":"Asia/Almaty","type":"adm2","translations":{"es":"Talshik","en":"Talshik"}},{"name":"Timiryazevo","state_code":"59","latitude":"53.74947000","longitude":"66.48852000","population":4147,"timezone":"Asia/Almaty","type":"adm2","translations":{"es":"Timiryazevo","en":"Timiryazevo"}},{"name":"Volodarskoye","state_code":"59","latitude":"53.29270000","longitude":"68.10500000","population":2074,"timezone":"Asia/Almaty","type":"adm2","translations":{"es":"Volodarskoye","en":"Volodarskoye"}},{"name":"Yavlenka","state_code":"59","latitude":"54.34525000","longitude":"68.45740000","population":5478,"timezone":"Asia/Almaty","type":"adm2","translations":{"es":"Yavlenka","en":"Yavlenka"}},{"name":"Aksu","state_code":"55","latitude":"52.04023000","longitude":"76.92748000","population":39675,"timezone":"Asia/Almaty","type":"adm2","translations":{"es":"Aksu","en":"Aksu"}},{"name":"Bayanaul","state_code":"55","latitude":"50.79304000","longitude":"75.70123000","population":5700,"timezone":"Asia/Almaty","type":"adm2","translations":{"es":"Bayanaul","en":"Bayanaul"}},{"name":"Belogor’ye","state_code":"55","latitude":"51.52983000","longitude":"77.47146000","population":3610,"timezone":"Asia/Almaty","type":"adm2","translations":{"es":"Belogor'ye","en":"Belogor’ye"}},{"name":"Ekibastuz","state_code":"55","latitude":"51.72371000","longitude":"75.32287000","population":121470,"timezone":"Asia/Almaty","type":"adm2","translations":{"es":"Ekibastuz","en":"Ekibastuz"}},{"name":"Irtyshsk","state_code":"55","latitude":"53.33365000","longitude":"75.45775000","population":9216,"timezone":"Asia/Almaty","type":"adm2","translations":{"es":"Irtishsk","en":"Irtyshsk"}},{"name":"Kalkaman","state_code":"55","latitude":"51.95349000","longitude":"76.02723000","population":5415,"timezone":"Asia/Almaty","type":"city","translations":{"es":"Kalkaman","en":"Kalkaman"}},{"name":"Leninskiy","state_code":"55","latitude":"52.25346000","longitude":"76.78211000","population":8646,"timezone":"Asia/Almaty","type":"city","translations":{"es":"Leninskiy","en":"Leninskiy"}},{"name":"Mayqayyng","state_code":"55","latitude":"51.45981000","longitude":"75.80232000","population":7695,"timezone":"Asia/Almaty","type":"city","translations":{"es":"Mayqayyng","en":"Mayqayyng"}},{"name":"Pavlodar","state_code":"55","latitude":"52.28333000","longitude":"76.96667000","population":333190,"timezone":"Asia/Almaty","type":"adm1","translations":{"es":"Pavlodar","en":"Pavlodar"}},{"name":"Qashyr","state_code":"55","latitude":"53.06649000","longitude":"76.10489000","population":null,"timezone":"Asia/Almaty","type":"city","translations":{"es":"Qashyr","en":"Qashyr"}},{"name":"Zhelezinka","state_code":"55","latitude":"53.53880000","longitude":"75.31326000","population":5189,"timezone":"Asia/Almaty","type":"adm2","translations":{"es":"Zhelezinka","en":"Zhelezinka"}},{"name":"Arys","state_code":"61","latitude":"42.43015000","longitude":"68.80870000","population":36285,"timezone":"Asia/Almaty","type":"adm2","translations":{"es":"Arys","en":"Arys"}},{"name":"Ashchysay","state_code":"61","latitude":"43.55370000","longitude":"68.89792000","population":5635,"timezone":"Asia/Almaty","type":"city","translations":{"es":"Ashchysay","en":"Ashchysay"}},{"name":"Asyqata","state_code":"61","latitude":"40.89460000","longitude":"68.36430000","population":11378,"timezone":"Asia/Almaty","type":"city","translations":{"es":"Asiqata","en":"Asyqata"}},{"name":"Atakent","state_code":"61","latitude":"40.84782000","longitude":"68.50643000","population":12895,"timezone":"Asia/Almaty","type":"city","translations":{"es":"Atakent","en":"Atakent"}},{"name":"Bayzhansay","state_code":"61","latitude":"43.16708000","longitude":"69.91459000","population":2384,"timezone":"Asia/Almaty","type":"city","translations":{"es":"Bayzhansay","en":"Bayzhansay"}},{"name":"Belyye Vody","state_code":"61","latitude":"42.42193000","longitude":"69.82709000","population":null,"timezone":"Asia/Almaty","type":"city","translations":{"es":"Belyye Vody","en":"Belyye Vody"}},{"name":"Chardara","state_code":"61","latitude":"41.25832000","longitude":"67.96991000","population":null,"timezone":"Asia/Almaty","type":"city","translations":{"es":"Chardara","en":"Chardara"}},{"name":"Chayan","state_code":"61","latitude":"43.03399000","longitude":"69.38048000","population":null,"timezone":"Asia/Almaty","type":"city","translations":{"es":"Chayán","en":"Chayan"}},{"name":"Chulakkurgan","state_code":"61","latitude":"43.76453000","longitude":"69.17856000","population":null,"timezone":"Asia/Almaty","type":"city","translations":{"es":"Chulakkurgan","en":"Chulakkurgan"}},{"name":"Kantagi","state_code":"61","latitude":"43.52786000","longitude":"68.58287000","population":10186,"timezone":"Asia/Almaty","type":"section","translations":{"es":"Kantagi","en":"Kantagi"}},{"name":"Kentau","state_code":"61","latitude":"43.51672000","longitude":"68.50463000","population":57408,"timezone":"Asia/Almaty","type":"adm2","translations":{"es":"Kentau","en":"Kentau"}},{"name":"Kokterek","state_code":"61","latitude":"42.49442000","longitude":"70.25478000","population":2384,"timezone":"Asia/Almaty","type":"city","translations":{"es":"Kokterek","en":"Kokterek"}},{"name":"Lenger","state_code":"61","latitude":"42.18152000","longitude":"69.88582000","population":24642,"timezone":"Asia/Almaty","type":"adm2","translations":{"es":"Lenger","en":"Lenger"}},{"name":"Leninskoye","state_code":"61","latitude":"41.75640000","longitude":"69.38390000","population":null,"timezone":"Asia/Almaty","type":"city","translations":{"es":"Leninskoye","en":"Leninskoye"}},{"name":"Maqtaaral Aūdany","state_code":"61","latitude":"40.75000000","longitude":"68.58333000","population":null,"timezone":"Asia/Almaty","type":"city","translations":{"es":"Maqtaaral Aūdany","en":"Maqtaaral Aūdany"}},{"name":"Myrzakent","state_code":"61","latitude":"40.66338000","longitude":"68.54510000","population":9752,"timezone":"Asia/Almaty","type":"adm2","translations":{"es":"Myrzakent","en":"Myrzakent"}},{"name":"Qogham","state_code":"61","latitude":"42.82774000","longitude":"68.28074000","population":2276,"timezone":"Asia/Almaty","type":"city","translations":{"es":"Qogham","en":"Qogham"}},{"name":"Saryaghash","state_code":"61","latitude":"41.46042000","longitude":"69.16791000","population":25139,"timezone":"Asia/Almaty","type":"city","translations":{"es":"Saryaghash","en":"Saryaghash"}},{"name":"Saryaghash Aūdany","state_code":"61","latitude":"41.66667000","longitude":"68.83333000","population":null,"timezone":"Asia/Almaty","type":"city","translations":{"es":"Saryaghash Aūdany","en":"Saryaghash Aūdany"}},{"name":"Sastobe","state_code":"61","latitude":"42.55330000","longitude":"69.99835000","population":6827,"timezone":"Asia/Almaty","type":"city","translations":{"es":"Sastobe","en":"Sastobe"}},{"name":"Sozaq Aūdany","state_code":"61","latitude":"44.83333000","longitude":"68.50000000","population":null,"timezone":"Asia/Almaty","type":"city","translations":{"es":"Sozaq Aūdany","en":"Sozaq Aūdany"}},{"name":"Temirlanovka","state_code":"61","latitude":"42.59998000","longitude":"69.25836000","population":12245,"timezone":"Asia/Almaty","type":"adm2","translations":{"es":"Temirlanovka","en":"Temirlanovka"}},{"name":"Turar Ryskulov","state_code":"61","latitude":"42.53340000","longitude":"70.34960000","population":18421,"timezone":"Asia/Almaty","type":"city","translations":{"es":"Turar Ryskulov","en":"Turar Ryskulov"}},{"name":"Turkestan","state_code":"61","latitude":"43.29733000","longitude":"68.25175000","population":null,"timezone":"Asia/Almaty","type":"adm1","translations":{"es":"Turkestán","en":"Turkestan"}},{"name":"Tyul’kubas","state_code":"61","latitude":"42.48578000","longitude":"70.29601000","population":10802,"timezone":"Asia/Almaty","type":"city","translations":{"es":"Tyul'kubas","en":"Tyul’kubas"}},{"name":"Zhabagly","state_code":"61","latitude":"42.43781000","longitude":"70.47841000","population":2000,"timezone":"Asia/Almaty","type":"city","translations":{"es":"Zhabagly","en":"Zhabagly"}},{"name":"Aqsay","state_code":"27","latitude":"51.16810000","longitude":"52.99782000","population":34799,"timezone":"Asia/Oral","type":"city","translations":{"es":"Aqsay","en":"Aqsay"}},{"name":"Burlin","state_code":"27","latitude":"51.42724000","longitude":"52.71392000","population":3593,"timezone":"Asia/Almaty","type":"city","translations":{"es":"Burlín","en":"Burlin"}},{"name":"Chapaev","state_code":"27","latitude":"50.20000000","longitude":"51.16667000","population":6000,"timezone":"Asia/Almaty","type":"adm2","translations":{"es":"Chapaev","en":"Chapaev"}},{"name":"Chingirlau","state_code":"27","latitude":"51.09878000","longitude":"54.08426000","population":null,"timezone":"Asia/Almaty","type":"city","translations":{"es":"Chingirlau","en":"Chingirlau"}},{"name":"Dzhambeyty","state_code":"27","latitude":"50.25676000","longitude":"52.59895000","population":null,"timezone":"Asia/Almaty","type":"adm2","translations":{"es":"Dzhambeyty","en":"Dzhambeyty"}},{"name":"Fedorovka","state_code":"27","latitude":"51.22102000","longitude":"51.95723000","population":5338,"timezone":"Asia/Oral","type":"adm2","translations":{"es":"Fedorovka","en":"Fedorovka"}},{"name":"Kaztalovka","state_code":"27","latitude":"49.76612000","longitude":"48.68903000","population":4825,"timezone":"Asia/Oral","type":"adm2","translations":{"es":"Kaztalovka","en":"Kaztalovka"}},{"name":"Krūgloozernoe","state_code":"27","latitude":"51.07854000","longitude":"51.28992000","population":2977,"timezone":"Asia/Oral","type":"city","translations":{"es":"Krūgloozernoe","en":"Krūgloozernoe"}},{"name":"Oral","state_code":"27","latitude":"51.23333000","longitude":"51.36667000","population":235764,"timezone":"Asia/Almaty","type":"city","translations":{"es":"Oral","en":"Oral"}},{"name":"Peremetnoe","state_code":"27","latitude":"51.19925000","longitude":"50.85544000","population":null,"timezone":"Asia/Almaty","type":"city","translations":{"es":"Peremetnoe","en":"Peremetnoe"}},{"name":"Saykhin","state_code":"27","latitude":"48.85611000","longitude":"46.83361000","population":4825,"timezone":"Asia/Oral","type":"city","translations":{"es":"Saykhin","en":"Saykhin"}},{"name":"Tasqala","state_code":"27","latitude":"51.11073000","longitude":"50.29454000","population":6980,"timezone":"Asia/Oral","type":"city","translations":{"es":"Tasqala","en":"Tasqala"}},{"name":"Zhänibek","state_code":"27","latitude":"49.42207000","longitude":"46.84705000","population":8212,"timezone":"Asia/Oral","type":"adm2","translations":{"es":"Zhänibek","en":"Zhänibek"}}]