[{"name":"Tubmanburg","state_code":"BM","latitude":"6.87064000","longitude":"-10.82110000","population":22005,"timezone":"Africa/Monrovia","type":"adm1","translations":{"es":"Tubmanburgo","en":"Tubmanburg"}},{"name":"Gbarnga","state_code":"BG","latitude":"6.99543000","longitude":"-9.47122000","population":86031,"timezone":"Africa/Monrovia","type":"adm1","translations":{"es":"Gbarnga","en":"Gbarnga"}},{"name":"Bopolu","state_code":"GP","latitude":"7.06667000","longitude":"-10.48750000","population":4396,"timezone":"Africa/Monrovia","type":"adm1","translations":{"es":"Bopolu","en":"Bopolu"}},{"name":"Buchanan","state_code":"GB","latitude":"5.87693000","longitude":"-10.04964000","population":75854,"timezone":"Africa/Monrovia","type":"adm1","translations":{"es":"Buchanan","en":"Buchanan"}},{"name":"Robertsport","state_code":"CM","latitude":"6.75329000","longitude":"-11.36710000","population":5306,"timezone":"Africa/Monrovia","type":"adm1","translations":{"es":"Robertsport","en":"Robertsport"}},{"name":"Zwedru","state_code":"GG","latitude":"6.06846000","longitude":"-8.13559000","population":38269,"timezone":"Africa/Monrovia","type":"adm1","translations":{"es":"Zwedru","en":"Zwedru"}},{"name":"Barclayville","state_code":"GK","latitude":"4.67443000","longitude":"-8.23306000","population":4692,"timezone":"Africa/Monrovia","type":"adm1","translations":{"es":"Barclayville","en":"Barclayville"}},{"name":"Voinjama","state_code":"LO","latitude":"8.42194000","longitude":"-9.74778000","population":23051,"timezone":"Africa/Monrovia","type":"adm1","translations":{"es":"Voinjama","en":"Voinjama"}},{"name":"Kakata","state_code":"MG","latitude":"6.53104000","longitude":"-10.35368000","population":52247,"timezone":"Africa/Monrovia","type":"adm1","translations":{"es":"Kakata","en":"Kakata"}},{"name":"Harper","state_code":"MY","latitude":"4.37820000","longitude":"-7.71081000","population":35503,"timezone":"Africa/Monrovia","type":"adm1","translations":{"es":"Harper","en":"Harper"}},{"name":"Bensonville","state_code":"MO","latitude":"6.44716000","longitude":"-10.61283000","population":785,"timezone":"Africa/Monrovia","type":"adm1","translations":{"es":"Bensonville","en":"Bensonville"}},{"name":"Monrovia","state_code":"MO","latitude":"6.30054000","longitude":"-10.79690000","population":1542549,"timezone":"Africa/Monrovia","type":"capital","translations":{"es":"Monrovia","en":"Monrovia"}},{"name":"Ganta","state_code":"NI","latitude":"7.30222000","longitude":"-8.53083000","population":13802,"timezone":"Africa/Monrovia","type":"city","translations":{"es":"Ganta","en":"Ganta"}},{"name":"New Yekepa","state_code":"NI","latitude":"7.57944000","longitude":"-8.53778000","population":24695,"timezone":"Africa/Monrovia","type":"city","translations":{"es":"Nueva Yekepa","en":"New Yekepa"}},{"name":"Sanniquellie","state_code":"NI","latitude":"7.36215000","longitude":"-8.71326000","population":17895,"timezone":"Africa/Monrovia","type":"adm1","translations":{"es":"Sanniquellie","en":"Sanniquellie"}},{"name":"Cestos City","state_code":"RI","latitude":"5.45683000","longitude":"-9.58167000","population":3606,"timezone":"Africa/Monrovia","type":"adm1","translations":{"es":"Ciudad de Cestos","en":"Cestos City"}},{"name":"Fish Town","state_code":"RG","latitude":"5.19739000","longitude":"-7.87579000","population":5383,"timezone":"Africa/Monrovia","type":"adm1","translations":{"es":"Ciudad del pescado","en":"Fish Town"}},{"name":"Greenville","state_code":"SI","latitude":"5.01133000","longitude":"-9.03880000","population":17574,"timezone":"Africa/Monrovia","type":"adm1","translations":{"es":"Greenville","en":"Greenville"}}]