[{"name":"Teyateyaneng","state_code":"D","latitude":"-29.14719000","longitude":"27.74895000","population":27272,"timezone":"Africa/Maseru","type":"adm1","translations":{"es":"Teyateyaneng","en":"Teyateyaneng"}},{"name":"Butha-Buthe","state_code":"B","latitude":"-28.76659000","longitude":"28.24937000","population":40599,"timezone":"Africa/Maseru","type":"adm1","translations":{"es":"Butha-Buthe","en":"Butha-Buthe"}},{"name":"Leribe","state_code":"C","latitude":"-28.87185000","longitude":"28.04501000","population":null,"timezone":"Africa/Maseru","type":"city","translations":{"es":"Leribe","en":"Leribe"}},{"name":"Maputsoe","state_code":"C","latitude":"-28.88660000","longitude":"27.89915000","population":61916,"timezone":"Africa/Maseru","type":"city","translations":{"es":"Maputsoe","en":"Maputsoe"}},{"name":"Mafeteng","state_code":"E","latitude":"-29.82299000","longitude":"27.23744000","population":45287,"timezone":"Africa/Maseru","type":"adm1","translations":{"es":"Mafeteng","en":"Mafeteng"}},{"name":"Maseru","state_code":"A","latitude":"-29.31667000","longitude":"27.48333000","population":343541,"timezone":"Africa/Maseru","type":"capital","translations":{"es":"Maseru","en":"Maseru"}},{"name":"Nako","state_code":"A","latitude":"-29.61667000","longitude":"27.76667000","population":13146,"timezone":"Africa/Maseru","type":"city","translations":{"es":"Nako","en":"Nako"}},{"name":"Mohale’s Hoek","state_code":"F","latitude":"-30.15137000","longitude":"27.47691000","population":46593,"timezone":"Africa/Maseru","type":"adm1","translations":{"es":"Hoek de Mohale","en":"Mohale’s Hoek"}},{"name":"Mokhotlong","state_code":"J","latitude":"-29.28939000","longitude":"29.06751000","population":14461,"timezone":"Africa/Maseru","type":"adm1","translations":{"es":"Mokhotlong","en":"Mokhotlong"}},{"name":"Qacha’s Nek","state_code":"H","latitude":"-30.11537000","longitude":"28.68936000","population":25573,"timezone":"Africa/Maseru","type":"city","translations":{"es":"Qacha’s Nek","en":"Qacha’s Nek"}},{"name":"Quthing","state_code":"G","latitude":"-30.40001000","longitude":"27.70027000","population":33910,"timezone":"Africa/Maseru","type":"adm1","translations":{"es":"Quthing","en":"Quthing"}},{"name":"Thaba-Tseka","state_code":"K","latitude":"-29.52204000","longitude":"28.60840000","population":16765,"timezone":"Africa/Maseru","type":"adm1","translations":{"es":"Thaba-Tseka","en":"Thaba-Tseka"}}]