[{"name":"Alytus","state_code":"02","latitude":"54.39635000","longitude":"24.04142000","population":51856,"timezone":"Europe/Vilnius","type":"adm1","translations":{"es":"Alytus","en":"Alytus"}},{"name":"Daugai","state_code":"02","latitude":"54.36667000","longitude":"24.33333000","population":1279,"timezone":"Europe/Vilnius","type":"city","translations":{"es":"Daugai","en":"Daugai"}},{"name":"Druskininkai","state_code":"02","latitude":"54.01573000","longitude":"23.98703000","population":13170,"timezone":"Europe/Vilnius","type":"adm2","translations":{"es":"Druskininkai","en":"Druskininkai"}},{"name":"Lazdijai","state_code":"02","latitude":"54.23333000","longitude":"23.51667000","population":3895,"timezone":"Europe/Vilnius","type":"adm2","translations":{"es":"Lazdijai","en":"Lazdijai"}},{"name":"Simnas","state_code":"02","latitude":"54.38200000","longitude":"23.64600000","population":1864,"timezone":"Europe/Vilnius","type":"city","translations":{"es":"Simnas","en":"Simnas"}},{"name":"Varėna","state_code":"02","latitude":"54.21667000","longitude":"24.56667000","population":8042,"timezone":"Europe/Vilnius","type":"adm2","translations":{"es":"Varėna","en":"Varėna"}},{"name":"Veisiejai","state_code":"02","latitude":"54.10110000","longitude":"23.69614000","population":1654,"timezone":"Europe/Vilnius","type":"city","translations":{"es":"Veisiejai","en":"Veisiejai"}},{"name":"Akademija (Kaunas)","state_code":"15","latitude":"54.89640000","longitude":"23.82411000","population":2807,"timezone":"Europe/Vilnius","type":"city","translations":{"es":"Academia (Kaunas)","en":"Akademija (Kaunas)"}},{"name":"Aleksotas","state_code":"15","latitude":"54.88037000","longitude":"23.90842000","population":24270,"timezone":"Europe/Vilnius","type":"section","translations":{"es":"Alexotas","en":"Aleksotas"}},{"name":"Ariogala","state_code":"15","latitude":"55.26200000","longitude":"23.47700000","population":3653,"timezone":"Europe/Vilnius","type":"city","translations":{"es":"Ariogala","en":"Ariogala"}},{"name":"Birštonas","state_code":"15","latitude":"54.61667000","longitude":"24.03333000","population":2331,"timezone":"Europe/Vilnius","type":"city","translations":{"es":"Birštonas","en":"Birštonas"}},{"name":"Dainava (Kaunas)","state_code":"15","latitude":"54.91525000","longitude":"23.96831000","population":70000,"timezone":"Europe/Vilnius","type":"section","translations":{"es":"Dainava (Kaunas)","en":"Dainava (Kaunas)"}},{"name":"Eiguliai","state_code":"15","latitude":"54.93133000","longitude":"23.93243000","population":40453,"timezone":"Europe/Vilnius","type":"section","translations":{"es":"Eiguliai","en":"Eiguliai"}},{"name":"Ežerėlis","state_code":"15","latitude":"54.88315000","longitude":"23.60396000","population":2051,"timezone":"Europe/Vilnius","type":"city","translations":{"es":"Ežerėlis","en":"Ežerėlis"}},{"name":"Garliava","state_code":"15","latitude":"54.82139000","longitude":"23.87130000","population":10110,"timezone":"Europe/Vilnius","type":"city","translations":{"es":"Garliava","en":"Garliava"}},{"name":"Jieznas","state_code":"15","latitude":"54.59937000","longitude":"24.17593000","population":1024,"timezone":"Europe/Vilnius","type":"city","translations":{"es":"Jieznas","en":"Jieznas"}},{"name":"Jonava","state_code":"15","latitude":"55.08333000","longitude":"24.28333000","population":27134,"timezone":"Europe/Vilnius","type":"adm2","translations":{"es":"Jonava","en":"Jonava"}},{"name":"Kaišiadorys","state_code":"15","latitude":"54.86667000","longitude":"24.45000000","population":8590,"timezone":"Europe/Vilnius","type":"city","translations":{"es":"Kaišiadorys","en":"Kaišiadorys"}},{"name":"Karmėlava","state_code":"15","latitude":"54.97055000","longitude":"24.06182000","population":1395,"timezone":"Europe/Vilnius","type":"city","translations":{"es":"Karmėlava","en":"Karmėlava"}},{"name":"Kaunas","state_code":"15","latitude":"54.90272000","longitude":"23.90961000","population":305120,"timezone":"Europe/Vilnius","type":"adm1","translations":{"es":"Kaunas","en":"Kaunas"}},{"name":"Kėdainiai","state_code":"15","latitude":"55.28333000","longitude":"23.96667000","population":23447,"timezone":"Europe/Vilnius","type":"adm2","translations":{"es":"Kėdainiai","en":"Kėdainiai"}},{"name":"Kulautuva","state_code":"15","latitude":"54.94212000","longitude":"23.64218000","population":1393,"timezone":"Europe/Vilnius","type":"city","translations":{"es":"Kulautuva","en":"Kulautuva"}},{"name":"Mastaiciai","state_code":"15","latitude":"54.81998000","longitude":"23.84462000","population":1339,"timezone":"Europe/Vilnius","type":"city","translations":{"es":"Mastaiciai","en":"Mastaiciai"}},{"name":"Prienai","state_code":"15","latitude":"54.63333000","longitude":"23.95000000","population":8894,"timezone":"Europe/Vilnius","type":"adm2","translations":{"es":"Prienai","en":"Prienai"}},{"name":"Ramučiai","state_code":"15","latitude":"54.94830000","longitude":"24.03050000","population":2372,"timezone":"Europe/Vilnius","type":"city","translations":{"es":"Ramučiai","en":"Ramučiai"}},{"name":"Raseiniai","state_code":"15","latitude":"55.36667000","longitude":"23.11667000","population":9763,"timezone":"Europe/Vilnius","type":"adm2","translations":{"es":"Raseiniai","en":"Raseiniai"}},{"name":"Sargėnai","state_code":"15","latitude":"54.94933000","longitude":"23.88316000","population":2495,"timezone":"Europe/Vilnius","type":"section","translations":{"es":"Sargėnai","en":"Sargėnai"}},{"name":"Šilainiai","state_code":"15","latitude":"54.92911000","longitude":"23.88599000","population":40600,"timezone":"Europe/Vilnius","type":"section","translations":{"es":"Šilainiai","en":"Šilainiai"}},{"name":"Vilkija","state_code":"15","latitude":"55.04609000","longitude":"23.58552000","population":2289,"timezone":"Europe/Vilnius","type":"city","translations":{"es":"Vilkija","en":"Vilkija"}},{"name":"Žiežmariai","state_code":"15","latitude":"54.80725000","longitude":"24.44073000","population":3034,"timezone":"Europe/Vilnius","type":"city","translations":{"es":"Žiežmariai","en":"Žiežmariai"}},{"name":"Gargždai","state_code":"21","latitude":"55.70951000","longitude":"21.39441000","population":16433,"timezone":"Europe/Vilnius","type":"city","translations":{"es":"Gargždai","en":"Gargždai"}},{"name":"Klaipėda","state_code":"21","latitude":"55.71667000","longitude":"21.11667000","population":158420,"timezone":"Europe/Vilnius","type":"city","translations":{"es":"Klaipeda","en":"Klaipėda"}},{"name":"Kretinga","state_code":"21","latitude":"55.88880000","longitude":"21.24448000","population":17207,"timezone":"Europe/Vilnius","type":"adm2","translations":{"es":"Kretinga","en":"Kretinga"}},{"name":"Neringa","state_code":"21","latitude":"55.36667000","longitude":"21.06667000","population":4022,"timezone":"Europe/Vilnius","type":"locality","translations":{"es":"Neringa","en":"Neringa"}},{"name":"Nida","state_code":"21","latitude":"55.30860000","longitude":"20.99651000","population":3530,"timezone":"Europe/Vilnius","type":"adm2","translations":{"es":"Nida","en":"Nida"}},{"name":"Palanga","state_code":"21","latitude":"55.91750000","longitude":"21.06861000","population":18132,"timezone":"Europe/Vilnius","type":"city","translations":{"es":"Palanga","en":"Palanga"}},{"name":"Priekulė","state_code":"21","latitude":"55.55427000","longitude":"21.31903000","population":1710,"timezone":"Europe/Vilnius","type":"city","translations":{"es":"Priekulė","en":"Priekulė"}},{"name":"Rusnė","state_code":"21","latitude":"55.29820000","longitude":"21.37120000","population":2484,"timezone":"Europe/Vilnius","type":"city","translations":{"es":"Rusne","en":"Rusnė"}},{"name":"Salantai","state_code":"21","latitude":"56.05650000","longitude":"21.56890000","population":1829,"timezone":"Europe/Vilnius","type":"city","translations":{"es":"Salantai","en":"Salantai"}},{"name":"Silute","state_code":"21","latitude":"55.34889000","longitude":"21.48306000","population":16200,"timezone":"Europe/Vilnius","type":"city","translations":{"es":"Silueta","en":"Silute"}},{"name":"Skuodas","state_code":"21","latitude":"56.26667000","longitude":"21.53333000","population":5346,"timezone":"Europe/Vilnius","type":"adm2","translations":{"es":"Skuodas","en":"Skuodas"}},{"name":"Šventoji","state_code":"21","latitude":"56.02610000","longitude":"21.08411000","population":2000,"timezone":"Europe/Vilnius","type":"city","translations":{"es":"Šventoji","en":"Šventoji"}},{"name":"Žemaičių Naumiestis","state_code":"21","latitude":"55.35941000","longitude":"21.70364000","population":1373,"timezone":"Europe/Vilnius","type":"city","translations":{"es":"Žemaičių Naumiestis","en":"Žemaičių Naumiestis"}},{"name":"Gelgaudiškis","state_code":"25","latitude":"55.07688000","longitude":"22.97699000","population":1522,"timezone":"Europe/Vilnius","type":"city","translations":{"es":"Gelgaudiškis","en":"Gelgaudiškis"}},{"name":"Kalvarija","state_code":"25","latitude":"54.41700000","longitude":"23.22300000","population":4025,"timezone":"Europe/Vilnius","type":"city","translations":{"es":"Kalvarija","en":"Kalvarija"}},{"name":"Kalvarija Municipality","state_code":"25","latitude":"54.41468000","longitude":"23.22484000","population":null,"timezone":"Europe/Vilnius","type":"municipality","translations":{"es":"Municipio de Kalvarija","en":"Kalvarija Municipality"}},{"name":"Kazlų Rūda","state_code":"25","latitude":"54.74900000","longitude":"23.49000000","population":5507,"timezone":"Europe/Vilnius","type":"city","translations":{"es":"Kazlų Rūda","en":"Kazlų Rūda"}},{"name":"Kazlų Rūda Municipality","state_code":"25","latitude":"54.74751000","longitude":"23.49272000","population":null,"timezone":"Europe/Vilnius","type":"municipality","translations":{"es":"Municipio de Kazlų Rūda","en":"Kazlų Rūda Municipality"}},{"name":"Kudirkos Naumiestis","state_code":"25","latitude":"54.77353000","longitude":"22.86138000","population":1961,"timezone":"Europe/Vilnius","type":"city","translations":{"es":"Kudirkos Naumiestis","en":"Kudirkos Naumiestis"}},{"name":"Kybartai","state_code":"25","latitude":"54.63858000","longitude":"22.76316000","population":5631,"timezone":"Europe/Vilnius","type":"city","translations":{"es":"Kybartai","en":"Kybartai"}},{"name":"Marijampolė","state_code":"25","latitude":"54.55991000","longitude":"23.35412000","population":36807,"timezone":"Europe/Vilnius","type":"adm1","translations":{"es":"Marijampolė","en":"Marijampolė"}},{"name":"Marijampolė Municipality","state_code":"25","latitude":"54.56667000","longitude":"23.35000000","population":34975,"timezone":"Europe/Vilnius","type":"municipality","translations":{"es":"Municipio de Marijampolė","en":"Marijampolė Municipality"}},{"name":"Sakiai","state_code":"25","latitude":"54.95000000","longitude":"23.05000000","population":5440,"timezone":"Europe/Vilnius","type":"adm2","translations":{"es":"Sakiai","en":"Sakiai"}},{"name":"Vilkaviskis","state_code":"25","latitude":"54.65167000","longitude":"23.03222000","population":10291,"timezone":"Europe/Vilnius","type":"adm2","translations":{"es":"Vilkaviskis","en":"Vilkaviskis"}},{"name":"Vilkaviškis District Municipality","state_code":"25","latitude":"54.65000000","longitude":"23.03333000","population":9444,"timezone":"Europe/Vilnius","type":"municipality","translations":{"es":"Municipio distrital de Vilkaviškis","en":"Vilkaviškis District Municipality"}},{"name":"Virbalis","state_code":"25","latitude":"54.62858000","longitude":"22.82272000","population":870,"timezone":"Europe/Vilnius","type":"city","translations":{"es":"Virbalis","en":"Virbalis"}},{"name":"Birzai","state_code":"33","latitude":"56.20000000","longitude":"24.75000000","population":14911,"timezone":"Europe/Vilnius","type":"city","translations":{"es":"birzai","en":"Birzai"}},{"name":"Juodupė","state_code":"33","latitude":"56.08700000","longitude":"25.60700000","population":1989,"timezone":"Europe/Vilnius","type":"city","translations":{"es":"Juodupė","en":"Juodupė"}},{"name":"Kupiskis","state_code":"33","latitude":"55.84027000","longitude":"24.97976000","population":8263,"timezone":"Europe/Vilnius","type":"adm2","translations":{"es":"Kupiskis","en":"Kupiskis"}},{"name":"Obeliai","state_code":"33","latitude":"55.96895000","longitude":"25.15648000","population":1247,"timezone":"Europe/Vilnius","type":"city","translations":{"es":"Obeliai","en":"Obeliai"}},{"name":"Panevėžys","state_code":"33","latitude":"55.73333000","longitude":"24.35000000","population":87913,"timezone":"Europe/Vilnius","type":"adm1","translations":{"es":"Panevėžys","en":"Panevėžys"}},{"name":"Panevėžys District Municipality","state_code":"33","latitude":"55.73301000","longitude":"24.37609000","population":null,"timezone":"Europe/Vilnius","type":"municipality","translations":{"es":"Municipio distrital de Panevėžys","en":"Panevėžys District Municipality"}},{"name":"Pasvalys","state_code":"33","latitude":"56.06667000","longitude":"24.40000000","population":6411,"timezone":"Europe/Vilnius","type":"adm2","translations":{"es":"Pasvalys","en":"Pasvalys"}},{"name":"Ramygala","state_code":"33","latitude":"55.51400000","longitude":"24.30000000","population":1198,"timezone":"Europe/Vilnius","type":"city","translations":{"es":"Ramygala","en":"Ramygala"}},{"name":"Rokiškis","state_code":"33","latitude":"55.96667000","longitude":"25.58333000","population":11606,"timezone":"Europe/Vilnius","type":"adm2","translations":{"es":"Rokiškis","en":"Rokiškis"}},{"name":"Vabalninkas","state_code":"33","latitude":"55.98151000","longitude":"24.74828000","population":797,"timezone":"Europe/Vilnius","type":"city","translations":{"es":"Vabalninkas","en":"Vabalninkas"}},{"name":"Akmenė","state_code":"43","latitude":"56.25000000","longitude":"22.75000000","population":3026,"timezone":"Europe/Vilnius","type":"adm2","translations":{"es":"Akmenė","en":"Akmenė"}},{"name":"Joniškis","state_code":"43","latitude":"56.23333000","longitude":"23.61667000","population":11113,"timezone":"Europe/Vilnius","type":"adm2","translations":{"es":"Joniškis","en":"Joniškis"}},{"name":"Kelmė","state_code":"43","latitude":"55.63333000","longitude":"22.93333000","population":7512,"timezone":"Europe/Vilnius","type":"adm2","translations":{"es":"Kelmė","en":"Kelmė"}},{"name":"Kuršėnai","state_code":"43","latitude":"56.00318000","longitude":"22.93662000","population":10651,"timezone":"Europe/Vilnius","type":"city","translations":{"es":"Kuršėnai","en":"Kuršėnai"}},{"name":"Linkuva","state_code":"43","latitude":"56.08596000","longitude":"23.97061000","population":1719,"timezone":"Europe/Vilnius","type":"city","translations":{"es":"Enlace","en":"Linkuva"}},{"name":"Naujoji Akmene","state_code":"43","latitude":"56.31667000","longitude":"22.90000000","population":11922,"timezone":"Europe/Vilnius","type":"city","translations":{"es":"Naujoji Akmene","en":"Naujoji Akmene"}},{"name":"Pakruojis","state_code":"43","latitude":"55.96667000","longitude":"23.86667000","population":4490,"timezone":"Europe/Vilnius","type":"adm2","translations":{"es":"Pakruojis","en":"Pakruojis"}},{"name":"Radviliskis","state_code":"43","latitude":"55.81667000","longitude":"23.53333000","population":15112,"timezone":"Europe/Vilnius","type":"city","translations":{"es":"Radviliskis","en":"Radviliskis"}},{"name":"Šeduva","state_code":"43","latitude":"55.74930000","longitude":"23.75610000","population":3321,"timezone":"Europe/Vilnius","type":"city","translations":{"es":"Šeduva","en":"Šeduva"}},{"name":"Šiauliai","state_code":"43","latitude":"55.93333000","longitude":"23.31667000","population":104300,"timezone":"Europe/Vilnius","type":"adm1","translations":{"es":"Šiauliai","en":"Šiauliai"}},{"name":"Tytuvėnėliai","state_code":"43","latitude":"55.62345000","longitude":"23.17162000","population":2775,"timezone":"Europe/Vilnius","type":"city","translations":{"es":"Tytuvėnėliai","en":"Tytuvėnėliai"}},{"name":"Venta","state_code":"43","latitude":"56.19162000","longitude":"22.69528000","population":3270,"timezone":"Europe/Vilnius","type":"city","translations":{"es":"Venta","en":"Venta"}},{"name":"Žagarė","state_code":"43","latitude":"56.36149000","longitude":"23.25094000","population":1247,"timezone":"Europe/Vilnius","type":"city","translations":{"es":"Žagarė","en":"Žagarė"}},{"name":"Būgai","state_code":"TA","latitude":"55.41387000","longitude":"22.60894000","population":1976,"timezone":"Europe/Vilnius","type":"city","translations":{"es":"Bugai","en":"Būgai"}},{"name":"Jurbarkas","state_code":"TA","latitude":"55.10859000","longitude":"22.79885000","population":10571,"timezone":"Europe/Vilnius","type":"city","translations":{"es":"Jurbarkas","en":"Jurbarkas"}},{"name":"Pagėgiai","state_code":"TA","latitude":"55.13400000","longitude":"21.90446000","population":1537,"timezone":"Europe/Vilnius","type":"adm2","translations":{"es":"Pagėgiai","en":"Pagėgiai"}},{"name":"Šilalė","state_code":"TA","latitude":"55.46667000","longitude":"22.20000000","population":4699,"timezone":"Europe/Vilnius","type":"adm2","translations":{"es":"Šilalė","en":"Šilalė"}},{"name":"Taurage","state_code":"TA","latitude":"55.25222000","longitude":"22.28972000","population":21416,"timezone":"Europe/Vilnius","type":"adm1","translations":{"es":"Taurage","en":"Taurage"}},{"name":"Mazeikiai","state_code":"51","latitude":"56.31667000","longitude":"22.33333000","population":33249,"timezone":"Europe/Vilnius","type":"city","translations":{"es":"Mazeikiai","en":"Mazeikiai"}},{"name":"Plateliai","state_code":"51","latitude":"56.04657000","longitude":"21.81615000","population":1021,"timezone":"Europe/Vilnius","type":"city","translations":{"es":"Plateliai","en":"Plateliai"}},{"name":"Plunge","state_code":"51","latitude":"55.91139000","longitude":"21.84417000","population":17385,"timezone":"Europe/Vilnius","type":"city","translations":{"es":"Inmersión","en":"Plunge"}},{"name":"Rietavas","state_code":"51","latitude":"55.72375000","longitude":"21.93266000","population":3253,"timezone":"Europe/Vilnius","type":"adm2","translations":{"es":"Rietavas","en":"Rietavas"}},{"name":"Seda","state_code":"51","latitude":"56.16854000","longitude":"22.09071000","population":1224,"timezone":"Europe/Vilnius","type":"city","translations":{"es":"Seda","en":"Seda"}},{"name":"Telsiai","state_code":"51","latitude":"55.98139000","longitude":"22.24722000","population":22261,"timezone":"Europe/Vilnius","type":"adm1","translations":{"es":"Telsiai","en":"Telsiai"}},{"name":"Varniai","state_code":"51","latitude":"55.74435000","longitude":"22.37251000","population":854,"timezone":"Europe/Vilnius","type":"city","translations":{"es":"Varniai","en":"Varniai"}},{"name":"Viekšniai","state_code":"51","latitude":"56.23598000","longitude":"22.51667000","population":2180,"timezone":"Europe/Vilnius","type":"city","translations":{"es":"Viekšniai","en":"Viekšniai"}},{"name":"Anyksciai","state_code":"UT","latitude":"55.52557000","longitude":"25.10264000","population":8638,"timezone":"Europe/Vilnius","type":"city","translations":{"es":"Anyksciai","en":"Anyksciai"}},{"name":"Dūkštas","state_code":"UT","latitude":"55.52200000","longitude":"26.32100000","population":888,"timezone":"Europe/Vilnius","type":"city","translations":{"es":"Dūkštas","en":"Dūkštas"}},{"name":"Ignalina","state_code":"UT","latitude":"55.35000000","longitude":"26.16667000","population":4998,"timezone":"Europe/Vilnius","type":"adm2","translations":{"es":"Ignalina","en":"Ignalina"}},{"name":"Moletai","state_code":"UT","latitude":"55.23333000","longitude":"25.41667000","population":7243,"timezone":"Europe/Vilnius","type":"adm2","translations":{"es":"Moletai","en":"Moletai"}},{"name":"Utena","state_code":"UT","latitude":"55.49764000","longitude":"25.59918000","population":25608,"timezone":"Europe/Vilnius","type":"adm1","translations":{"es":"Utena","en":"Utena"}},{"name":"Visaginas","state_code":"UT","latitude":"55.60000000","longitude":"26.41667000","population":19586,"timezone":"Europe/Vilnius","type":"city","translations":{"es":"Visaginas","en":"Visaginas"}},{"name":"Zarasai","state_code":"UT","latitude":"55.73333000","longitude":"26.25000000","population":5942,"timezone":"Europe/Vilnius","type":"adm2","translations":{"es":"Zarasai","en":"Zarasai"}},{"name":"Aukstadvaris","state_code":"57","latitude":"54.57946000","longitude":"24.52683000","population":861,"timezone":"Europe/Vilnius","type":"city","translations":{"es":"Aukstadvaris","en":"Aukstadvaris"}},{"name":"Baltoji Vokė","state_code":"57","latitude":"54.60002000","longitude":"25.19318000","population":991,"timezone":"Europe/Vilnius","type":"city","translations":{"es":"Baltoji Vokė","en":"Baltoji Vokė"}},{"name":"Eišiškės","state_code":"57","latitude":"54.17414000","longitude":"24.99917000","population":2822,"timezone":"Europe/Vilnius","type":"city","translations":{"es":"Eišiškės","en":"Eišiškės"}},{"name":"Elektrėnai","state_code":"57","latitude":"54.78544000","longitude":"24.66302000","population":11753,"timezone":"Europe/Vilnius","type":"city","translations":{"es":"Elektrėnai","en":"Elektrėnai"}},{"name":"Fabijoniškės","state_code":"57","latitude":"54.73333000","longitude":"25.24167000","population":37000,"timezone":"Europe/Vilnius","type":"section","translations":{"es":"Fabijoniškės","en":"Fabijoniškės"}},{"name":"Grigiškės","state_code":"57","latitude":"54.68333000","longitude":"25.08333000","population":9750,"timezone":"Europe/Vilnius","type":"section","translations":{"es":"Grigiškės","en":"Grigiškės"}},{"name":"Justiniškės","state_code":"57","latitude":"54.71664000","longitude":"25.21740000","population":31000,"timezone":"Europe/Vilnius","type":"section","translations":{"es":"Justiniškės","en":"Justiniškės"}},{"name":"Lazdynai","state_code":"57","latitude":"54.66815000","longitude":"25.20684000","population":31097,"timezone":"Europe/Vilnius","type":"section","translations":{"es":"Lazdynai","en":"Lazdynai"}},{"name":"Lentvaris","state_code":"57","latitude":"54.64364000","longitude":"25.05162000","population":9680,"timezone":"Europe/Vilnius","type":"city","translations":{"es":"Lentvaris","en":"Lentvaris"}},{"name":"Naujamiestis","state_code":"57","latitude":"54.67951000","longitude":"25.26855000","population":28157,"timezone":"Europe/Vilnius","type":"section","translations":{"es":"Naujamiestis","en":"Naujamiestis"}},{"name":"Nemenčinė","state_code":"57","latitude":"54.84776000","longitude":"25.46992000","population":4582,"timezone":"Europe/Vilnius","type":"city","translations":{"es":"Nemenčinė","en":"Nemenčinė"}},{"name":"Pabradė","state_code":"57","latitude":"54.98100000","longitude":"25.76100000","population":6375,"timezone":"Europe/Vilnius","type":"city","translations":{"es":"Pabrade","en":"Pabradė"}},{"name":"Pašilaičiai","state_code":"57","latitude":"54.73429000","longitude":"25.21912000","population":33056,"timezone":"Europe/Vilnius","type":"section","translations":{"es":"Pašilaičiai","en":"Pašilaičiai"}},{"name":"Pilaitė","state_code":"57","latitude":"54.69981000","longitude":"25.18393000","population":20320,"timezone":"Europe/Vilnius","type":"section","translations":{"es":"Pilaitė","en":"Pilaitė"}},{"name":"Rasos","state_code":"57","latitude":"54.67877000","longitude":"25.31173000","population":10597,"timezone":"Europe/Vilnius","type":"section","translations":{"es":"Rasos","en":"Rasos"}},{"name":"Rūdiškės","state_code":"57","latitude":"54.51609000","longitude":"24.83084000","population":1943,"timezone":"Europe/Vilnius","type":"city","translations":{"es":"Rūdiškės","en":"Rūdiškės"}},{"name":"Šalčininkai","state_code":"57","latitude":"54.30000000","longitude":"25.38333000","population":6841,"timezone":"Europe/Vilnius","type":"adm2","translations":{"es":"Šalčininkai","en":"Šalčininkai"}},{"name":"Senieji Trakai","state_code":"57","latitude":"54.60900000","longitude":"24.98000000","population":1219,"timezone":"Europe/Vilnius","type":"city","translations":{"es":"Senieji Trakai","en":"Senieji Trakai"}},{"name":"Šeškinė","state_code":"57","latitude":"54.70972000","longitude":"25.25053000","population":36000,"timezone":"Europe/Vilnius","type":"section","translations":{"es":"Šeškinė","en":"Šeškinė"}},{"name":"Sirvintos","state_code":"57","latitude":"55.05000000","longitude":"24.95000000","population":5802,"timezone":"Europe/Vilnius","type":"adm2","translations":{"es":"Sirvintos","en":"Sirvintos"}},{"name":"Skaidiškės","state_code":"57","latitude":"54.61398000","longitude":"25.39573000","population":4051,"timezone":"Europe/Vilnius","type":"city","translations":{"es":"Skaidiškės","en":"Skaidiškės"}},{"name":"Švenčionėliai","state_code":"57","latitude":"55.16163000","longitude":"26.00177000","population":4613,"timezone":"Europe/Vilnius","type":"city","translations":{"es":"Švenčionėliai","en":"Švenčionėliai"}},{"name":"Svencionys","state_code":"57","latitude":"55.15000000","longitude":"26.16667000","population":4480,"timezone":"Europe/Vilnius","type":"city","translations":{"es":"Svencionys","en":"Svencionys"}},{"name":"Trakai","state_code":"57","latitude":"54.63783000","longitude":"24.93433000","population":5912,"timezone":"Europe/Vilnius","type":"city","translations":{"es":"Trakai","en":"Trakai"}},{"name":"Ukmerge","state_code":"57","latitude":"55.25000000","longitude":"24.75000000","population":21048,"timezone":"Europe/Vilnius","type":"city","translations":{"es":"Ukmerge","en":"Ukmerge"}},{"name":"Vievis","state_code":"57","latitude":"54.76667000","longitude":"24.80000000","population":4214,"timezone":"Europe/Vilnius","type":"city","translations":{"es":"Vievis","en":"Vievis"}},{"name":"Vilkpėdė","state_code":"57","latitude":"54.66969000","longitude":"25.24770000","population":21346,"timezone":"Europe/Vilnius","type":"section","translations":{"es":"Vilkpėdė","en":"Vilkpėdė"}},{"name":"Vilnius","state_code":"57","latitude":"54.68916000","longitude":"25.27980000","population":581475,"timezone":"Europe/Vilnius","type":"capital","translations":{"es":"Vilna","en":"Vilnius"}},{"name":"Vilnius District Municipality","state_code":"57","latitude":"54.73333000","longitude":"25.38333000","population":null,"timezone":"Europe/Vilnius","type":"municipality","translations":{"es":"Municipio del distrito de Vilna","en":"Vilnius District Municipality"}}]