[{"name":"Bardia","state_code":"BU","latitude":"31.76000000","longitude":"25.07500000","population":9149,"timezone":"Africa/Tripoli","type":"city","translations":{"es":"Bardia","en":"Bardia"}},{"name":"Jaghbub","state_code":"BU","latitude":"29.74250000","longitude":"24.51694444","population":2768,"timezone":"Africa/Tripoli","type":"city","translations":{"es":"Al Jaghbub","en":"Jaghbub"}},{"name":"Tobruk","state_code":"BU","latitude":"32.07611111","longitude":"23.96138889","population":135832,"timezone":"Africa/Tripoli","type":"adm1","translations":{"es":"Tobruk","en":"Tobruk"}},{"name":"Ajdabiya","state_code":"WA","latitude":"30.75545000","longitude":"20.22625000","population":131773,"timezone":"Africa/Tripoli","type":"adm1","translations":{"es":"Ajdabiya","en":"Ajdabiya"}},{"name":"Al Burayqah","state_code":"WA","latitude":"30.40624000","longitude":"19.57386000","population":31300,"timezone":"Africa/Tripoli","type":"city","translations":{"es":"Al Burayqah","en":"Al Burayqah"}},{"name":"Awjilah","state_code":"WA","latitude":"29.10806000","longitude":"21.28694000","population":5125,"timezone":"Africa/Tripoli","type":"city","translations":{"es":"Awjilah","en":"Awjilah"}},{"name":"Az Zuwaytīnah","state_code":"WA","latitude":"30.95220000","longitude":"20.12022000","population":21015,"timezone":"Africa/Tripoli","type":"city","translations":{"es":"Az Zuwaytīnah","en":"Az Zuwaytīnah"}},{"name":"Gialo","state_code":"WA","latitude":"29.03333000","longitude":"21.55000000","population":13401,"timezone":"Africa/Tripoli","type":"city","translations":{"es":"Gialo","en":"Gialo"}},{"name":"Marādah","state_code":"WA","latitude":"29.22054000","longitude":"19.20454000","population":2229,"timezone":"Africa/Tripoli","type":"city","translations":{"es":"Maradah","en":"Marādah"}},{"name":"Benghazi","state_code":"BA","latitude":"32.11486000","longitude":"20.06859000","population":631555,"timezone":"Africa/Tripoli","type":"adm1","translations":{"es":"Bengasi","en":"Benghazi"}},{"name":"Qaryat Sulūq","state_code":"BA","latitude":"31.66818000","longitude":"20.25205000","population":19918,"timezone":"Africa/Tripoli","type":"city","translations":{"es":"Qaryat Sulūq","en":"Qaryat Sulūq"}},{"name":"Al Qubbah","state_code":"DR","latitude":"32.75684000","longitude":"22.24106000","population":24631,"timezone":"Africa/Tripoli","type":"city","translations":{"es":"Al Qubbah","en":"Al Qubbah"}},{"name":"Darnah","state_code":"DR","latitude":"32.76704000","longitude":"22.63669000","population":102581,"timezone":"Africa/Tripoli","type":"adm1","translations":{"es":"Darnah","en":"Darnah"}},{"name":"Ghat","state_code":"GT","latitude":"24.96334000","longitude":"10.18003000","population":14630,"timezone":"Africa/Tripoli","type":"adm1","translations":{"es":"Ghat","en":"Ghat"}},{"name":"Al Bayḑā’","state_code":"JA","latitude":"32.76272000","longitude":"21.75506000","population":129439,"timezone":"Africa/Tripoli","type":"adm1","translations":{"es":"Al Bayda’","en":"Al Bayḑā’"}},{"name":"Gharyan","state_code":"JG","latitude":"32.17222000","longitude":"13.02028000","population":36110,"timezone":"Africa/Tripoli","type":"adm1","translations":{"es":"Gharyan","en":"Gharyan"}},{"name":"Giado","state_code":"JG","latitude":"31.95506000","longitude":"12.02901000","population":12507,"timezone":"Africa/Tripoli","type":"city","translations":{"es":"Giado","en":"Giado"}},{"name":"Mizdah","state_code":"JG","latitude":"31.44934000","longitude":"12.98530000","population":16735,"timezone":"Africa/Tripoli","type":"city","translations":{"es":"Mizdah","en":"Mizdah"}},{"name":"Yafran","state_code":"JG","latitude":"32.06329000","longitude":"12.52859000","population":22680,"timezone":"Africa/Tripoli","type":"city","translations":{"es":"Yafran","en":"Yafran"}},{"name":"Zintan","state_code":"JG","latitude":"31.93155000","longitude":"12.25291000","population":33000,"timezone":"Africa/Tripoli","type":"city","translations":{"es":"Zintán","en":"Zintan"}},{"name":"Al ‘Azīzīyah","state_code":"JI","latitude":"32.53194000","longitude":"13.01750000","population":52404,"timezone":"Africa/Tripoli","type":"adm1","translations":{"es":"Al ‘Azīzīyah","en":"Al ‘Azīzīyah"}},{"name":"Hūn","state_code":"JU","latitude":"29.12684000","longitude":"15.94772000","population":24431,"timezone":"Africa/Tripoli","type":"adm1","translations":{"es":"Huno","en":"Hūn"}},{"name":"Waddān","state_code":"JU","latitude":"29.16140000","longitude":"16.13904000","population":10150,"timezone":"Africa/Tripoli","type":"city","translations":{"es":"Waddān","en":"Waddān"}},{"name":"Al Jawf","state_code":"KF","latitude":"24.19890000","longitude":"23.29093000","population":42079,"timezone":"Africa/Tripoli","type":"city","translations":{"es":"Al Jawf","en":"Al Jawf"}},{"name":"At Tāj","state_code":"KF","latitude":"24.20487000","longitude":"23.28570000","population":46050,"timezone":"Africa/Tripoli","type":"city","translations":{"es":"En Tāj","en":"At Tāj"}},{"name":"Al Abyār","state_code":"MJ","latitude":"32.19000000","longitude":"20.59653000","population":32563,"timezone":"Africa/Tripoli","type":"city","translations":{"es":"Al Abyār","en":"Al Abyār"}},{"name":"Al Marj","state_code":"MJ","latitude":"32.49257000","longitude":"20.82909000","population":85315,"timezone":"Africa/Tripoli","type":"adm1","translations":{"es":"Al Marj","en":"Al Marj"}},{"name":"Tūkrah","state_code":"MJ","latitude":"32.53414000","longitude":"20.57911000","population":12593,"timezone":"Africa/Tripoli","type":"city","translations":{"es":"Tūkrah","en":"Tūkrah"}},{"name":"Bani Walid","state_code":"MI","latitude":"31.74554000","longitude":"13.98354000","population":50824,"timezone":"Africa/Tripoli","type":"city","translations":{"es":"Bani Walid","en":"Bani Walid"}},{"name":"Mişrātah","state_code":"MI","latitude":"32.37535000","longitude":"15.09254000","population":355657,"timezone":"Africa/Tripoli","type":"adm1","translations":{"es":"Mişrātah","en":"Mişrātah"}},{"name":"Zliten","state_code":"MI","latitude":"32.46739000","longitude":"14.56874000","population":203790,"timezone":"Africa/Tripoli","type":"city","translations":{"es":"Zliten","en":"Zliten"}},{"name":"Al Khums","state_code":"MB","latitude":"32.64861000","longitude":"14.26191000","population":201943,"timezone":"Africa/Tripoli","type":"adm1","translations":{"es":"Al Khums","en":"Al Khums"}},{"name":"Masallātah","state_code":"MB","latitude":"32.61667000","longitude":"14.00000000","population":null,"timezone":"Africa/Tripoli","type":"city","translations":{"es":"Masallātah","en":"Masallātah"}},{"name":"Tarhuna","state_code":"MB","latitude":"32.43501000","longitude":"13.63320000","population":52420,"timezone":"Africa/Tripoli","type":"city","translations":{"es":"Tarhuna","en":"Tarhuna"}},{"name":"Al Qaţrūn","state_code":"MQ","latitude":"24.95139000","longitude":"14.64861000","population":7243,"timezone":"Africa/Tripoli","type":"city","translations":{"es":"Al Qaţrūn","en":"Al Qaţrūn"}},{"name":"Murzuq","state_code":"MQ","latitude":"25.91552000","longitude":"13.91839000","population":30491,"timezone":"Africa/Tripoli","type":"adm1","translations":{"es":"Murzuq","en":"Murzuq"}},{"name":"Ghadāmis","state_code":"NL","latitude":"30.13366000","longitude":"9.50072000","population":12096,"timezone":"Africa/Tripoli","type":"city","translations":{"es":"Ghadamis","en":"Ghadāmis"}},{"name":"Nālūt","state_code":"NL","latitude":"31.86848000","longitude":"10.98120000","population":26788,"timezone":"Africa/Tripoli","type":"adm1","translations":{"es":"Nālūt","en":"Nālūt"}},{"name":"Al Ajaylat","state_code":"NQ","latitude":"32.75718000","longitude":"12.37633000","population":130546,"timezone":"Africa/Tripoli","type":"city","translations":{"es":"Al Ajaylat","en":"Al Ajaylat"}},{"name":"Zalţan","state_code":"NQ","latitude":"32.94699000","longitude":"11.86668000","population":14131,"timezone":"Africa/Tripoli","type":"city","translations":{"es":"Zaltán","en":"Zalţan"}},{"name":"Zuwārah","state_code":"NQ","latitude":"32.93120000","longitude":"12.08199000","population":33887,"timezone":"Africa/Tripoli","type":"adm1","translations":{"es":"Zuwara","en":"Zuwārah"}},{"name":"Al Jadīd","state_code":"SB","latitude":"27.05000000","longitude":"14.40000000","population":126386,"timezone":"Africa/Tripoli","type":"city","translations":{"es":"Al Jadīd","en":"Al Jadīd"}},{"name":"Sabhā","state_code":"SB","latitude":"27.03766000","longitude":"14.42832000","population":149329,"timezone":"Africa/Tripoli","type":"adm1","translations":{"es":"Sabhā","en":"Sabhā"}},{"name":"Qasr Abu Hadi","state_code":"SR","latitude":"31.05926000","longitude":"16.65905000","population":4890,"timezone":"Africa/Tripoli","type":"city","translations":{"es":"Qasr Abu Hadi","en":"Qasr Abu Hadi"}},{"name":"Sirte","state_code":"SR","latitude":"31.20892000","longitude":"16.58866000","population":106705,"timezone":"Africa/Tripoli","type":"adm1","translations":{"es":"Sirte","en":"Sirte"}},{"name":"Tagiura","state_code":"TB","latitude":"32.88167000","longitude":"13.35056000","population":100000,"timezone":"Africa/Tripoli","type":"city","translations":{"es":"Tagiura","en":"Tagiura"}},{"name":"Tripoli","state_code":"TB","latitude":"32.88743000","longitude":"13.18733000","population":1176000,"timezone":"Africa/Tripoli","type":"capital","translations":{"es":"Trípoli","en":"Tripoli"}},{"name":"Ubari","state_code":"WD","latitude":"26.59034000","longitude":"12.77511000","population":33569,"timezone":"Africa/Tripoli","type":"adm1","translations":{"es":"Ubari","en":"Ubari"}},{"name":"Brak","state_code":"WS","latitude":"27.54956000","longitude":"14.27139000","population":16200,"timezone":"Africa/Tripoli","type":"city","translations":{"es":"Freno","en":"Brak"}},{"name":"Idrī","state_code":"WS","latitude":"27.44707000","longitude":"13.05173000","population":4696,"timezone":"Africa/Tripoli","type":"adm1","translations":{"es":"Idri","en":"Idrī"}},{"name":"Az Zāwīyah","state_code":"ZA","latitude":"32.75710000","longitude":"12.72764000","population":200000,"timezone":"Africa/Tripoli","type":"adm1","translations":{"es":"Az Zāwīyah","en":"Az Zāwīyah"}},{"name":"Şabrātah","state_code":"ZA","latitude":"32.79335000","longitude":"12.48845000","population":83398,"timezone":"Africa/Tripoli","type":"city","translations":{"es":"Sabrata","en":"Şabrātah"}},{"name":"Şurmān","state_code":"ZA","latitude":"32.75668000","longitude":"12.57159000","population":77114,"timezone":"Africa/Tripoli","type":"city","translations":{"es":"Surmán","en":"Şurmān"}},{"name":"Zawiya","state_code":"ZA","latitude":"32.75222000","longitude":"12.72778000","population":198567,"timezone":"Africa/Tripoli","type":"city","translations":{"es":"Zawiya","en":"Zawiya"}}]