[{"name":"Andrijevica","state_code":"01","latitude":"42.73389000","longitude":"19.79194000","population":1048,"timezone":"Europe/Podgorica","type":"adm1","translations":{"es":"Andrijevica","en":"Andrijevica"}},{"name":"Bar","state_code":"02","latitude":"42.09306000","longitude":"19.10028000","population":17727,"timezone":"Europe/Podgorica","type":"adm1","translations":{"es":"Bar","en":"Bar"}},{"name":"Stari Bar","state_code":"02","latitude":"42.09700000","longitude":"19.13600000","population":1514,"timezone":"Europe/Podgorica","type":"city","translations":{"es":"Bar Stari","en":"Stari Bar"}},{"name":"Šušanj","state_code":"02","latitude":"42.11556000","longitude":"19.08833000","population":2212,"timezone":"Europe/Podgorica","type":"city","translations":{"es":"Šušanj","en":"Šušanj"}},{"name":"Sutomore","state_code":"02","latitude":"42.14278000","longitude":"19.04667000","population":2004,"timezone":"Europe/Podgorica","type":"city","translations":{"es":"Sutomore","en":"Sutomore"}},{"name":"Berane","state_code":"03","latitude":"42.84250000","longitude":"19.87333000","population":11073,"timezone":"Europe/Podgorica","type":"adm1","translations":{"es":"Berane","en":"Berane"}},{"name":"Bijelo Polje","state_code":"04","latitude":"43.03834000","longitude":"19.74758000","population":15400,"timezone":"Europe/Podgorica","type":"adm1","translations":{"es":"Bijelo Polje","en":"Bijelo Polje"}},{"name":"Budva","state_code":"05","latitude":"42.28639000","longitude":"18.84000000","population":18000,"timezone":"Europe/Podgorica","type":"adm1","translations":{"es":"Budva","en":"Budva"}},{"name":"Petrovac na Moru","state_code":"05","latitude":"42.20556000","longitude":"18.94250000","population":1485,"timezone":"Europe/Podgorica","type":"city","translations":{"es":"Petrovac na Moru","en":"Petrovac na Moru"}},{"name":"Danilovgrad","state_code":"07","latitude":"42.55384000","longitude":"19.14608000","population":5156,"timezone":"Europe/Podgorica","type":"adm1","translations":{"es":"Danilovgrad","en":"Danilovgrad"}},{"name":"Spuž","state_code":"07","latitude":"42.51500000","longitude":"19.19500000","population":1241,"timezone":"Europe/Podgorica","type":"city","translations":{"es":"Espuž","en":"Spuž"}},{"name":"Gusinje","state_code":"22","latitude":"42.56194000","longitude":"19.83389000","population":1673,"timezone":"Europe/Podgorica","type":"adm1","translations":{"es":"Gusinje","en":"Gusinje"}},{"name":"Bijela","state_code":"08","latitude":"42.44778000","longitude":"18.65972000","population":1200,"timezone":"Europe/Podgorica","type":"city","translations":{"es":"Bijela","en":"Bijela"}},{"name":"Herceg Novi","state_code":"08","latitude":"42.45306000","longitude":"18.53722000","population":19536,"timezone":"Europe/Podgorica","type":"adm1","translations":{"es":"Herceg Novi","en":"Herceg Novi"}},{"name":"Igalo","state_code":"08","latitude":"42.45583000","longitude":"18.51667000","population":3355,"timezone":"Europe/Podgorica","type":"city","translations":{"es":"Igalo","en":"Igalo"}},{"name":"Kamenari","state_code":"08","latitude":"42.46167000","longitude":"18.68806000","population":148,"timezone":"Europe/Podgorica","type":"adm1","translations":{"es":"Kamenari","en":"Kamenari"}},{"name":"Kolašin","state_code":"09","latitude":"42.82229000","longitude":"19.51653000","population":2989,"timezone":"Europe/Podgorica","type":"adm1","translations":{"es":"Colašin","en":"Kolašin"}},{"name":"Dobrota","state_code":"10","latitude":"42.45417000","longitude":"18.76833000","population":5435,"timezone":"Europe/Podgorica","type":"locality","translations":{"es":"Dobrota","en":"Dobrota"}},{"name":"Kotor","state_code":"10","latitude":"42.42067000","longitude":"18.76825000","population":5345,"timezone":"Europe/Podgorica","type":"adm1","translations":{"es":"Kotor","en":"Kotor"}},{"name":"Prčanj","state_code":"10","latitude":"42.45750000","longitude":"18.74222000","population":1244,"timezone":"Europe/Podgorica","type":"city","translations":{"es":"Prčanj","en":"Prčanj"}},{"name":"Risan","state_code":"10","latitude":"42.51500000","longitude":"18.69556000","population":2083,"timezone":"Europe/Podgorica","type":"city","translations":{"es":"Risan","en":"Risan"}},{"name":"Mojkovac","state_code":"11","latitude":"42.96044000","longitude":"19.58330000","population":3590,"timezone":"Europe/Podgorica","type":"adm1","translations":{"es":"Mojkovac","en":"Mojkovac"}},{"name":"Nikšić","state_code":"12","latitude":"42.77310000","longitude":"18.94446000","population":58212,"timezone":"Europe/Podgorica","type":"adm1","translations":{"es":"Nikšić","en":"Nikšić"}},{"name":"Cetinje","state_code":"06","latitude":"42.39063000","longitude":"18.91417000","population":13991,"timezone":"Europe/Podgorica","type":"adm1","translations":{"es":"Cetinje","en":"Cetinje"}},{"name":"Plav","state_code":"13","latitude":"42.59694000","longitude":"19.94556000","population":3615,"timezone":"Europe/Podgorica","type":"adm1","translations":{"es":"Plav","en":"Plav"}},{"name":"Pljevlja","state_code":"14","latitude":"43.35670000","longitude":"19.35843000","population":19136,"timezone":"Europe/Podgorica","type":"adm1","translations":{"es":"Pljevlja","en":"Pljevlja"}},{"name":"Plužine","state_code":"15","latitude":"43.15278000","longitude":"18.83944000","population":1494,"timezone":"Europe/Podgorica","type":"adm1","translations":{"es":"Plužine","en":"Plužine"}},{"name":"Goričani","state_code":"16","latitude":"42.33222000","longitude":"19.21194000","population":1205,"timezone":"Europe/Podgorica","type":"city","translations":{"es":"Goričani","en":"Goričani"}},{"name":"Mojanovići","state_code":"16","latitude":"42.34167000","longitude":"19.22139000","population":1800,"timezone":"Europe/Podgorica","type":"city","translations":{"es":"Mojanovići","en":"Mojanovići"}},{"name":"Podgorica","state_code":"16","latitude":"42.44111000","longitude":"19.26361000","population":236852,"timezone":"Europe/Podgorica","type":"capital","translations":{"es":"Podgorica","en":"Podgorica"}},{"name":"Rožaje","state_code":"17","latitude":"42.83299000","longitude":"20.16652000","population":9422,"timezone":"Europe/Podgorica","type":"adm1","translations":{"es":"Rožaje","en":"Rožaje"}},{"name":"Šavnik","state_code":"18","latitude":"42.95639000","longitude":"19.09667000","population":633,"timezone":"Europe/Podgorica","type":"adm1","translations":{"es":"Šavnik","en":"Šavnik"}},{"name":"Tivat","state_code":"19","latitude":"42.43639000","longitude":"18.69611000","population":9367,"timezone":"Europe/Podgorica","type":"adm1","translations":{"es":"Tivat","en":"Tivat"}},{"name":"Dinoša","state_code":"24","latitude":"42.38333000","longitude":"19.38333000","population":510,"timezone":"Europe/Podgorica","type":"city","translations":{"es":"Dinoša","en":"Dinoša"}},{"name":"Mataguži","state_code":"24","latitude":"42.35000000","longitude":"19.41667000","population":1132,"timezone":"Europe/Podgorica","type":"city","translations":{"es":"Mataguži","en":"Mataguži"}},{"name":"Tuzi","state_code":"24","latitude":"42.36667000","longitude":"19.40000000","population":3789,"timezone":"Europe/Podgorica","type":"city","translations":{"es":"Tuzi","en":"Tuzi"}},{"name":"Ulcinj","state_code":"20","latitude":"41.92936000","longitude":"19.22436000","population":10828,"timezone":"Europe/Podgorica","type":"adm1","translations":{"es":"Ulcinj","en":"Ulcinj"}},{"name":"Žabljak","state_code":"21","latitude":"43.15423000","longitude":"19.12325000","population":1937,"timezone":"Europe/Podgorica","type":"adm1","translations":{"es":"Žabljak","en":"Žabljak"}},{"name":"Golubovci","state_code":"25","latitude":"42.36667000","longitude":"19.23333000","population":3110,"timezone":"Europe/Podgorica","type":"city","translations":{"es":"Golubovci","en":"Golubovci"}},{"name":"Ponari","state_code":"25","latitude":"42.40000000","longitude":"19.28333000","population":382,"timezone":"Europe/Podgorica","type":"capital","translations":{"es":"Ponari","en":"Ponari"}}]