[{"name":"Fort-de-France","state_code":"01","latitude":"14.64924180","longitude":"-61.10984450","population":null,"timezone":"America/Martinique","type":"capital","translations":{"es":"Fort-de-France","en":"Fort-de-France"}},{"name":"Le Lamentin","state_code":"01","latitude":"14.62308620","longitude":"-61.03347490","population":null,"timezone":"America/Martinique","type":"city","translations":{"es":"El Lamentin","en":"Le Lamentin"}},{"name":"Saint-Joseph","state_code":"01","latitude":"14.68353400","longitude":"-61.08186620","population":null,"timezone":"America/Martinique","type":"city","translations":{"es":"San José","en":"Saint-Joseph"}},{"name":"Schœlcher","state_code":"01","latitude":"14.65179970","longitude":"-61.14128670","population":null,"timezone":"America/Martinique","type":"adm4","translations":{"es":"Schoelcher","en":"Schœlcher"}},{"name":"Basse-Pointe","state_code":"02","latitude":"14.84097080","longitude":"-61.16485230","population":null,"timezone":"America/Martinique","type":"city","translations":{"es":"Punta baja","en":"Basse-Pointe"}},{"name":"Grand'Rivière","state_code":"02","latitude":"14.84696630","longitude":"-61.20427640","population":null,"timezone":"America/Martinique","type":"city","translations":{"es":"Grand'Rivière","en":"Grand'Rivière"}},{"name":"Gros-Morne","state_code":"02","latitude":"14.70841840","longitude":"-61.11271220","population":null,"timezone":"America/Martinique","type":"adm4","translations":{"es":"Gros-Morne","en":"Gros-Morne"}},{"name":"L'Ajoupa-Bouillon","state_code":"02","latitude":"14.81597180","longitude":"-61.17170630","population":null,"timezone":"America/Martinique","type":"city","translations":{"es":"L'Ajoupa-Bouillon","en":"L'Ajoupa-Bouillon"}},{"name":"La Trinité","state_code":"02","latitude":"14.73804150","longitude":"-61.02929560","population":null,"timezone":"America/Martinique","type":"city","translations":{"es":"La Trinidad","en":"La Trinité"}},{"name":"Le Lorrain","state_code":"02","latitude":"14.79952560","longitude":"-61.11513740","population":1815,"timezone":"America/Martinique","type":"city","translations":{"es":"Le Lorrain","en":"Le Lorrain"}},{"name":"Le Marigot","state_code":"02","latitude":"14.77958180","longitude":"-61.09424580","population":null,"timezone":"America/Martinique","type":"city","translations":{"es":"Le Marigot","en":"Le Marigot"}},{"name":"Le Robert","state_code":"02","latitude":"14.67443270","longitude":"-61.01692720","population":null,"timezone":"America/Martinique","type":"city","translations":{"es":"Le Robert","en":"Le Robert"}},{"name":"Macouba","state_code":"02","latitude":"14.84743860","longitude":"-61.16709460","population":null,"timezone":"America/Martinique","type":"city","translations":{"es":"Macouba","en":"Macouba"}},{"name":"Sainte-Marie","state_code":"02","latitude":"14.77300930","longitude":"-61.04959970","population":null,"timezone":"America/Martinique","type":"city","translations":{"es":"Santa María","en":"Sainte-Marie"}},{"name":"Ducos","state_code":"03","latitude":"14.57854420","longitude":"-61.00973860","population":null,"timezone":"America/Martinique","type":"city","translations":{"es":"Ducos","en":"Ducos"}},{"name":"Le Diamant","state_code":"03","latitude":"14.47680040","longitude":"-61.05973840","population":null,"timezone":"America/Martinique","type":"capital","translations":{"es":"El diamante","en":"Le Diamant"}},{"name":"Le François","state_code":"03","latitude":"14.60928850","longitude":"-60.97999110","population":17394,"timezone":"America/Martinique","type":"city","translations":{"es":"El François","en":"Le François"}},{"name":"Le Marin","state_code":"03","latitude":"14.48221690","longitude":"-60.90011410","population":13359,"timezone":"America/Martinique","type":"city","translations":{"es":"Le Marin","en":"Le Marin"}},{"name":"Le Vauclin","state_code":"03","latitude":"14.54208600","longitude":"-60.90060060","population":13359,"timezone":"America/Martinique","type":"city","translations":{"es":"Le Vauclin","en":"Le Vauclin"}},{"name":"Les Anses-d'Arlet","state_code":"03","latitude":"14.49954780","longitude":"-61.11481620","population":null,"timezone":"America/Martinique","type":"city","translations":{"es":"Les Anses-d'Arlet","en":"Les Anses-d'Arlet"}},{"name":"Les Trois-Îlets","state_code":"03","latitude":"14.53287460","longitude":"-61.07877690","population":null,"timezone":"America/Martinique","type":"city","translations":{"es":"Las Tres Îletas","en":"Les Trois-Îlets"}},{"name":"Rivière-Pilote","state_code":"03","latitude":"14.50266970","longitude":"-60.93819210","population":null,"timezone":"America/Martinique","type":"city","translations":{"es":"Río Pilote","en":"Rivière-Pilote"}},{"name":"Rivière-Salée","state_code":"03","latitude":"14.52621400","longitude":"-61.00353090","population":null,"timezone":"America/Martinique","type":"city","translations":{"es":"Rivière-Salée","en":"Rivière-Salée"}},{"name":"Saint-Esprit","state_code":"03","latitude":"14.56175950","longitude":"-60.96451110","population":null,"timezone":"America/Martinique","type":"city","translations":{"es":"Santo Espíritu","en":"Saint-Esprit"}},{"name":"Sainte-Anne","state_code":"03","latitude":"14.43142200","longitude":"-60.89278760","population":null,"timezone":"America/Martinique","type":"city","translations":{"es":"Santa Ana","en":"Sainte-Anne"}},{"name":"Sainte-Luce","state_code":"03","latitude":"14.49040930","longitude":"-60.98793650","population":null,"timezone":"America/Martinique","type":"city","translations":{"es":"Santa Lucía","en":"Sainte-Luce"}},{"name":"Bellefontaine","state_code":"04","latitude":"14.67474760","longitude":"-61.16653080","population":null,"timezone":"America/Martinique","type":"city","translations":{"es":"Bellefontaine","en":"Bellefontaine"}},{"name":"Case-Pilote","state_code":"04","latitude":"14.65933990","longitude":"-61.15026120","population":null,"timezone":"America/Martinique","type":"adm4","translations":{"es":"Caso Piloto","en":"Case-Pilote"}},{"name":"Fonds-Saint-Denis","state_code":"04","latitude":"14.72275460","longitude":"-61.16189190","population":null,"timezone":"America/Martinique","type":"city","translations":{"es":"Fondo Saint-Denis","en":"Fonds-Saint-Denis"}},{"name":"Le Carbet","state_code":"04","latitude":"14.70521580","longitude":"-61.19444680","population":null,"timezone":"America/Martinique","type":"city","translations":{"es":"El Carbet","en":"Le Carbet"}},{"name":"Le Morne-Rouge","state_code":"04","latitude":"14.76953640","longitude":"-61.16292840","population":null,"timezone":"America/Martinique","type":"city","translations":{"es":"El Morne-Rouge","en":"Le Morne-Rouge"}},{"name":"Le Morne-Vert","state_code":"04","latitude":"14.70464330","longitude":"-61.15679770","population":null,"timezone":"America/Martinique","type":"city","translations":{"es":"El Morne-Vert","en":"Le Morne-Vert"}},{"name":"Le Prêcheur","state_code":"04","latitude":"14.82202610","longitude":"-61.23746860","population":null,"timezone":"America/Martinique","type":"city","translations":{"es":"El Predicador","en":"Le Prêcheur"}},{"name":"Saint-Pierre","state_code":"04","latitude":"14.77167190","longitude":"-61.21475010","population":null,"timezone":"America/Martinique","type":"city","translations":{"es":"San Pedro","en":"Saint-Pierre"}}]