[{"name":"Vingt Cinq","state_code":"AG","latitude":"-10.38803000","longitude":"56.61795000","population":250,"timezone":"Indian/Mauritius","type":"adm1","translations":{"es":"Veinticinco","en":"Vingt Cinq"}},{"name":"Albion","state_code":"BL","latitude":"-20.20814000","longitude":"57.40766000","population":3254,"timezone":"Indian/Mauritius","type":"city","translations":{"es":"Albión","en":"Albion"}},{"name":"Bambous","state_code":"BL","latitude":"-20.25667000","longitude":"57.40611000","population":15345,"timezone":"Indian/Mauritius","type":"city","translations":{"es":"Bambú","en":"Bambous"}},{"name":"Black River","state_code":"BL","latitude":"-20.32047900","longitude":"57.40372500","population":null,"timezone":"Indian/Mauritius","type":"adm1","translations":{"es":"Río Negro","en":"Black River"}},{"name":"Cascavelle","state_code":"BL","latitude":"-20.28694000","longitude":"57.40722000","population":2613,"timezone":"Indian/Mauritius","type":"city","translations":{"es":"Cascavelle","en":"Cascavelle"}},{"name":"Case Noyale","state_code":"BL","latitude":"-20.41370400","longitude":"57.36906500","population":1525,"timezone":"Indian/Mauritius","type":"city","translations":{"es":"Caso Noyale","en":"Case Noyale"}},{"name":"Chamarel","state_code":"BL","latitude":"-20.42523600","longitude":"57.39116500","population":723,"timezone":"Indian/Mauritius","type":"city","translations":{"es":"Chamarel","en":"Chamarel"}},{"name":"Flic en Flac","state_code":"BL","latitude":"-20.27417000","longitude":"57.36306000","population":2361,"timezone":"Indian/Mauritius","type":"city","translations":{"es":"Flic en Flac","en":"Flic en Flac"}},{"name":"Grande Rivière Noire","state_code":"BL","latitude":"-20.36028000","longitude":"57.36611000","population":2361,"timezone":"Indian/Mauritius","type":"city","translations":{"es":"Grande Rivière Noire","en":"Grande Rivière Noire"}},{"name":"Gros Cailloux","state_code":"BL","latitude":"-20.20722000","longitude":"57.43000000","population":3361,"timezone":"Indian/Mauritius","type":"city","translations":{"es":"Gros Cailloux","en":"Gros Cailloux"}},{"name":"La Gaulette","state_code":"BL","latitude":"-20.42938800","longitude":"57.35884100","population":null,"timezone":"Indian/Mauritius","type":"city","translations":{"es":"La Gaulette","en":"La Gaulette"}},{"name":"Le Morne","state_code":"BL","latitude":"-20.44417400","longitude":"57.33031500","population":null,"timezone":"Indian/Mauritius","type":"city","translations":{"es":"Le Morne","en":"Le Morne"}},{"name":"Petite Case Noyale","state_code":"BL","latitude":"-20.39306000","longitude":"57.36500000","population":1525,"timezone":"Indian/Mauritius","type":"city","translations":{"es":"Petite Case Noyale","en":"Petite Case Noyale"}},{"name":"Petite Rivière","state_code":"BL","latitude":"-20.19551000","longitude":"57.44592000","population":5331,"timezone":"Indian/Mauritius","type":"city","translations":{"es":"Pequeña Rivière","en":"Petite Rivière"}},{"name":"Richelieu","state_code":"BL","latitude":"-20.19084900","longitude":"57.46129900","population":9178,"timezone":"Indian/Mauritius","type":"city","translations":{"es":"Richelieu","en":"Richelieu"}},{"name":"Tamarin","state_code":"BL","latitude":"-20.32556000","longitude":"57.37056000","population":4371,"timezone":"Indian/Mauritius","type":"adm1","translations":{"es":"Tamarino","en":"Tamarin"}},{"name":"Bel Air","state_code":"FL","latitude":"-20.25849300","longitude":"57.75498700","population":null,"timezone":"Indian/Mauritius","type":"city","translations":{"es":"Bel Air","en":"Bel Air"}},{"name":"Bel Air Rivière Sèche","state_code":"FL","latitude":"-20.25777000","longitude":"57.74976000","population":18036,"timezone":"Indian/Mauritius","type":"city","translations":{"es":"Bel Air Rivière Sèche","en":"Bel Air Rivière Sèche"}},{"name":"Bon Accueil","state_code":"FL","latitude":"-20.17083000","longitude":"57.65639000","population":2912,"timezone":"Indian/Mauritius","type":"city","translations":{"es":"Buen inicio","en":"Bon Accueil"}},{"name":"Bramsthan","state_code":"FL","latitude":"-20.21297900","longitude":"57.73768000","population":null,"timezone":"Indian/Mauritius","type":"city","translations":{"es":"Bramsthan","en":"Bramsthan"}},{"name":"Brisée Verdière","state_code":"FL","latitude":"-20.16389000","longitude":"57.64667000","population":7696,"timezone":"Indian/Mauritius","type":"city","translations":{"es":"Brisée Verdière","en":"Brisée Verdière"}},{"name":"Camp de Masque","state_code":"FL","latitude":"-20.23694000","longitude":"57.66333000","population":2721,"timezone":"Indian/Mauritius","type":"city","translations":{"es":"Campamento de máscaras","en":"Camp de Masque"}},{"name":"Camp De Masque Pave","state_code":"FL","latitude":"-20.25006300","longitude":"57.67997000","population":2721,"timezone":"Indian/Mauritius","type":"city","translations":{"es":"Campamento de máscaras pavé","en":"Camp De Masque Pave"}},{"name":"Camp Ithier","state_code":"FL","latitude":"-20.21583000","longitude":"57.74556000","population":4401,"timezone":"Indian/Mauritius","type":"city","translations":{"es":"Campamento Ithier","en":"Camp Ithier"}},{"name":"Centre de Flacq","state_code":"FL","latitude":"-20.18972000","longitude":"57.71444000","population":15791,"timezone":"Indian/Mauritius","type":"adm1","translations":{"es":"Centro de Flacq","en":"Centre de Flacq"}},{"name":"Clémencia","state_code":"FL","latitude":"-20.26389000","longitude":"57.70611000","population":1835,"timezone":"Indian/Mauritius","type":"city","translations":{"es":"Clémencia","en":"Clémencia"}},{"name":"Ecroignard","state_code":"FL","latitude":"-20.22611000","longitude":"57.73611000","population":5952,"timezone":"Indian/Mauritius","type":"city","translations":{"es":"Écroignard","en":"Ecroignard"}},{"name":"Grande Retraite","state_code":"FL","latitude":"-20.16507700","longitude":"57.69461600","population":null,"timezone":"Indian/Mauritius","type":"city","translations":{"es":"Grande Retraite","en":"Grande Retraite"}},{"name":"Grande Rivière Sud Est","state_code":"FL","latitude":"-20.28611000","longitude":"57.77583000","population":2472,"timezone":"Indian/Mauritius","type":"city","translations":{"es":"Grande Rivière Sud Est","en":"Grande Rivière Sud Est"}},{"name":"Lalmatie","state_code":"FL","latitude":"-20.18972000","longitude":"57.66111000","population":10641,"timezone":"Indian/Mauritius","type":"city","translations":{"es":"Lalmatie","en":"Lalmatie"}},{"name":"Laventure","state_code":"FL","latitude":"-20.14583000","longitude":"57.67667000","population":6171,"timezone":"Indian/Mauritius","type":"city","translations":{"es":"Laventure","en":"Laventure"}},{"name":"Mare La Chaux","state_code":"FL","latitude":"-20.19806000","longitude":"57.74944000","population":2058,"timezone":"Indian/Mauritius","type":"city","translations":{"es":"Mare La Chaux","en":"Mare La Chaux"}},{"name":"Medine Camp De Masque","state_code":"FL","latitude":"-20.24395800","longitude":"57.64703500","population":7696,"timezone":"Indian/Mauritius","type":"city","translations":{"es":"Medine Camp De Masque","en":"Medine Camp De Masque"}},{"name":"Olivia","state_code":"FL","latitude":"-20.28778000","longitude":"57.73097000","population":3980,"timezone":"Indian/Mauritius","type":"city","translations":{"es":"Olivia","en":"Olivia"}},{"name":"Poste de Flacq","state_code":"FL","latitude":"-20.16306000","longitude":"57.73056000","population":8659,"timezone":"Indian/Mauritius","type":"city","translations":{"es":"Poste de Flacq","en":"Poste de Flacq"}},{"name":"Quatre Cocos","state_code":"FL","latitude":"-20.20151000","longitude":"57.77448000","population":5724,"timezone":"Indian/Mauritius","type":"city","translations":{"es":"Cuatro Cocos","en":"Quatre Cocos"}},{"name":"Quatre Soeurs","state_code":"FL","latitude":"-20.29917000","longitude":"57.77056000","population":3515,"timezone":"Indian/Mauritius","type":"city","translations":{"es":"Cuatro hermanas","en":"Quatre Soeurs"}},{"name":"Queen Victoria","state_code":"FL","latitude":"-20.22000000","longitude":"57.70750000","population":3025,"timezone":"Indian/Mauritius","type":"city","translations":{"es":"Reina Victoria","en":"Queen Victoria"}},{"name":"Saint Julien","state_code":"FL","latitude":"-20.22639000","longitude":"57.63639000","population":2002,"timezone":"Indian/Mauritius","type":"city","translations":{"es":"San Julián","en":"Saint Julien"}},{"name":"Sebastopol","state_code":"FL","latitude":"-20.29070000","longitude":"57.68779000","population":5745,"timezone":"Indian/Mauritius","type":"city","translations":{"es":"Sebastopol","en":"Sebastopol"}},{"name":"Trou D'Eau Douce","state_code":"FL","latitude":"-20.23458600","longitude":"57.79486100","population":null,"timezone":"Indian/Mauritius","type":"city","translations":{"es":"Trou D'Eau Douce","en":"Trou D'Eau Douce"}},{"name":"Bambous Virieux","state_code":"GP","latitude":"-20.34278000","longitude":"57.75750000","population":1540,"timezone":"Indian/Mauritius","type":"city","translations":{"es":"Bambú Virieux","en":"Bambous Virieux"}},{"name":"Beau Vallon","state_code":"GP","latitude":"-20.41889000","longitude":"57.69528000","population":1000,"timezone":"Indian/Mauritius","type":"city","translations":{"es":"Beau Vallon","en":"Beau Vallon"}},{"name":"Bois des Amourettes","state_code":"GP","latitude":"-20.36306000","longitude":"57.73111000","population":1986,"timezone":"Indian/Mauritius","type":"city","translations":{"es":"Bosque de los Amourettes","en":"Bois des Amourettes"}},{"name":"Camp Carol","state_code":"GP","latitude":"-20.46178500","longitude":"57.67845600","population":null,"timezone":"Indian/Mauritius","type":"city","translations":{"es":"Campamento Carol","en":"Camp Carol"}},{"name":"Cluny","state_code":"GP","latitude":"-20.36694000","longitude":"57.60389000","population":1629,"timezone":"Indian/Mauritius","type":"city","translations":{"es":"Cluny","en":"Cluny"}},{"name":"Grand Bel Air","state_code":"GP","latitude":"-20.40912400","longitude":"57.68174200","population":null,"timezone":"Indian/Mauritius","type":"city","translations":{"es":"Gran Bel Air","en":"Grand Bel Air"}},{"name":"Grand Sable","state_code":"GP","latitude":"-20.31417000","longitude":"57.76444000","population":2208,"timezone":"Indian/Mauritius","type":"city","translations":{"es":"Gran Sable","en":"Grand Sable"}},{"name":"Mahébourg","state_code":"GP","latitude":"-20.40806000","longitude":"57.70000000","population":15753,"timezone":"Indian/Mauritius","type":"city","translations":{"es":"Mahébourg","en":"Mahébourg"}},{"name":"Mare D'Albert","state_code":"GP","latitude":"-20.42019500","longitude":"57.62728800","population":null,"timezone":"Indian/Mauritius","type":"city","translations":{"es":"Mare D'Albert","en":"Mare D'Albert"}},{"name":"Mare Tabac","state_code":"GP","latitude":"-20.44035800","longitude":"57.59421500","population":null,"timezone":"Indian/Mauritius","type":"city","translations":{"es":"Tabaco Mare","en":"Mare Tabac"}},{"name":"New Grove","state_code":"GP","latitude":"-20.40861000","longitude":"57.61361000","population":11023,"timezone":"Indian/Mauritius","type":"city","translations":{"es":"Nueva arboleda","en":"New Grove"}},{"name":"Nouvelle France","state_code":"GP","latitude":"-20.37056000","longitude":"57.56111000","population":7238,"timezone":"Indian/Mauritius","type":"city","translations":{"es":"Nueva Francia","en":"Nouvelle France"}},{"name":"Petit Bel Air","state_code":"GP","latitude":"-20.39941200","longitude":"57.69295900","population":1000,"timezone":"Indian/Mauritius","type":"city","translations":{"es":"Pequeño Bel Air","en":"Petit Bel Air"}},{"name":"Plaine Magnien","state_code":"GP","latitude":"-20.42967000","longitude":"57.66968000","population":10778,"timezone":"Indian/Mauritius","type":"city","translations":{"es":"Llanura Magnien","en":"Plaine Magnien"}},{"name":"Riviere Des Creoles","state_code":"GP","latitude":"-20.39084000","longitude":"57.69696000","population":null,"timezone":"Indian/Mauritius","type":"city","translations":{"es":"Rivière des Creoles","en":"Riviere Des Creoles"}},{"name":"Rose Belle","state_code":"GP","latitude":"-20.40028000","longitude":"57.59667000","population":12619,"timezone":"Indian/Mauritius","type":"adm1","translations":{"es":"Rosa Bella","en":"Rose Belle"}},{"name":"Saint Hubert","state_code":"GP","latitude":"-20.36417000","longitude":"57.63833000","population":4170,"timezone":"Indian/Mauritius","type":"city","translations":{"es":"San Huberto","en":"Saint Hubert"}},{"name":"Seizieme Mille","state_code":"GP","latitude":"-20.34211100","longitude":"57.54924400","population":null,"timezone":"Indian/Mauritius","type":"city","translations":{"es":"Seizieme Mille","en":"Seizieme Mille"}},{"name":"Trois Boutiques","state_code":"GP","latitude":"-20.45046100","longitude":"57.64682900","population":null,"timezone":"Indian/Mauritius","type":"city","translations":{"es":"Tres boutiques","en":"Trois Boutiques"}},{"name":"Union Park","state_code":"GP","latitude":"-20.38629400","longitude":"57.58068000","population":5082,"timezone":"Indian/Mauritius","type":"city","translations":{"es":"Parque Unión","en":"Union Park"}},{"name":"Vieux Grand Port","state_code":"GP","latitude":"-20.37406600","longitude":"57.71607700","population":null,"timezone":"Indian/Mauritius","type":"city","translations":{"es":"Viejo Gran Puerto","en":"Vieux Grand Port"}},{"name":"Camp Thorel","state_code":"MO","latitude":"-20.21472000","longitude":"57.61611000","population":2299,"timezone":"Indian/Mauritius","type":"city","translations":{"es":"Campamento Thorel","en":"Camp Thorel"}},{"name":"Dagotière","state_code":"MO","latitude":"-20.24476000","longitude":"57.56188000","population":7468,"timezone":"Indian/Mauritius","type":"city","translations":{"es":"Dagotière","en":"Dagotière"}},{"name":"Dubreuil","state_code":"MO","latitude":"-20.30132000","longitude":"57.59861000","population":2726,"timezone":"Indian/Mauritius","type":"city","translations":{"es":"Dubreuil","en":"Dubreuil"}},{"name":"L'Avenir","state_code":"MO","latitude":"-20.21714200","longitude":"57.55048200","population":2208,"timezone":"Indian/Mauritius","type":"city","translations":{"es":"El porvenir","en":"L'Avenir"}},{"name":"L'Esperance","state_code":"MO","latitude":"-20.23041300","longitude":"57.59526800","population":null,"timezone":"Indian/Mauritius","type":"city","translations":{"es":"La Esperanza","en":"L'Esperance"}},{"name":"La Laura-Malenga","state_code":"MO","latitude":"-20.20386100","longitude":"57.54991500","population":null,"timezone":"Indian/Mauritius","type":"city","translations":{"es":"La Laura-Malenga","en":"La Laura-Malenga"}},{"name":"Melrose","state_code":"MO","latitude":"-20.26972000","longitude":"57.63194000","population":2002,"timezone":"Indian/Mauritius","type":"city","translations":{"es":"Melrose","en":"Melrose"}},{"name":"Moka","state_code":"MO","latitude":"-20.21889000","longitude":"57.49583000","population":1001,"timezone":"Indian/Mauritius","type":"city","translations":{"es":"Moka","en":"Moka"}},{"name":"Montagne Blanche","state_code":"MO","latitude":"-20.28592000","longitude":"57.65774600","population":9440,"timezone":"Indian/Mauritius","type":"city","translations":{"es":"Montaña Blanca","en":"Montagne Blanche"}},{"name":"Nouvelle Découverte","state_code":"MO","latitude":"-20.18600000","longitude":"57.59079700","population":1956,"timezone":"Indian/Mauritius","type":"city","translations":{"es":"Nuevo descubrimiento","en":"Nouvelle Découverte"}},{"name":"Pailles","state_code":"MO","latitude":"-20.19271000","longitude":"57.48826000","population":10622,"timezone":"Indian/Mauritius","type":"city","translations":{"es":"Lentejuelas","en":"Pailles"}},{"name":"Providence","state_code":"MO","latitude":"-20.24472000","longitude":"57.61222000","population":3126,"timezone":"Indian/Mauritius","type":"city","translations":{"es":"Providencia","en":"Providence"}},{"name":"Quartier Militaire","state_code":"MO","latitude":"-20.24790000","longitude":"57.59737000","population":6424,"timezone":"Indian/Mauritius","type":"adm1","translations":{"es":"Barrio Militar","en":"Quartier Militaire"}},{"name":"Ripailles","state_code":"MO","latitude":"-20.19472500","longitude":"57.58059600","population":null,"timezone":"Indian/Mauritius","type":"city","translations":{"es":"Ripailles","en":"Ripailles"}},{"name":"Saint Julien D'Hotman","state_code":"MO","latitude":"-20.23067000","longitude":"57.64037800","population":null,"timezone":"Indian/Mauritius","type":"city","translations":{"es":"San Julián D'Hotman","en":"Saint Julien D'Hotman"}},{"name":"Saint Pierre","state_code":"MO","latitude":"-20.21750000","longitude":"57.52083000","population":16704,"timezone":"Indian/Mauritius","type":"city","translations":{"es":"San Pedro","en":"Saint Pierre"}},{"name":"Verdun","state_code":"MO","latitude":"-20.23417000","longitude":"57.55476000","population":2208,"timezone":"Indian/Mauritius","type":"city","translations":{"es":"Verdún","en":"Verdun"}},{"name":"Arsenal","state_code":"PA","latitude":"-20.10556000","longitude":"57.53528000","population":2937,"timezone":"Indian/Mauritius","type":"city","translations":{"es":"Arsenal","en":"Arsenal"}},{"name":"Calebasses","state_code":"PA","latitude":"-20.11167000","longitude":"57.55389000","population":4816,"timezone":"Indian/Mauritius","type":"city","translations":{"es":"Calabazas","en":"Calebasses"}},{"name":"Congomah","state_code":"PA","latitude":"-20.14889000","longitude":"57.59083000","population":1956,"timezone":"Indian/Mauritius","type":"city","translations":{"es":"Congomah","en":"Congomah"}},{"name":"Crève Coeur","state_code":"PA","latitude":"-20.19111000","longitude":"57.55722000","population":2208,"timezone":"Indian/Mauritius","type":"city","translations":{"es":"Creve Coeur","en":"Crève Coeur"}},{"name":"D'Epinay","state_code":"PA","latitude":"-20.13021100","longitude":"57.59583800","population":7607,"timezone":"Indian/Mauritius","type":"city","translations":{"es":"D'Epinay","en":"D'Epinay"}},{"name":"Fond du Sac","state_code":"PA","latitude":"-20.04732000","longitude":"57.58400000","population":5186,"timezone":"Indian/Mauritius","type":"city","translations":{"es":"Fondo del saco","en":"Fond du Sac"}},{"name":"Le Hochet","state_code":"PA","latitude":"-20.13500000","longitude":"57.52111000","population":15662,"timezone":"Indian/Mauritius","type":"city","translations":{"es":"Le Hochet","en":"Le Hochet"}},{"name":"Long Mountain","state_code":"PA","latitude":"-20.14306000","longitude":"57.56222000","population":3959,"timezone":"Indian/Mauritius","type":"city","translations":{"es":"Montaña larga","en":"Long Mountain"}},{"name":"Morcellement Saint André","state_code":"PA","latitude":"-20.07199000","longitude":"57.56833000","population":6150,"timezone":"Indian/Mauritius","type":"city","translations":{"es":"Morcellement Saint André","en":"Morcellement Saint André"}},{"name":"Notre Dame","state_code":"PA","latitude":"-20.14056000","longitude":"57.55306000","population":24361,"timezone":"Indian/Mauritius","type":"city","translations":{"es":"Notre Dame","en":"Notre Dame"}},{"name":"Pamplemousses","state_code":"PA","latitude":"-20.10389000","longitude":"57.57028000","population":9682,"timezone":"Indian/Mauritius","type":"adm1","translations":{"es":"Pamplemousses","en":"Pamplemousses"}},{"name":"Plaine des Papayes","state_code":"PA","latitude":"-20.06500000","longitude":"57.57250000","population":7925,"timezone":"Indian/Mauritius","type":"city","translations":{"es":"Llanura de Papayes","en":"Plaine des Papayes"}},{"name":"Pointe aux Piments","state_code":"PA","latitude":"-20.06494000","longitude":"57.52347000","population":7556,"timezone":"Indian/Mauritius","type":"city","translations":{"es":"Punta de pimientos","en":"Pointe aux Piments"}},{"name":"Terre Rouge","state_code":"PA","latitude":"-20.12611000","longitude":"57.52444000","population":11210,"timezone":"Indian/Mauritius","type":"city","translations":{"es":"Terre Rouge","en":"Terre Rouge"}},{"name":"Tombeau Bay","state_code":"PA","latitude":"-20.12345100","longitude":"57.50218400","population":null,"timezone":"Indian/Mauritius","type":"city","translations":{"es":"Bahía de Tombeau","en":"Tombeau Bay"}},{"name":"Triolet","state_code":"PA","latitude":"-20.05760000","longitude":"57.55025000","population":23386,"timezone":"Indian/Mauritius","type":"city","translations":{"es":"Triolet","en":"Triolet"}},{"name":"Trou Aux Biches","state_code":"PA","latitude":"-20.03123500","longitude":"57.55189700","population":14706,"timezone":"Indian/Mauritius","type":"city","translations":{"es":"Trou Aux Biches","en":"Trou Aux Biches"}},{"name":"Ville Bague","state_code":"PA","latitude":"-20.14604500","longitude":"57.62414900","population":null,"timezone":"Indian/Mauritius","type":"city","translations":{"es":"Ville Bague","en":"Ville Bague"}},{"name":"Beau Bassin","state_code":"PW","latitude":"-20.22538700","longitude":"57.47145500","population":null,"timezone":"Indian/Mauritius","type":"city","translations":{"es":"Beau Bassin","en":"Beau Bassin"}},{"name":"Beau Bassin-Rose Hill","state_code":"PW","latitude":"-20.23325000","longitude":"57.46609000","population":111355,"timezone":"Indian/Mauritius","type":"adm1","translations":{"es":"Beau Bassin-Rose Hill","en":"Beau Bassin-Rose Hill"}},{"name":"Belle Terre","state_code":"PW","latitude":"-20.26948370","longitude":"57.51655530","population":null,"timezone":"Indian/Mauritius","type":"city","translations":{"es":"Bella Terre","en":"Belle Terre"}},{"name":"Camp Fouqueraux","state_code":"PW","latitude":"-20.28568630","longitude":"57.51718270","population":null,"timezone":"Indian/Mauritius","type":"city","translations":{"es":"Campamento Fouqueraux","en":"Camp Fouqueraux"}},{"name":"Chebel","state_code":"PW","latitude":"-20.21373190","longitude":"57.46075450","population":9178,"timezone":"Indian/Mauritius","type":"city","translations":{"es":"Chebel","en":"Chebel"}},{"name":"Coromandel","state_code":"PW","latitude":"-20.19522920","longitude":"57.44565340","population":5331,"timezone":"Indian/Mauritius","type":"city","translations":{"es":"Coromandel","en":"Coromandel"}},{"name":"Curepipe","state_code":"PW","latitude":"-20.31628000","longitude":"57.52594000","population":77466,"timezone":"Indian/Mauritius","type":"city","translations":{"es":"Curepipe","en":"Curepipe"}},{"name":"Eau Coulee","state_code":"PW","latitude":"-20.30336600","longitude":"57.52778800","population":78618,"timezone":"Indian/Mauritius","type":"city","translations":{"es":"Agua Coulee","en":"Eau Coulee"}},{"name":"Ebene","state_code":"PW","latitude":"-20.24494000","longitude":"57.49163000","population":1001,"timezone":"Indian/Mauritius","type":"city","translations":{"es":"Ebene","en":"Ebene"}},{"name":"Floreal","state_code":"PW","latitude":"-20.31121400","longitude":"57.50726300","population":null,"timezone":"Indian/Mauritius","type":"city","translations":{"es":"Floreal","en":"Floreal"}},{"name":"Forest Side","state_code":"PW","latitude":"-20.32952100","longitude":"57.53898100","population":null,"timezone":"Indian/Mauritius","type":"city","translations":{"es":"Lado del bosque","en":"Forest Side"}},{"name":"Glen Park","state_code":"PW","latitude":"-20.32440680","longitude":"57.47531880","population":null,"timezone":"Indian/Mauritius","type":"city","translations":{"es":"Parque Glen","en":"Glen Park"}},{"name":"Henrietta","state_code":"PW","latitude":"-20.27200480","longitude":"57.52898870","population":78618,"timezone":"Indian/Mauritius","type":"city","translations":{"es":"Enriqueta","en":"Henrietta"}},{"name":"Hermitage","state_code":"PW","latitude":"-20.27685080","longitude":"57.53471370","population":null,"timezone":"Indian/Mauritius","type":"city","translations":{"es":"Ermita","en":"Hermitage"}},{"name":"Highlands","state_code":"PW","latitude":"-20.27827480","longitude":"57.51350410","population":null,"timezone":"Indian/Mauritius","type":"city","translations":{"es":"Tierras altas","en":"Highlands"}},{"name":"Midlands","state_code":"PW","latitude":"-20.31907000","longitude":"57.57016000","population":4546,"timezone":"Indian/Mauritius","type":"city","translations":{"es":"la región central de Inglaterra","en":"Midlands"}},{"name":"Phoenix","state_code":"PW","latitude":"-20.28584460","longitude":"57.50291860","population":null,"timezone":"Indian/Mauritius","type":"city","translations":{"es":"Fénix","en":"Phoenix"}},{"name":"Quatre Bornes","state_code":"PW","latitude":"-20.26381000","longitude":"57.47910000","population":81773,"timezone":"Indian/Mauritius","type":"city","translations":{"es":"Cuatro Bornes","en":"Quatre Bornes"}},{"name":"Rose Hill","state_code":"PW","latitude":"-20.24347800","longitude":"57.46985500","population":null,"timezone":"Indian/Mauritius","type":"city","translations":{"es":"Colina de la rosa","en":"Rose Hill"}},{"name":"Vacoas","state_code":"PW","latitude":"-20.29806000","longitude":"57.47833000","population":115289,"timezone":"Indian/Mauritius","type":"city","translations":{"es":"Vacoas","en":"Vacoas"}},{"name":"Bell Village","state_code":"PL","latitude":"-20.17049700","longitude":"57.48618400","population":null,"timezone":"Indian/Mauritius","type":"city","translations":{"es":"Bell Village","en":"Bell Village"}},{"name":"Caudan Waterfront","state_code":"PL","latitude":"-20.16089880","longitude":"57.49772560","population":null,"timezone":"Indian/Mauritius","type":"city","translations":{"es":"Muelle de Caudan","en":"Caudan Waterfront"}},{"name":"China Town","state_code":"PL","latitude":"-20.15879700","longitude":"57.50678900","population":9364,"timezone":"Indian/Mauritius","type":"city","translations":{"es":"Barrio chino","en":"China Town"}},{"name":"Les Pailles","state_code":"PL","latitude":"-20.19352700","longitude":"57.48962900","population":null,"timezone":"Indian/Mauritius","type":"city","translations":{"es":"Las lentejuelas","en":"Les Pailles"}},{"name":"Les Salines","state_code":"PL","latitude":"-20.16016800","longitude":"57.48904100","population":null,"timezone":"Indian/Mauritius","type":"adm1","translations":{"es":"Las Salinas","en":"Les Salines"}},{"name":"Plaine Verte","state_code":"PL","latitude":"-20.15841000","longitude":"57.51421500","population":9364,"timezone":"Indian/Mauritius","type":"city","translations":{"es":"Llanura verde","en":"Plaine Verte"}},{"name":"Pointe aux Sables","state_code":"PL","latitude":"-20.17168700","longitude":"57.45389300","population":null,"timezone":"Indian/Mauritius","type":"city","translations":{"es":"Punta de las Arenas","en":"Pointe aux Sables"}},{"name":"Port Louis","state_code":"PL","latitude":"-20.16194000","longitude":"57.49889000","population":149194,"timezone":"Indian/Mauritius","type":"capital","translations":{"es":"Puerto Luis","en":"Port Louis"}},{"name":"Soreze","state_code":"PL","latitude":"-20.20856100","longitude":"57.48638200","population":10622,"timezone":"Indian/Mauritius","type":"city","translations":{"es":"Dolor","en":"Soreze"}},{"name":"Tour Koenig","state_code":"PL","latitude":"-20.17864600","longitude":"57.46872100","population":null,"timezone":"Indian/Mauritius","type":"city","translations":{"es":"Tour Koenig","en":"Tour Koenig"}},{"name":"Tranquebar","state_code":"PL","latitude":"-20.17681600","longitude":"57.51132900","population":9364,"timezone":"Indian/Mauritius","type":"city","translations":{"es":"Tranquebar","en":"Tranquebar"}},{"name":"Vallée des Prêtres","state_code":"PL","latitude":"-20.16514700","longitude":"57.53403900","population":null,"timezone":"Indian/Mauritius","type":"city","translations":{"es":"Valle de los Pretres","en":"Vallée des Prêtres"}},{"name":"Vallee Pitot","state_code":"PL","latitude":"-20.16920000","longitude":"57.51997000","population":null,"timezone":"Indian/Mauritius","type":"city","translations":{"es":"Valle de Pitot","en":"Vallee Pitot"}},{"name":"Amaury","state_code":"RR","latitude":"-20.13083000","longitude":"57.65917000","population":2960,"timezone":"Indian/Mauritius","type":"city","translations":{"es":"Amaury","en":"Amaury"}},{"name":"Amitié Gokoola","state_code":"RR","latitude":"-20.10688300","longitude":"57.65472800","population":2912,"timezone":"Indian/Mauritius","type":"city","translations":{"es":"Amitié Gokoola","en":"Amitié Gokoola"}},{"name":"Cap Malheureux","state_code":"RR","latitude":"-19.98417000","longitude":"57.61417000","population":5070,"timezone":"Indian/Mauritius","type":"city","translations":{"es":"Cabo Malheureux","en":"Cap Malheureux"}},{"name":"Cottage","state_code":"RR","latitude":"-20.05972000","longitude":"57.62917000","population":3646,"timezone":"Indian/Mauritius","type":"city","translations":{"es":"Cabaña","en":"Cottage"}},{"name":"Espérance Trébuchet","state_code":"RR","latitude":"-20.06972000","longitude":"57.64194000","population":2323,"timezone":"Indian/Mauritius","type":"city","translations":{"es":"Esperanza Trébuchet","en":"Espérance Trébuchet"}},{"name":"Goodlands","state_code":"RR","latitude":"-20.03841000","longitude":"57.65055000","population":20712,"timezone":"Indian/Mauritius","type":"city","translations":{"es":"Tierras buenas","en":"Goodlands"}},{"name":"Grand Baie","state_code":"RR","latitude":"-20.01816000","longitude":"57.58015000","population":12173,"timezone":"Indian/Mauritius","type":"city","translations":{"es":"Gran Baie","en":"Grand Baie"}},{"name":"Grand Gaube","state_code":"RR","latitude":"-20.00639000","longitude":"57.66083000","population":7697,"timezone":"Indian/Mauritius","type":"city","translations":{"es":"Gran Gaube","en":"Grand Gaube"}},{"name":"Mapou","state_code":"RR","latitude":"-20.07583000","longitude":"57.60139000","population":1288,"timezone":"Indian/Mauritius","type":"city","translations":{"es":"Mapou","en":"Mapou"}},{"name":"Petit Raffray","state_code":"RR","latitude":"-20.02022000","longitude":"57.62296000","population":9254,"timezone":"Indian/Mauritius","type":"city","translations":{"es":"Pequeño Raffray","en":"Petit Raffray"}},{"name":"Piton","state_code":"RR","latitude":"-20.09028000","longitude":"57.63028000","population":4942,"timezone":"Indian/Mauritius","type":"city","translations":{"es":"Pitón","en":"Piton"}},{"name":"Plaines des Roches","state_code":"RR","latitude":"-20.11167000","longitude":"57.69083000","population":4218,"timezone":"Indian/Mauritius","type":"city","translations":{"es":"Llanuras de las Rocas","en":"Plaines des Roches"}},{"name":"Poudre D'Or","state_code":"RR","latitude":"-20.06162700","longitude":"57.68297100","population":10825,"timezone":"Indian/Mauritius","type":"adm1","translations":{"es":"Polvo de oro","en":"Poudre D'Or"}},{"name":"Poudre D'Or Hamlet","state_code":"RR","latitude":"-20.08102400","longitude":"57.65272600","population":null,"timezone":"Indian/Mauritius","type":"city","translations":{"es":"Hamlet de polvo de oro","en":"Poudre D'Or Hamlet"}},{"name":"Rivière du Rempart","state_code":"RR","latitude":"-20.10306000","longitude":"57.68472000","population":10825,"timezone":"Indian/Mauritius","type":"adm1","translations":{"es":"Río del Rempart","en":"Rivière du Rempart"}},{"name":"Roche Terre","state_code":"RR","latitude":"-20.01861000","longitude":"57.64472000","population":3199,"timezone":"Indian/Mauritius","type":"city","translations":{"es":"Roche Terre","en":"Roche Terre"}},{"name":"Roches Noire","state_code":"RR","latitude":"-20.11111000","longitude":"57.71222000","population":5693,"timezone":"Indian/Mauritius","type":"city","translations":{"es":"Rocas negras","en":"Roches Noire"}},{"name":"The Vale","state_code":"RR","latitude":"-20.03018000","longitude":"57.60219000","population":3707,"timezone":"Indian/Mauritius","type":"city","translations":{"es":"El Valle","en":"The Vale"}},{"name":"Baie aux Huîtres","state_code":"RO","latitude":"-19.69444000","longitude":"63.40833000","population":2500,"timezone":"Indian/Mauritius","type":"city","translations":{"es":"Baie aux Huîtres","en":"Baie aux Huîtres"}},{"name":"Port Mathurin","state_code":"RO","latitude":"-19.68333000","longitude":"63.41667000","population":8350,"timezone":"Indian/Mauritius","type":"adm1","translations":{"es":"Puerto Mathurin","en":"Port Mathurin"}},{"name":"Cargados Carajos","state_code":"CC","latitude":"-16.60329000","longitude":"59.65851000","population":63,"timezone":"Indian/Mauritius","type":"adm1","translations":{"es":"Cargados Carajos","en":"Cargados Carajos"}},{"name":"Baie Du Cap","state_code":"SA","latitude":"-20.48664400","longitude":"57.37881500","population":null,"timezone":"Indian/Mauritius","type":"city","translations":{"es":"Bahía del Cabo","en":"Baie Du Cap"}},{"name":"Bel Ombre","state_code":"SA","latitude":"-20.50191900","longitude":"57.42550700","population":null,"timezone":"Indian/Mauritius","type":"city","translations":{"es":"Bel Ombre","en":"Bel Ombre"}},{"name":"Benares","state_code":"SA","latitude":"-20.48440700","longitude":"57.58871700","population":null,"timezone":"Indian/Mauritius","type":"city","translations":{"es":"Benarés","en":"Benares"}},{"name":"Bois Cheri","state_code":"SA","latitude":"-20.42667100","longitude":"57.53425200","population":null,"timezone":"Indian/Mauritius","type":"city","translations":{"es":"Bois Chéri","en":"Bois Cheri"}},{"name":"Britannia","state_code":"SA","latitude":"-20.44865500","longitude":"57.56340700","population":7238,"timezone":"Indian/Mauritius","type":"city","translations":{"es":"Britania","en":"Britannia"}},{"name":"Camp Diable","state_code":"SA","latitude":"-20.46278000","longitude":"57.57889000","population":5082,"timezone":"Indian/Mauritius","type":"city","translations":{"es":"Campamento Diablo","en":"Camp Diable"}},{"name":"Chamouny","state_code":"SA","latitude":"-20.48222000","longitude":"57.46611000","population":4913,"timezone":"Indian/Mauritius","type":"city","translations":{"es":"Chamouny","en":"Chamouny"}},{"name":"Chemin Grenier","state_code":"SA","latitude":"-20.48722000","longitude":"57.46556000","population":12457,"timezone":"Indian/Mauritius","type":"city","translations":{"es":"Camino Grenier","en":"Chemin Grenier"}},{"name":"Grand Bois","state_code":"SA","latitude":"-20.41889000","longitude":"57.54417000","population":7804,"timezone":"Indian/Mauritius","type":"city","translations":{"es":"Gran Bosque","en":"Grand Bois"}},{"name":"L'Escalier","state_code":"SA","latitude":"-20.47333500","longitude":"57.61867600","population":null,"timezone":"Indian/Mauritius","type":"city","translations":{"es":"La Escalier","en":"L'Escalier"}},{"name":"La Flora","state_code":"SA","latitude":"-20.41000500","longitude":"57.56048700","population":7238,"timezone":"Indian/Mauritius","type":"city","translations":{"es":"La Flora","en":"La Flora"}},{"name":"Rivière des Anguilles","state_code":"SA","latitude":"-20.48528000","longitude":"57.55083000","population":9927,"timezone":"Indian/Mauritius","type":"city","translations":{"es":"Río de las Anguilas","en":"Rivière des Anguilles"}},{"name":"Rivière Du Poste","state_code":"SA","latitude":"-20.42866200","longitude":"57.57368100","population":null,"timezone":"Indian/Mauritius","type":"city","translations":{"es":"Río del poste","en":"Rivière Du Poste"}},{"name":"Saint Aubin","state_code":"SA","latitude":"-20.49600000","longitude":"57.55000000","population":1659,"timezone":"Indian/Mauritius","type":"city","translations":{"es":"San Aubin","en":"Saint Aubin"}},{"name":"Souillac","state_code":"SA","latitude":"-20.51667000","longitude":"57.51667000","population":4154,"timezone":"Indian/Mauritius","type":"adm1","translations":{"es":"Souillac","en":"Souillac"}},{"name":"St Aubin","state_code":"SA","latitude":"-20.49444600","longitude":"57.55033500","population":1659,"timezone":"Indian/Mauritius","type":"city","translations":{"es":"San Aubin","en":"St Aubin"}},{"name":"Surinam","state_code":"SA","latitude":"-20.50972000","longitude":"57.50528000","population":10621,"timezone":"Indian/Mauritius","type":"city","translations":{"es":"Surinam","en":"Surinam"}}]