[{"name":"Bakri","state_code":"01","latitude":"2.04410000","longitude":"102.65270000","population":30280,"timezone":"Asia/Kuala_Lumpur","type":"city","translations":{"es":"Bakri","en":"Bakri"}},{"name":"Batu Pahat","state_code":"01","latitude":"1.85480000","longitude":"102.93250000","population":140000,"timezone":"Asia/Kuala_Lumpur","type":"city","translations":{"es":"Batu Pahat","en":"Batu Pahat"}},{"name":"Buloh Kasap","state_code":"01","latitude":"2.55360000","longitude":"102.76400000","population":13088,"timezone":"Asia/Kuala_Lumpur","type":"city","translations":{"es":"Buloh Kasap","en":"Buloh Kasap"}},{"name":"Chaah","state_code":"01","latitude":"2.24900000","longitude":"103.04800000","population":11844,"timezone":"Asia/Kuala_Lumpur","type":"city","translations":{"es":"Chaah","en":"Chaah"}},{"name":"Daerah Batu Pahat","state_code":"01","latitude":"1.93333000","longitude":"103.00000000","population":13000,"timezone":"Asia/Kuala_Lumpur","type":"city","translations":{"es":"Daerah Batu Pahat","en":"Daerah Batu Pahat"}},{"name":"Daerah Johor Baharu","state_code":"01","latitude":"1.65000000","longitude":"103.60000000","population":63762,"timezone":"Asia/Kuala_Lumpur","type":"city","translations":{"es":"Daerah Johor Baharu","en":"Daerah Johor Baharu"}},{"name":"Daerah Keluang","state_code":"01","latitude":"2.20000000","longitude":"103.33333000","population":null,"timezone":"Asia/Kuala_Lumpur","type":"city","translations":{"es":"Daerah Keluang","en":"Daerah Keluang"}},{"name":"Daerah Kota Tinggi","state_code":"01","latitude":"1.81667000","longitude":"103.96667000","population":1441,"timezone":"Asia/Kuala_Lumpur","type":"city","translations":{"es":"Daerah Kota Tinggi","en":"Daerah Kota Tinggi"}},{"name":"Daerah Mersing","state_code":"01","latitude":"2.31667000","longitude":"103.71667000","population":null,"timezone":"Asia/Kuala_Lumpur","type":"city","translations":{"es":"Daerah Mersing","en":"Daerah Mersing"}},{"name":"Daerah Muar","state_code":"01","latitude":"2.25000000","longitude":"102.75000000","population":null,"timezone":"Asia/Kuala_Lumpur","type":"city","translations":{"es":"Daerah Muar","en":"Daerah Muar"}},{"name":"Daerah Pontian","state_code":"01","latitude":"1.50000000","longitude":"103.50000000","population":null,"timezone":"Asia/Kuala_Lumpur","type":"city","translations":{"es":"Daerah Pontian","en":"Daerah Pontian"}},{"name":"Daerah Segamat","state_code":"01","latitude":"2.60000000","longitude":"102.81667000","population":69816,"timezone":"Asia/Kuala_Lumpur","type":"city","translations":{"es":"Daerah Segamat","en":"Daerah Segamat"}},{"name":"Johor Bahru","state_code":"01","latitude":"1.46550000","longitude":"103.75780000","population":797882,"timezone":"Asia/Kuala_Lumpur","type":"adm1","translations":{"es":"Johor Bahru","en":"Johor Bahru"}},{"name":"Kampung Pasir Gudang Baru","state_code":"01","latitude":"1.47260000","longitude":"103.87800000","population":145639,"timezone":"Asia/Kuala_Lumpur","type":"city","translations":{"es":"Kampung Pasir Gudang Baru","en":"Kampung Pasir Gudang Baru"}},{"name":"Kampung Simpang Renggam","state_code":"01","latitude":"1.82780000","longitude":"103.30000000","population":17528,"timezone":"Asia/Kuala_Lumpur","type":"city","translations":{"es":"Kampung Simpang Renggam","en":"Kampung Simpang Renggam"}},{"name":"Kelapa Sawit","state_code":"01","latitude":"1.66980000","longitude":"103.53270000","population":13239,"timezone":"Asia/Kuala_Lumpur","type":"city","translations":{"es":"Kelapa Sawit","en":"Kelapa Sawit"}},{"name":"Kluang","state_code":"01","latitude":"2.03046000","longitude":"103.31689000","population":323762,"timezone":"Asia/Kuala_Lumpur","type":"city","translations":{"es":"Kluang","en":"Kluang"}},{"name":"Kota Tinggi","state_code":"01","latitude":"1.73810000","longitude":"103.89990000","population":52743,"timezone":"Asia/Kuala_Lumpur","type":"city","translations":{"es":"Kota Tinggi","en":"Kota Tinggi"}},{"name":"Kulai","state_code":"01","latitude":"1.65610000","longitude":"103.60320000","population":63762,"timezone":"Asia/Kuala_Lumpur","type":"city","translations":{"es":"Kulai","en":"Kulai"}},{"name":"Labis","state_code":"01","latitude":"2.38500000","longitude":"103.02100000","population":21906,"timezone":"Asia/Kuala_Lumpur","type":"city","translations":{"es":"Labis","en":"Labis"}},{"name":"Mersing","state_code":"01","latitude":"2.43120000","longitude":"103.84050000","population":22007,"timezone":"Asia/Kuala_Lumpur","type":"city","translations":{"es":"Mersing","en":"Mersing"}},{"name":"Muar","state_code":"01","latitude":"2.04420000","longitude":"102.56890000","population":314776,"timezone":"Asia/Kuala_Lumpur","type":"city","translations":{"es":"Muar","en":"Muar"}},{"name":"Parit Raja","state_code":"01","latitude":"1.86810000","longitude":"103.11240000","population":17441,"timezone":"Asia/Kuala_Lumpur","type":"city","translations":{"es":"Parit Raja","en":"Parit Raja"}},{"name":"Pekan Nenas","state_code":"01","latitude":"1.51000000","longitude":"103.51410000","population":23292,"timezone":"Asia/Kuala_Lumpur","type":"city","translations":{"es":"Pekan Nenas","en":"Pekan Nenas"}},{"name":"Pontian Kechil","state_code":"01","latitude":"1.48660000","longitude":"103.38960000","population":1787,"timezone":"Asia/Kuala_Lumpur","type":"city","translations":{"es":"Ponciano Kechil","en":"Pontian Kechil"}},{"name":"Segamat","state_code":"01","latitude":"2.51480000","longitude":"102.81580000","population":69816,"timezone":"Asia/Kuala_Lumpur","type":"city","translations":{"es":"Segamat","en":"Segamat"}},{"name":"Skudai","state_code":"01","latitude":"1.53741000","longitude":"103.65779000","population":159733,"timezone":"Asia/Kuala_Lumpur","type":"section","translations":{"es":"Skudai","en":"Skudai"}},{"name":"Taman Senai","state_code":"01","latitude":"1.60060000","longitude":"103.64190000","population":73176,"timezone":"Asia/Kuala_Lumpur","type":"city","translations":{"es":"Taman Senai","en":"Taman Senai"}},{"name":"Tangkak","state_code":"01","latitude":"2.26730000","longitude":"102.54530000","population":35109,"timezone":"Asia/Kuala_Lumpur","type":"city","translations":{"es":"Tangkak","en":"Tangkak"}},{"name":"Ulu Tiram","state_code":"01","latitude":"1.60000000","longitude":"103.81667000","population":75350,"timezone":"Asia/Kuala_Lumpur","type":"city","translations":{"es":"Ulu Tiram","en":"Ulu Tiram"}},{"name":"Yong Peng","state_code":"01","latitude":"2.01360000","longitude":"103.06590000","population":27138,"timezone":"Asia/Kuala_Lumpur","type":"city","translations":{"es":"Yongpeng","en":"Yong Peng"}},{"name":"Alor Setar","state_code":"02","latitude":"6.12104000","longitude":"100.36014000","population":417800,"timezone":"Asia/Kuala_Lumpur","type":"adm1","translations":{"es":"Alor Setar","en":"Alor Setar"}},{"name":"Ayer Hangat","state_code":"02","latitude":"6.42062000","longitude":"99.82199000","population":10000,"timezone":"Asia/Kuala_Lumpur","type":"city","translations":{"es":"Ayer Hangat","en":"Ayer Hangat"}},{"name":"Bedong","state_code":"02","latitude":"5.72743000","longitude":"100.50876000","population":47585,"timezone":"Asia/Kuala_Lumpur","type":"city","translations":{"es":"Bedong","en":"Bedong"}},{"name":"Gurun","state_code":"02","latitude":"5.81717000","longitude":"100.47381000","population":15964,"timezone":"Asia/Kuala_Lumpur","type":"city","translations":{"es":"Gurún","en":"Gurun"}},{"name":"Jitra","state_code":"02","latitude":"6.26812000","longitude":"100.42167000","population":63489,"timezone":"Asia/Kuala_Lumpur","type":"city","translations":{"es":"Jitra","en":"Jitra"}},{"name":"Kampung Kilim","state_code":"02","latitude":"6.40550000","longitude":"99.85020000","population":5000,"timezone":"Asia/Kuala_Lumpur","type":"city","translations":{"es":"Kampung Kilim","en":"Kampung Kilim"}},{"name":"Kampung Kok","state_code":"02","latitude":"6.36759000","longitude":"99.68252000","population":4160,"timezone":"Asia/Kuala_Lumpur","type":"city","translations":{"es":"Kampung Kok","en":"Kampung Kok"}},{"name":"Kuah","state_code":"02","latitude":"6.32649000","longitude":"99.84320000","population":30212,"timezone":"Asia/Kuala_Lumpur","type":"adm2","translations":{"es":"Kuah","en":"Kuah"}},{"name":"Kuala Kedah","state_code":"02","latitude":"6.10000000","longitude":"100.30000000","population":19231,"timezone":"Asia/Kuala_Lumpur","type":"city","translations":{"es":"Kuala Kedah","en":"Kuala Kedah"}},{"name":"Kuala Teriang","state_code":"02","latitude":"6.36377000","longitude":"99.71532000","population":3000,"timezone":"Asia/Kuala_Lumpur","type":"city","translations":{"es":"Kuala Teriang","en":"Kuala Teriang"}},{"name":"Kulim","state_code":"02","latitude":"5.36499000","longitude":"100.56177000","population":170889,"timezone":"Asia/Kuala_Lumpur","type":"city","translations":{"es":"Kulim","en":"Kulim"}},{"name":"Langkawi","state_code":"02","latitude":"6.35608000","longitude":"99.78375000","population":64792,"timezone":"Asia/Kuala_Lumpur","type":"city","translations":{"es":"Langkawi","en":"Langkawi"}},{"name":"Padang Mat Sirat","state_code":"02","latitude":"6.35423000","longitude":"99.73404000","population":10000,"timezone":"Asia/Kuala_Lumpur","type":"city","translations":{"es":"Padang Mat Sirat","en":"Padang Mat Sirat"}},{"name":"Sungai Petani","state_code":"02","latitude":"5.64700000","longitude":"100.48772000","population":544851,"timezone":"Asia/Kuala_Lumpur","type":"city","translations":{"es":"Sungai Petani","en":"Sungai Petani"}},{"name":"Gua Musang","state_code":"03","latitude":"4.88441000","longitude":"101.96857000","population":19731,"timezone":"Asia/Kuala_Lumpur","type":"city","translations":{"es":"Gua Musang","en":"Gua Musang"}},{"name":"Kampong Kadok","state_code":"03","latitude":"6.00000000","longitude":"102.25000000","population":19233,"timezone":"Asia/Kuala_Lumpur","type":"city","translations":{"es":"Kampong Kadok","en":"Kampong Kadok"}},{"name":"Kampong Pangkal Kalong","state_code":"03","latitude":"5.91667000","longitude":"102.21667000","population":39904,"timezone":"Asia/Kuala_Lumpur","type":"city","translations":{"es":"Kampong Pangkal Kalong","en":"Kampong Pangkal Kalong"}},{"name":"Kota Bharu","state_code":"03","latitude":"6.12361000","longitude":"102.24333000","population":568900,"timezone":"Asia/Kuala_Lumpur","type":"adm1","translations":{"es":"Kota Bharu","en":"Kota Bharu"}},{"name":"Pasir Mas","state_code":"03","latitude":"6.04934000","longitude":"102.13987000","population":233400,"timezone":"Asia/Kuala_Lumpur","type":"adm2","translations":{"es":"Pasir Mas","en":"Pasir Mas"}},{"name":"Peringat","state_code":"03","latitude":"6.03333000","longitude":"102.28333000","population":23288,"timezone":"Asia/Kuala_Lumpur","type":"city","translations":{"es":"Peringat","en":"Peringat"}},{"name":"Tumpat","state_code":"03","latitude":"6.19775000","longitude":"102.17098000","population":12280,"timezone":"Asia/Kuala_Lumpur","type":"adm2","translations":{"es":"Tumpat","en":"Tumpat"}},{"name":"Kuala Lumpur","state_code":"14","latitude":"3.14120000","longitude":"101.68653000","population":1453975,"timezone":"Asia/Kuala_Lumpur","type":"capital","translations":{"es":"Kuala Lumpur","en":"Kuala Lumpur"}},{"name":"Labuan","state_code":"15","latitude":"5.28028000","longitude":"115.24750000","population":95120,"timezone":"Asia/Kuala_Lumpur","type":"adm1","translations":{"es":"Labuán","en":"Labuan"}},{"name":"Alor Gajah","state_code":"04","latitude":"2.38040000","longitude":"102.20890000","population":20163,"timezone":"Asia/Kuala_Lumpur","type":"city","translations":{"es":"Alor Gajah","en":"Alor Gajah"}},{"name":"Batu Berendam","state_code":"04","latitude":"2.24870000","longitude":"102.24600000","population":25028,"timezone":"Asia/Kuala_Lumpur","type":"city","translations":{"es":"Batu Berendam","en":"Batu Berendam"}},{"name":"Bemban","state_code":"04","latitude":"2.26840000","longitude":"102.37460000","population":14329,"timezone":"Asia/Kuala_Lumpur","type":"city","translations":{"es":"Bemban","en":"Bemban"}},{"name":"Bukit Rambai","state_code":"04","latitude":"2.25940000","longitude":"102.18380000","population":17391,"timezone":"Asia/Kuala_Lumpur","type":"city","translations":{"es":"Bukit Rambai","en":"Bukit Rambai"}},{"name":"Kampong Masjid Tanah","state_code":"04","latitude":"2.35000000","longitude":"102.11667000","population":29185,"timezone":"Asia/Kuala_Lumpur","type":"city","translations":{"es":"Mezquita Tanah del pueblo","en":"Kampong Masjid Tanah"}},{"name":"Kampung Ayer Keroh","state_code":"04","latitude":"2.26540000","longitude":"102.28010000","population":37716,"timezone":"Asia/Kuala_Lumpur","type":"city","translations":{"es":"Kampung Ayer Keroh","en":"Kampung Ayer Keroh"}},{"name":"Kampung Ayer Molek","state_code":"04","latitude":"2.21390000","longitude":"102.32780000","population":15497,"timezone":"Asia/Kuala_Lumpur","type":"city","translations":{"es":"Kampung Ayer Molek","en":"Kampung Ayer Molek"}},{"name":"Kampung Bukit Baharu","state_code":"04","latitude":"2.21520000","longitude":"102.28510000","population":55656,"timezone":"Asia/Kuala_Lumpur","type":"city","translations":{"es":"Kampung Bukit Baharu","en":"Kampung Bukit Baharu"}},{"name":"Klebang Besar","state_code":"04","latitude":"2.21860000","longitude":"102.19950000","population":38643,"timezone":"Asia/Kuala_Lumpur","type":"city","translations":{"es":"Klebang Besar","en":"Klebang Besar"}},{"name":"Kuala Sungai Baru","state_code":"04","latitude":"2.35940000","longitude":"102.03530000","population":12269,"timezone":"Asia/Kuala_Lumpur","type":"city","translations":{"es":"Kuala Sungai Baru","en":"Kuala Sungai Baru"}},{"name":"Malacca","state_code":"04","latitude":"2.19600000","longitude":"102.24050000","population":579000,"timezone":"Asia/Kuala_Lumpur","type":"adm1","translations":{"es":"Malaca","en":"Malacca"}},{"name":"Pulau Sebang","state_code":"04","latitude":"2.45500000","longitude":"102.23290000","population":11879,"timezone":"Asia/Kuala_Lumpur","type":"city","translations":{"es":"Isla Sebang","en":"Pulau Sebang"}},{"name":"Sungai Udang","state_code":"04","latitude":"2.26900000","longitude":"102.14270000","population":26044,"timezone":"Asia/Kuala_Lumpur","type":"city","translations":{"es":"Sungai Udang","en":"Sungai Udang"}},{"name":"Bahau","state_code":"05","latitude":"2.80790000","longitude":"102.40490000","population":31273,"timezone":"Asia/Kuala_Lumpur","type":"city","translations":{"es":"Bahau","en":"Bahau"}},{"name":"Kampung Baharu Nilai","state_code":"05","latitude":"2.80330000","longitude":"101.79720000","population":38612,"timezone":"Asia/Kuala_Lumpur","type":"city","translations":{"es":"Kampung Baharu Nilai","en":"Kampung Baharu Nilai"}},{"name":"Kuala Pilah","state_code":"05","latitude":"2.73890000","longitude":"102.24870000","population":19510,"timezone":"Asia/Kuala_Lumpur","type":"city","translations":{"es":"Kuala Pilah","en":"Kuala Pilah"}},{"name":"Port Dickson","state_code":"05","latitude":"2.53718000","longitude":"101.80571000","population":119300,"timezone":"Asia/Kuala_Lumpur","type":"adm2","translations":{"es":"Puerto Dickson","en":"Port Dickson"}},{"name":"Seremban","state_code":"05","latitude":"2.72970000","longitude":"101.93810000","population":419536,"timezone":"Asia/Kuala_Lumpur","type":"adm1","translations":{"es":"Seremban","en":"Seremban"}},{"name":"Tampin","state_code":"05","latitude":"2.47010000","longitude":"102.23020000","population":28238,"timezone":"Asia/Kuala_Lumpur","type":"city","translations":{"es":"Tampón","en":"Tampin"}},{"name":"Bentong Town","state_code":"06","latitude":"3.52229000","longitude":"101.90866000","population":49213,"timezone":"Asia/Kuala_Lumpur","type":"city","translations":{"es":"Ciudad de Bentong","en":"Bentong Town"}},{"name":"Jerantut","state_code":"06","latitude":"3.93600000","longitude":"102.36260000","population":33606,"timezone":"Asia/Kuala_Lumpur","type":"city","translations":{"es":"Jerantut","en":"Jerantut"}},{"name":"Kampung Bukit Tinggi Bentong","state_code":"06","latitude":"3.34944000","longitude":"101.82631000","population":12346,"timezone":"Asia/Kuala_Lumpur","type":"city","translations":{"es":"Kampung Bukit Tinggi Bentong","en":"Kampung Bukit Tinggi Bentong"}},{"name":"Kampung Tekek","state_code":"06","latitude":"2.81470000","longitude":"104.15920000","population":2000,"timezone":"Asia/Kuala_Lumpur","type":"city","translations":{"es":"Kampung Tekek","en":"Kampung Tekek"}},{"name":"Kuala Lipis","state_code":"06","latitude":"4.18420000","longitude":"102.04680000","population":15448,"timezone":"Asia/Kuala_Lumpur","type":"city","translations":{"es":"Kuala Lipis","en":"Kuala Lipis"}},{"name":"Kuantan","state_code":"06","latitude":"3.80770000","longitude":"103.32600000","population":607778,"timezone":"Asia/Kuala_Lumpur","type":"adm1","translations":{"es":"Kuantan","en":"Kuantan"}},{"name":"Mentekab","state_code":"06","latitude":"3.48540000","longitude":"102.34840000","population":42171,"timezone":"Asia/Kuala_Lumpur","type":"city","translations":{"es":"Mentekab","en":"Mentekab"}},{"name":"Pekan","state_code":"06","latitude":"3.48360000","longitude":"103.39960000","population":31826,"timezone":"Asia/Kuala_Lumpur","type":"city","translations":{"es":"Pekan","en":"Pekan"}},{"name":"Raub","state_code":"06","latitude":"3.78990000","longitude":"101.85700000","population":40024,"timezone":"Asia/Kuala_Lumpur","type":"city","translations":{"es":"Raub","en":"Raub"}},{"name":"Tanah Rata","state_code":"06","latitude":"4.46361000","longitude":"101.37630000","population":7000,"timezone":"Asia/Kuala_Lumpur","type":"adm2","translations":{"es":"Tanah Rata","en":"Tanah Rata"}},{"name":"Temerluh","state_code":"06","latitude":"3.45060000","longitude":"102.41760000","population":59916,"timezone":"Asia/Kuala_Lumpur","type":"city","translations":{"es":"Temerluh","en":"Temerluh"}},{"name":"Batu Feringgi","state_code":"07","latitude":"5.47090000","longitude":"100.24529000","population":20000,"timezone":"Asia/Kuala_Lumpur","type":"city","translations":{"es":"Batu Feringgi","en":"Batu Feringgi"}},{"name":"Bukit Mertajam","state_code":"07","latitude":"5.36301000","longitude":"100.46670000","population":212329,"timezone":"Asia/Kuala_Lumpur","type":"city","translations":{"es":"Bukit Mertajam","en":"Bukit Mertajam"}},{"name":"Butterworth","state_code":"07","latitude":"5.39910000","longitude":"100.36382000","population":107591,"timezone":"Asia/Kuala_Lumpur","type":"city","translations":{"es":"Butterworth","en":"Butterworth"}},{"name":"George Town","state_code":"07","latitude":"5.41123000","longitude":"100.33543000","population":158336,"timezone":"Asia/Kuala_Lumpur","type":"adm1","translations":{"es":"George Town","en":"George Town"}},{"name":"Juru","state_code":"07","latitude":"5.31201000","longitude":"100.44229000","population":12265,"timezone":"Asia/Kuala_Lumpur","type":"city","translations":{"es":"Juru","en":"Juru"}},{"name":"Kampung Batu Feringgi","state_code":"07","latitude":"5.46948000","longitude":"100.24449000","population":4000,"timezone":"Asia/Kuala_Lumpur","type":"city","translations":{"es":"Kampung Batu Feringgi","en":"Kampung Batu Feringgi"}},{"name":"Kampung Sungai Ara","state_code":"07","latitude":"5.32699000","longitude":"100.27348000","population":140849,"timezone":"Asia/Kuala_Lumpur","type":"city","translations":{"es":"Kampung Sungai Ara","en":"Kampung Sungai Ara"}},{"name":"Kepala Batas","state_code":"07","latitude":"5.51707000","longitude":"100.42650000","population":17131,"timezone":"Asia/Kuala_Lumpur","type":"city","translations":{"es":"Kepala Batas","en":"Kepala Batas"}},{"name":"Nibong Tebal","state_code":"07","latitude":"5.16586000","longitude":"100.47793000","population":40072,"timezone":"Asia/Kuala_Lumpur","type":"city","translations":{"es":"Nibong Tebal","en":"Nibong Tebal"}},{"name":"Perai","state_code":"07","latitude":"5.38333000","longitude":"100.38333000","population":65301,"timezone":"Asia/Kuala_Lumpur","type":"city","translations":{"es":"Perai","en":"Perai"}},{"name":"Permatang Kuching","state_code":"07","latitude":"5.46339000","longitude":"100.38144000","population":27191,"timezone":"Asia/Kuala_Lumpur","type":"city","translations":{"es":"Permatang Kuching","en":"Permatang Kuching"}},{"name":"Seberang Perai","state_code":"07","latitude":"5.38770000","longitude":"100.42603000","population":2439,"timezone":"Asia/Kuala_Lumpur","type":"city","translations":{"es":"Seberang Perai","en":"Seberang Perai"}},{"name":"Tanjung Tokong","state_code":"07","latitude":"5.46061000","longitude":"100.30742000","population":12550,"timezone":"Asia/Kuala_Lumpur","type":"city","translations":{"es":"Tanjung Tokong","en":"Tanjung Tokong"}},{"name":"Tasek Glugor","state_code":"07","latitude":"5.48032000","longitude":"100.49849000","population":135786,"timezone":"Asia/Kuala_Lumpur","type":"city","translations":{"es":"Tasek Glugor","en":"Tasek Glugor"}},{"name":"Telaga Batu","state_code":"07","latitude":"5.46667000","longitude":"100.23333000","population":10000,"timezone":"Asia/Kuala_Lumpur","type":"city","translations":{"es":"Telaga Batu","en":"Telaga Batu"}},{"name":"Bagan Serai","state_code":"08","latitude":"5.01080000","longitude":"100.54101000","population":20476,"timezone":"Asia/Kuala_Lumpur","type":"city","translations":{"es":"Serai de Bagan","en":"Bagan Serai"}},{"name":"Batu Gajah","state_code":"08","latitude":"4.46916000","longitude":"101.04107000","population":46183,"timezone":"Asia/Kuala_Lumpur","type":"city","translations":{"es":"Batu Gajah","en":"Batu Gajah"}},{"name":"Bidur","state_code":"08","latitude":"4.11667000","longitude":"101.28333000","population":30016,"timezone":"Asia/Kuala_Lumpur","type":"city","translations":{"es":"Bidur","en":"Bidur"}},{"name":"Ipoh","state_code":"08","latitude":"4.58410000","longitude":"101.08290000","population":866772,"timezone":"Asia/Kuala_Lumpur","type":"adm1","translations":{"es":"Ipoh","en":"Ipoh"}},{"name":"Kampar","state_code":"08","latitude":"4.30000000","longitude":"101.15000000","population":19056,"timezone":"Asia/Kuala_Lumpur","type":"city","translations":{"es":"Kampar","en":"Kampar"}},{"name":"Kampong Dungun","state_code":"08","latitude":"3.21667000","longitude":"101.31667000","population":58674,"timezone":"Asia/Kuala_Lumpur","type":"city","translations":{"es":"Kampong Dungun","en":"Kampong Dungun"}},{"name":"Kuala Kangsar","state_code":"08","latitude":"4.76667000","longitude":"100.93333000","population":39300,"timezone":"Asia/Kuala_Lumpur","type":"city","translations":{"es":"Kuala Kangsar","en":"Kuala Kangsar"}},{"name":"Lumut","state_code":"08","latitude":"4.23230000","longitude":"100.62980000","population":39595,"timezone":"Asia/Kuala_Lumpur","type":"city","translations":{"es":"Lumut","en":"Lumut"}},{"name":"Pantai Remis","state_code":"08","latitude":"4.45570000","longitude":"100.62880000","population":16317,"timezone":"Asia/Kuala_Lumpur","type":"city","translations":{"es":"Pantai Remis","en":"Pantai Remis"}},{"name":"Parit Buntar","state_code":"08","latitude":"5.12671000","longitude":"100.49316000","population":27313,"timezone":"Asia/Kuala_Lumpur","type":"city","translations":{"es":"Parit Buntar","en":"Parit Buntar"}},{"name":"Simpang Empat","state_code":"08","latitude":"4.95000000","longitude":"100.63333000","population":58004,"timezone":"Asia/Kuala_Lumpur","type":"city","translations":{"es":"Simpang Empat","en":"Simpang Empat"}},{"name":"Taiping","state_code":"08","latitude":"4.85000000","longitude":"100.73333000","population":217647,"timezone":"Asia/Kuala_Lumpur","type":"city","translations":{"es":"Taiping","en":"Taiping"}},{"name":"Tapah Road","state_code":"08","latitude":"4.16667000","longitude":"101.20000000","population":27863,"timezone":"Asia/Kuala_Lumpur","type":"city","translations":{"es":"Carretera Tapah","en":"Tapah Road"}},{"name":"Teluk Intan","state_code":"08","latitude":"4.02219000","longitude":"101.02083000","population":232800,"timezone":"Asia/Kuala_Lumpur","type":"city","translations":{"es":"Teluk Intan","en":"Teluk Intan"}},{"name":"Kangar","state_code":"09","latitude":"6.44140000","longitude":"100.19862000","population":63869,"timezone":"Asia/Kuala_Lumpur","type":"adm1","translations":{"es":"Canguro","en":"Kangar"}},{"name":"Kuala Perlis","state_code":"09","latitude":"6.40000000","longitude":"100.13333000","population":13917,"timezone":"Asia/Kuala_Lumpur","type":"city","translations":{"es":"Kuala Perlis","en":"Kuala Perlis"}},{"name":"Pantai Cenang","state_code":"09","latitude":"6.29369000","longitude":"99.72786000","population":15000,"timezone":"Asia/Kuala_Lumpur","type":"city","translations":{"es":"Playa Cenang","en":"Pantai Cenang"}},{"name":"Putrajaya","state_code":"16","latitude":"2.93527000","longitude":"101.69112000","population":50000,"timezone":"Asia/Kuala_Lumpur","type":"gov_seat","translations":{"es":"Putrajaya","en":"Putrajaya"}},{"name":"Bandar Labuan","state_code":"12","latitude":"5.28883000","longitude":"115.26924000","population":54752,"timezone":"Asia/Kuching","type":"city","translations":{"es":"Bandar Labuan","en":"Bandar Labuan"}},{"name":"Beaufort","state_code":"12","latitude":"5.34730000","longitude":"115.74550000","population":15855,"timezone":"Asia/Kuching","type":"city","translations":{"es":"Beaufort","en":"Beaufort"}},{"name":"Donggongon","state_code":"12","latitude":"5.90702000","longitude":"116.10146000","population":78086,"timezone":"Asia/Kuching","type":"city","translations":{"es":"Donggongon","en":"Donggongon"}},{"name":"Keningau","state_code":"12","latitude":"5.33780000","longitude":"116.16020000","population":77650,"timezone":"Asia/Kuching","type":"city","translations":{"es":"Keningau","en":"Keningau"}},{"name":"Kinarut","state_code":"12","latitude":"5.82310000","longitude":"116.04660000","population":15716,"timezone":"Asia/Kuching","type":"city","translations":{"es":"Kinarut","en":"Kinarut"}},{"name":"Kota Belud","state_code":"12","latitude":"6.35100000","longitude":"116.43050000","population":12825,"timezone":"Asia/Kuching","type":"city","translations":{"es":"Kota Belud","en":"Kota Belud"}},{"name":"Kota Kinabalu","state_code":"12","latitude":"5.97490000","longitude":"116.07240000","population":500421,"timezone":"Asia/Kuching","type":"adm1","translations":{"es":"Kota Kinabalu","en":"Kota Kinabalu"}},{"name":"Kudat","state_code":"12","latitude":"6.88732000","longitude":"116.82364000","population":32393,"timezone":"Asia/Kuching","type":"city","translations":{"es":"Kudat","en":"Kudat"}},{"name":"Lahad Datu","state_code":"12","latitude":"5.02298000","longitude":"118.32897000","population":105622,"timezone":"Asia/Kuching","type":"city","translations":{"es":"Lahad Datu","en":"Lahad Datu"}},{"name":"Papar","state_code":"12","latitude":"5.73333000","longitude":"115.93333000","population":19278,"timezone":"Asia/Kuching","type":"city","translations":{"es":"Papar","en":"Papar"}},{"name":"Putatan","state_code":"12","latitude":"5.92580000","longitude":"116.06094000","population":78340,"timezone":"Asia/Kuching","type":"city","translations":{"es":"Putatán","en":"Putatan"}},{"name":"Ranau","state_code":"12","latitude":"5.95380000","longitude":"116.66410000","population":19294,"timezone":"Asia/Kuching","type":"city","translations":{"es":"Ranau","en":"Ranau"}},{"name":"Sandakan","state_code":"12","latitude":"5.84020000","longitude":"118.11790000","population":396290,"timezone":"Asia/Kuching","type":"city","translations":{"es":"Sandakan","en":"Sandakan"}},{"name":"Semporna","state_code":"12","latitude":"4.48178000","longitude":"118.61119000","population":62641,"timezone":"Asia/Kuching","type":"city","translations":{"es":"Semporna","en":"Semporna"}},{"name":"Taman Rajawali","state_code":"12","latitude":"5.89477000","longitude":"118.04576000","population":10000,"timezone":"Asia/Kuching","type":"city","translations":{"es":"Taman Rajawali","en":"Taman Rajawali"}},{"name":"Tawau","state_code":"12","latitude":"4.24482000","longitude":"117.89115000","population":372615,"timezone":"Asia/Kuching","type":"city","translations":{"es":"Tawau","en":"Tawau"}},{"name":"Bintulu","state_code":"13","latitude":"3.16667000","longitude":"113.03333000","population":151617,"timezone":"Asia/Kuching","type":"city","translations":{"es":"Bintulu","en":"Bintulu"}},{"name":"Data Kakus","state_code":"13","latitude":"2.65465000","longitude":"113.62249000","population":3350,"timezone":"Asia/Kuching","type":"locality","translations":{"es":"Datos Kakus","en":"Data Kakus"}},{"name":"Kapit","state_code":"13","latitude":"1.99546000","longitude":"112.93254000","population":33014,"timezone":"Asia/Kuching","type":"city","translations":{"es":"Kapit","en":"Kapit"}},{"name":"Kuching","state_code":"13","latitude":"1.55000000","longitude":"110.33333000","population":325132,"timezone":"Asia/Kuching","type":"adm1","translations":{"es":"Kuching","en":"Kuching"}},{"name":"Lawas","state_code":"13","latitude":"4.86040000","longitude":"115.40900000","population":26002,"timezone":"Asia/Kuching","type":"city","translations":{"es":"Lawas","en":"Lawas"}},{"name":"Lidung Jelo","state_code":"13","latitude":"2.64848000","longitude":"114.78653000","population":1900,"timezone":"Asia/Kuching","type":"historical","translations":{"es":"Lidung Jelo","en":"Lidung Jelo"}},{"name":"Limbang","state_code":"13","latitude":"4.75000000","longitude":"115.00000000","population":38093,"timezone":"Asia/Kuching","type":"city","translations":{"es":"Limbang","en":"Limbang"}},{"name":"Long Ampan Aing or Abanang","state_code":"13","latitude":"2.65671000","longitude":"114.73675000","population":1850,"timezone":"Asia/Kuching","type":"historical","translations":{"es":"Long Ampan Aing o Abanang","en":"Long Ampan Aing or Abanang"}},{"name":"Marudi","state_code":"13","latitude":"4.18333000","longitude":"114.31667000","population":90100,"timezone":"Asia/Kuching","type":"city","translations":{"es":"Marudi","en":"Marudi"}},{"name":"Miri","state_code":"13","latitude":"4.39928000","longitude":"113.99163000","population":300543,"timezone":"Asia/Kuching","type":"city","translations":{"es":"Miri","en":"Miri"}},{"name":"Mukah","state_code":"13","latitude":"2.89435000","longitude":"112.09145000","population":33478,"timezone":"Asia/Kuching","type":"city","translations":{"es":"Mukah","en":"Mukah"}},{"name":"Sarikei","state_code":"13","latitude":"2.11667000","longitude":"111.51667000","population":44039,"timezone":"Asia/Kuching","type":"city","translations":{"es":"Sarikei","en":"Sarikei"}},{"name":"Sibu","state_code":"13","latitude":"2.30000000","longitude":"111.81667000","population":198239,"timezone":"Asia/Kuching","type":"city","translations":{"es":"Sibú","en":"Sibu"}},{"name":"Simanggang","state_code":"13","latitude":"1.24722000","longitude":"111.45278000","population":47313,"timezone":"Asia/Kuching","type":"city","translations":{"es":"Simanggang","en":"Simanggang"}},{"name":"Ampang","state_code":"10","latitude":"3.15000000","longitude":"101.76667000","population":126285,"timezone":"Asia/Kuala_Lumpur","type":"city","translations":{"es":"Ampang","en":"Ampang"}},{"name":"Bagan Pulau Ketam","state_code":"10","latitude":"3.01667000","longitude":"101.26667000","population":2000,"timezone":"Asia/Kuala_Lumpur","type":"city","translations":{"es":"Bagan Pulau Ketam","en":"Bagan Pulau Ketam"}},{"name":"Banting","state_code":"10","latitude":"2.81360000","longitude":"101.50185000","population":48240,"timezone":"Asia/Kuala_Lumpur","type":"city","translations":{"es":"Banting","en":"Banting"}},{"name":"Batang Berjuntai","state_code":"10","latitude":"3.38333000","longitude":"101.41667000","population":20001,"timezone":"Asia/Kuala_Lumpur","type":"city","translations":{"es":"Batang Berjuntai","en":"Batang Berjuntai"}},{"name":"Batu Arang","state_code":"10","latitude":"3.31667000","longitude":"101.46667000","population":22579,"timezone":"Asia/Kuala_Lumpur","type":"city","translations":{"es":"Batu Arang","en":"Batu Arang"}},{"name":"Jenjarum","state_code":"10","latitude":"2.87240000","longitude":"101.49484000","population":24857,"timezone":"Asia/Kuala_Lumpur","type":"city","translations":{"es":"Jenjarum","en":"Jenjarum"}},{"name":"Kampong Baharu Balakong","state_code":"10","latitude":"3.03333000","longitude":"101.75000000","population":69302,"timezone":"Asia/Kuala_Lumpur","type":"city","translations":{"es":"Kampong Baharu Balakong","en":"Kampong Baharu Balakong"}},{"name":"Kampung Baru Subang","state_code":"10","latitude":"3.15000000","longitude":"101.53333000","population":833571,"timezone":"Asia/Kuala_Lumpur","type":"city","translations":{"es":"Kampung Baru Subang","en":"Kampung Baru Subang"}},{"name":"Kampung Tanjung Karang","state_code":"10","latitude":"3.42420000","longitude":"101.18490000","population":16393,"timezone":"Asia/Kuala_Lumpur","type":"city","translations":{"es":"Kampung Tanjung Karang","en":"Kampung Tanjung Karang"}},{"name":"Klang","state_code":"10","latitude":"3.03667000","longitude":"101.44333000","population":240016,"timezone":"Asia/Kuala_Lumpur","type":"city","translations":{"es":"Klang","en":"Klang"}},{"name":"Kuala Selangor","state_code":"10","latitude":"3.35000000","longitude":"101.25000000","population":55887,"timezone":"Asia/Kuala_Lumpur","type":"city","translations":{"es":"Kuala Selangor","en":"Kuala Selangor"}},{"name":"Kuang","state_code":"10","latitude":"3.25940000","longitude":"101.55410000","population":21185,"timezone":"Asia/Kuala_Lumpur","type":"city","translations":{"es":"Kuang","en":"Kuang"}},{"name":"Ladang Seri Kundang","state_code":"10","latitude":"3.28560000","longitude":"101.51900000","population":23307,"timezone":"Asia/Kuala_Lumpur","type":"city","translations":{"es":"Ladang Seri Kundang","en":"Ladang Seri Kundang"}},{"name":"Pelabuhan Klang","state_code":"10","latitude":"2.99959000","longitude":"101.39287000","population":20000,"timezone":"Asia/Kuala_Lumpur","type":"city","translations":{"es":"Pelabuhan Klang","en":"Pelabuhan Klang"}},{"name":"Petaling Jaya","state_code":"10","latitude":"3.10726000","longitude":"101.60671000","population":807879,"timezone":"Asia/Kuala_Lumpur","type":"adm2","translations":{"es":"Petaling Jaya","en":"Petaling Jaya"}},{"name":"Puchong","state_code":"10","latitude":"3.03270000","longitude":"101.61880000","population":93822,"timezone":"Asia/Kuala_Lumpur","type":"city","translations":{"es":"Puchong","en":"Puchong"}},{"name":"Putra Heights","state_code":"10","latitude":"2.99361000","longitude":"101.57255000","population":60000,"timezone":"Asia/Kuala_Lumpur","type":"city","translations":{"es":"Alturas de Putra","en":"Putra Heights"}},{"name":"Rawang","state_code":"10","latitude":"3.32130000","longitude":"101.57670000","population":199095,"timezone":"Asia/Kuala_Lumpur","type":"city","translations":{"es":"Rawang","en":"Rawang"}},{"name":"Semenyih","state_code":"10","latitude":"2.95160000","longitude":"101.84300000","population":92491,"timezone":"Asia/Kuala_Lumpur","type":"city","translations":{"es":"Semenyih","en":"Semenyih"}},{"name":"Serendah","state_code":"10","latitude":"3.36460000","longitude":"101.60410000","population":71202,"timezone":"Asia/Kuala_Lumpur","type":"city","translations":{"es":"Serendah","en":"Serendah"}},{"name":"Shah Alam","state_code":"10","latitude":"3.08507000","longitude":"101.53281000","population":740750,"timezone":"Asia/Kuala_Lumpur","type":"city","translations":{"es":"Shah Alam","en":"Shah Alam"}},{"name":"Subang Jaya","state_code":"10","latitude":"3.04384000","longitude":"101.58062000","population":708296,"timezone":"Asia/Kuala_Lumpur","type":"section","translations":{"es":"Subang Jaya","en":"Subang Jaya"}},{"name":"Sungai Besar","state_code":"10","latitude":"3.67460000","longitude":"100.98670000","population":26939,"timezone":"Asia/Kuala_Lumpur","type":"city","translations":{"es":"Sungai Besar","en":"Sungai Besar"}},{"name":"Sungai Pelek New Village","state_code":"10","latitude":"2.65000000","longitude":"101.70000000","population":13829,"timezone":"Asia/Kuala_Lumpur","type":"city","translations":{"es":"Sungai Pelek New Village","en":"Sungai Pelek New Village"}},{"name":"Tanjung Sepat","state_code":"10","latitude":"2.65790000","longitude":"101.56290000","population":22340,"timezone":"Asia/Kuala_Lumpur","type":"city","translations":{"es":"Tanjung Sepat","en":"Tanjung Sepat"}},{"name":"Cukai","state_code":"11","latitude":"4.25000000","longitude":"103.41667000","population":82425,"timezone":"Asia/Kuala_Lumpur","type":"city","translations":{"es":"Cukai","en":"Cukai"}},{"name":"Jertih","state_code":"11","latitude":"5.73360000","longitude":"102.48970000","population":13526,"timezone":"Asia/Kuala_Lumpur","type":"city","translations":{"es":"Jertih","en":"Jertih"}},{"name":"Kampung Kuala Besut","state_code":"11","latitude":"5.83297000","longitude":"102.55061000","population":2400,"timezone":"Asia/Kuala_Lumpur","type":"city","translations":{"es":"Kampung Kuala Besut","en":"Kampung Kuala Besut"}},{"name":"Kertih","state_code":"11","latitude":"4.51410000","longitude":"103.44830000","population":24401,"timezone":"Asia/Kuala_Lumpur","type":"city","translations":{"es":"Kertih","en":"Kertih"}},{"name":"Kuala Besut","state_code":"11","latitude":"5.83303000","longitude":"102.55514000","population":2400,"timezone":"Asia/Kuala_Lumpur","type":"city","translations":{"es":"Kuala Besut","en":"Kuala Besut"}},{"name":"Kuala Terengganu","state_code":"11","latitude":"5.33020000","longitude":"103.14080000","population":426500,"timezone":"Asia/Kuala_Lumpur","type":"adm1","translations":{"es":"Kuala Terengganu","en":"Kuala Terengganu"}},{"name":"Marang","state_code":"11","latitude":"5.20560000","longitude":"103.20590000","population":21410,"timezone":"Asia/Kuala_Lumpur","type":"city","translations":{"es":"Marang","en":"Marang"}},{"name":"Paka","state_code":"11","latitude":"4.63740000","longitude":"103.43680000","population":21044,"timezone":"Asia/Kuala_Lumpur","type":"city","translations":{"es":"Paka","en":"Paka"}}]