[{"name":"Boaco","state_code":"BO","latitude":"12.47224000","longitude":"-85.65860000","population":29046,"timezone":"America/Managua","type":"adm1","translations":{"es":"Boaco","en":"Boaco"}},{"name":"Camoapa","state_code":"BO","latitude":"12.38383000","longitude":"-85.51277000","population":16653,"timezone":"America/Managua","type":"adm2","translations":{"es":"Camoapa","en":"Camoapa"}},{"name":"San José de los Remates","state_code":"BO","latitude":"12.59750000","longitude":"-85.76174000","population":2115,"timezone":"America/Managua","type":"adm2","translations":{"es":"San José de los Remates","en":"San José de los Remates"}},{"name":"San Lorenzo","state_code":"BO","latitude":"12.37830000","longitude":"-85.66646000","population":8694,"timezone":"America/Managua","type":"adm2","translations":{"es":"San Lorenzo","en":"San Lorenzo"}},{"name":"Santa Lucía","state_code":"BO","latitude":"12.53262000","longitude":"-85.71074000","population":1869,"timezone":"America/Managua","type":"adm2","translations":{"es":"Santa Lucía","en":"Santa Lucía"}},{"name":"Teustepe","state_code":"BO","latitude":"12.42030000","longitude":"-85.79798000","population":5000,"timezone":"America/Managua","type":"adm2","translations":{"es":"Teustepe","en":"Teustepe"}},{"name":"Diriamba","state_code":"CA","latitude":"11.85812000","longitude":"-86.23922000","population":35008,"timezone":"America/Managua","type":"adm2","translations":{"es":"Diriamba","en":"Diriamba"}},{"name":"Dolores","state_code":"CA","latitude":"11.85672000","longitude":"-86.21552000","population":7065,"timezone":"America/Managua","type":"adm2","translations":{"es":"Dolores","en":"Dolores"}},{"name":"El Rosario","state_code":"CA","latitude":"11.77756000","longitude":"-86.37374000","population":2991,"timezone":"America/Managua","type":"city","translations":{"es":"El Rosario","en":"El Rosario"}},{"name":"Jinotepe","state_code":"CA","latitude":"11.84962000","longitude":"-86.19903000","population":29507,"timezone":"America/Managua","type":"adm1","translations":{"es":"Jinotepe","en":"Jinotepe"}},{"name":"La Conquista","state_code":"CA","latitude":"11.73426000","longitude":"-86.19279000","population":919,"timezone":"America/Managua","type":"adm2","translations":{"es":"La Conquista","en":"La Conquista"}},{"name":"La Paz de Carazo","state_code":"CA","latitude":"11.82311000","longitude":"-86.12781000","population":2454,"timezone":"America/Managua","type":"adm2","translations":{"es":"La Paz de Carazo","en":"La Paz de Carazo"}},{"name":"Municipio de San Marcos","state_code":"CA","latitude":"11.91784000","longitude":"-86.27474000","population":null,"timezone":"America/Managua","type":"adm2","translations":{"es":"Municipio de San Marcos","en":"Municipio de San Marcos"}},{"name":"San Marcos","state_code":"CA","latitude":"11.90949000","longitude":"-86.20351000","population":23347,"timezone":"America/Managua","type":"adm2","translations":{"es":"San Marcos","en":"San Marcos"}},{"name":"Santa Teresa","state_code":"CA","latitude":"11.74321000","longitude":"-86.21413000","population":5789,"timezone":"America/Managua","type":"city","translations":{"es":"Santa Teresa","en":"Santa Teresa"}},{"name":"Chichigalpa","state_code":"CI","latitude":"12.57758000","longitude":"-87.02705000","population":33137,"timezone":"America/Managua","type":"adm2","translations":{"es":"Chichigalpa","en":"Chichigalpa"}},{"name":"Chinandega","state_code":"CI","latitude":"12.62937000","longitude":"-87.13105000","population":137539,"timezone":"America/Managua","type":"adm1","translations":{"es":"Chinandega","en":"Chinandega"}},{"name":"Cinco Pinos","state_code":"CI","latitude":"13.22956000","longitude":"-86.86808000","population":784,"timezone":"America/Managua","type":"adm2","translations":{"es":"Cinco Pinos","en":"Cinco Pinos"}},{"name":"Corinto","state_code":"CI","latitude":"12.48250000","longitude":"-87.17304000","population":19183,"timezone":"America/Managua","type":"adm2","translations":{"es":"Corinto","en":"Corinto"}},{"name":"El Realejo","state_code":"CI","latitude":"12.54333000","longitude":"-87.16517000","population":6208,"timezone":"America/Managua","type":"adm2","translations":{"es":"El Realejo","en":"El Realejo"}},{"name":"El Viejo","state_code":"CI","latitude":"12.66348000","longitude":"-87.16663000","population":53504,"timezone":"America/Managua","type":"adm2","translations":{"es":"El Viejo","en":"El Viejo"}},{"name":"Jiquilillo","state_code":"CI","latitude":"12.74593000","longitude":"-87.45160000","population":4142,"timezone":"America/Managua","type":"city","translations":{"es":"Jiquilillo","en":"Jiquilillo"}},{"name":"Municipio de San Francisco del Norte","state_code":"CI","latitude":"13.21187000","longitude":"-86.77107000","population":0,"timezone":"America/Managua","type":"adm2","translations":{"es":"Municipio de San Francisco del Norte","en":"Municipio de San Francisco del Norte"}},{"name":"Posoltega","state_code":"CI","latitude":"12.54422000","longitude":"-86.97982000","population":6403,"timezone":"America/Managua","type":"adm2","translations":{"es":"Posoltega","en":"Posoltega"}},{"name":"Puerto Morazán","state_code":"CI","latitude":"12.85042000","longitude":"-87.17167000","population":7671,"timezone":"America/Managua","type":"city","translations":{"es":"Puerto Morazán","en":"Puerto Morazán"}},{"name":"Santo Tomás del Norte","state_code":"CI","latitude":"13.18610000","longitude":"-86.92267000","population":608,"timezone":"America/Managua","type":"adm2","translations":{"es":"Santo Tomás del Norte","en":"Santo Tomás del Norte"}},{"name":"Somotillo","state_code":"CI","latitude":"13.04387000","longitude":"-86.90506000","population":15385,"timezone":"America/Managua","type":"adm2","translations":{"es":"Somotillo","en":"Somotillo"}},{"name":"Acoyapa","state_code":"CO","latitude":"11.97028000","longitude":"-85.17113000","population":10536,"timezone":"America/Managua","type":"adm2","translations":{"es":"Acoyapa","en":"Acoyapa"}},{"name":"Comalapa","state_code":"CO","latitude":"12.28345000","longitude":"-85.51081000","population":1272,"timezone":"America/Managua","type":"adm2","translations":{"es":"Comalapa","en":"Comalapa"}},{"name":"Cuapa","state_code":"CO","latitude":"12.26875000","longitude":"-85.38205000","population":2400,"timezone":"America/Managua","type":"adm2","translations":{"es":"Cuapa","en":"Cuapa"}},{"name":"El Ayote","state_code":"CO","latitude":"12.19046000","longitude":"-85.28737000","population":5406,"timezone":"America/Managua","type":"city","translations":{"es":"El Ayote","en":"El Ayote"}},{"name":"Juigalpa","state_code":"CO","latitude":"12.10629000","longitude":"-85.36452000","population":51838,"timezone":"America/Managua","type":"adm1","translations":{"es":"Juigalpa","en":"Juigalpa"}},{"name":"La Libertad","state_code":"CO","latitude":"12.21635000","longitude":"-85.16595000","population":3127,"timezone":"America/Managua","type":"adm2","translations":{"es":"La Libertad","en":"La Libertad"}},{"name":"Santo Domingo","state_code":"CO","latitude":"12.26438000","longitude":"-85.08235000","population":5827,"timezone":"America/Managua","type":"adm2","translations":{"es":"Santo Domingo","en":"Santo Domingo"}},{"name":"Santo Tomás","state_code":"CO","latitude":"12.06938000","longitude":"-85.09059000","population":14809,"timezone":"America/Managua","type":"adm2","translations":{"es":"Santo Tomás","en":"Santo Tomás"}},{"name":"Villa Sandino","state_code":"CO","latitude":"12.04830000","longitude":"-84.99362000","population":7799,"timezone":"America/Managua","type":"adm2","translations":{"es":"Villa Sandino","en":"Villa Sandino"}},{"name":"Condega","state_code":"ES","latitude":"13.36502000","longitude":"-86.39846000","population":11000,"timezone":"America/Managua","type":"adm2","translations":{"es":"Condega","en":"Condega"}},{"name":"Estelí","state_code":"ES","latitude":"13.09185000","longitude":"-86.35384000","population":105709,"timezone":"America/Managua","type":"adm1","translations":{"es":"Estelí","en":"Estelí"}},{"name":"La Trinidad","state_code":"ES","latitude":"12.96881000","longitude":"-86.23534000","population":0,"timezone":"America/Managua","type":"adm2","translations":{"es":"La Trinidad","en":"La Trinidad"}},{"name":"Pueblo Nuevo","state_code":"ES","latitude":"13.37984000","longitude":"-86.48075000","population":4608,"timezone":"America/Managua","type":"adm2","translations":{"es":"Pueblo Nuevo","en":"Pueblo Nuevo"}},{"name":"San Juan de Limay","state_code":"ES","latitude":"13.17603000","longitude":"-86.61234000","population":4997,"timezone":"America/Managua","type":"adm2","translations":{"es":"San Juan de Limay","en":"San Juan de Limay"}},{"name":"Diriá","state_code":"GR","latitude":"11.88420000","longitude":"-86.05508000","population":3903,"timezone":"America/Managua","type":"adm2","translations":{"es":"Diriá","en":"Diriá"}},{"name":"Diriomo","state_code":"GR","latitude":"11.87631000","longitude":"-86.05184000","population":10113,"timezone":"America/Managua","type":"adm2","translations":{"es":"Diriomo","en":"Diriomo"}},{"name":"Granada","state_code":"GR","latitude":"11.92988000","longitude":"-85.95602000","population":105171,"timezone":"America/Managua","type":"adm1","translations":{"es":"Granada","en":"Granada"}},{"name":"Nandaime","state_code":"GR","latitude":"11.75696000","longitude":"-86.05286000","population":20810,"timezone":"America/Managua","type":"adm2","translations":{"es":"Nandaime","en":"Nandaime"}},{"name":"El Cuá","state_code":"JI","latitude":"13.41667000","longitude":"-85.75000000","population":0,"timezone":"America/Managua","type":"adm2","translations":{"es":"El Cuá","en":"El Cuá"}},{"name":"Jinotega","state_code":"JI","latitude":"13.09103000","longitude":"-86.00234000","population":55000,"timezone":"America/Managua","type":"adm1","translations":{"es":"Jinotega","en":"Jinotega"}},{"name":"La Concordia","state_code":"JI","latitude":"13.19528000","longitude":"-86.16659000","population":2249,"timezone":"America/Managua","type":"adm2","translations":{"es":"La Concordia","en":"La Concordia"}},{"name":"Las Praderas","state_code":"JI","latitude":"13.17000000","longitude":"-85.85000000","population":7836,"timezone":"America/Managua","type":"adm2","translations":{"es":"Las Praderas","en":"Las Praderas"}},{"name":"LLano de La Cruz","state_code":"JI","latitude":"13.12449000","longitude":"-86.00833000","population":1643,"timezone":"America/Managua","type":"cities","translations":{"es":"Llano de La Cruz","en":"LLano de La Cruz"}},{"name":"San José de Bocay","state_code":"JI","latitude":"13.54204000","longitude":"-85.53942000","population":2367,"timezone":"America/Managua","type":"adm2","translations":{"es":"San José de Bocay","en":"San José de Bocay"}},{"name":"San Rafael del Norte","state_code":"JI","latitude":"13.21248000","longitude":"-86.11089000","population":5458,"timezone":"America/Managua","type":"adm2","translations":{"es":"San Rafael del Norte","en":"San Rafael del Norte"}},{"name":"San Sebastián de Yalí","state_code":"JI","latitude":"13.30540000","longitude":"-86.18641000","population":4514,"timezone":"America/Managua","type":"adm2","translations":{"es":"San Sebastián de Yalí","en":"San Sebastián de Yalí"}},{"name":"Achuapa","state_code":"LE","latitude":"13.05370000","longitude":"-86.59004000","population":3299,"timezone":"America/Managua","type":"adm2","translations":{"es":"Achuapa","en":"Achuapa"}},{"name":"El Jicaral","state_code":"LE","latitude":"12.72676000","longitude":"-86.38057000","population":1446,"timezone":"America/Managua","type":"adm2","translations":{"es":"El Jicaral","en":"El Jicaral"}},{"name":"El Sauce","state_code":"LE","latitude":"12.88687000","longitude":"-86.53903000","population":11898,"timezone":"America/Managua","type":"adm2","translations":{"es":"El Sauce","en":"El Sauce"}},{"name":"La Paz Centro","state_code":"LE","latitude":"12.34000000","longitude":"-86.67528000","population":23481,"timezone":"America/Managua","type":"adm2","translations":{"es":"La Paz Centro","en":"La Paz Centro"}},{"name":"Larreynaga","state_code":"LE","latitude":"12.67692000","longitude":"-86.57193000","population":7703,"timezone":"America/Managua","type":"city","translations":{"es":"Larreynaga","en":"Larreynaga"}},{"name":"León","state_code":"LE","latitude":"12.43787000","longitude":"-86.87804000","population":144538,"timezone":"America/Managua","type":"adm1","translations":{"es":"León","en":"León"}},{"name":"Nagarote","state_code":"LE","latitude":"12.26593000","longitude":"-86.56474000","population":26270,"timezone":"America/Managua","type":"adm2","translations":{"es":"Nagarote","en":"Nagarote"}},{"name":"Quezalguaque","state_code":"LE","latitude":"12.50683000","longitude":"-86.90292000","population":1974,"timezone":"America/Managua","type":"adm2","translations":{"es":"Quezalguaque","en":"Quezalguaque"}},{"name":"Santa Rosa del Peñón","state_code":"LE","latitude":"12.80116000","longitude":"-86.36994000","population":2913,"timezone":"America/Managua","type":"adm2","translations":{"es":"Santa Rosa del Peñón","en":"Santa Rosa del Peñón"}},{"name":"Telica","state_code":"LE","latitude":"12.52200000","longitude":"-86.85938000","population":8776,"timezone":"America/Managua","type":"adm2","translations":{"es":"Telica","en":"Telica"}},{"name":"Las Sabanas","state_code":"MD","latitude":"13.34302000","longitude":"-86.62184000","population":1257,"timezone":"America/Managua","type":"adm2","translations":{"es":"Las Sabanas","en":"Las Sabanas"}},{"name":"Palacagüina","state_code":"MD","latitude":"13.45566000","longitude":"-86.40622000","population":3678,"timezone":"America/Managua","type":"adm2","translations":{"es":"Palacagüina","en":"Palacagüina"}},{"name":"San José de Cusmapa","state_code":"MD","latitude":"13.28841000","longitude":"-86.65539000","population":1419,"timezone":"America/Managua","type":"adm2","translations":{"es":"San José de Cusmapa","en":"San José de Cusmapa"}},{"name":"San Juan de Río Coco","state_code":"MD","latitude":"13.54476000","longitude":"-86.16499000","population":3820,"timezone":"America/Managua","type":"adm2","translations":{"es":"San Juan de Río Coco","en":"San Juan de Río Coco"}},{"name":"San Lucas","state_code":"MD","latitude":"13.41380000","longitude":"-86.61110000","population":910,"timezone":"America/Managua","type":"adm2","translations":{"es":"San Lucas","en":"San Lucas"}},{"name":"Somoto","state_code":"MD","latitude":"13.48082000","longitude":"-86.58208000","population":20316,"timezone":"America/Managua","type":"adm1","translations":{"es":"Somoto","en":"Somoto"}},{"name":"Telpaneca","state_code":"MD","latitude":"13.53151000","longitude":"-86.28710000","population":2037,"timezone":"America/Managua","type":"adm2","translations":{"es":"Telpaneca","en":"Telpaneca"}},{"name":"Totogalpa","state_code":"MD","latitude":"13.56284000","longitude":"-86.49254000","population":2265,"timezone":"America/Managua","type":"adm2","translations":{"es":"Totogalpa","en":"Totogalpa"}},{"name":"Yalagüina","state_code":"MD","latitude":"13.48383000","longitude":"-86.49305000","population":2265,"timezone":"America/Managua","type":"adm2","translations":{"es":"Yalagüina","en":"Yalagüina"}},{"name":"Ciudad Sandino","state_code":"MN","latitude":"12.15889000","longitude":"-86.34417000","population":50000,"timezone":"America/Managua","type":"adm2","translations":{"es":"Ciudad Sandino","en":"Ciudad Sandino"}},{"name":"El Crucero","state_code":"MN","latitude":"11.99008000","longitude":"-86.30954000","population":16469,"timezone":"America/Managua","type":"adm2","translations":{"es":"El Crucero","en":"El Crucero"}},{"name":"Managua","state_code":"MN","latitude":"12.13282000","longitude":"-86.25040000","population":973087,"timezone":"America/Managua","type":"capital","translations":{"es":"Managua","en":"Managua"}},{"name":"Masachapa","state_code":"MN","latitude":"11.78687000","longitude":"-86.51416000","population":4264,"timezone":"America/Managua","type":"city","translations":{"es":"Masachapa","en":"Masachapa"}},{"name":"San Rafael del Sur","state_code":"MN","latitude":"11.84854000","longitude":"-86.43839000","population":29836,"timezone":"America/Managua","type":"adm2","translations":{"es":"San Rafael del Sur","en":"San Rafael del Sur"}},{"name":"Ticuantepe","state_code":"MN","latitude":"12.02263000","longitude":"-86.20493000","population":13209,"timezone":"America/Managua","type":"adm2","translations":{"es":"Ticuantepe","en":"Ticuantepe"}},{"name":"Tipitapa","state_code":"MN","latitude":"12.19732000","longitude":"-86.09706000","population":50000,"timezone":"America/Managua","type":"adm2","translations":{"es":"Tipitapa","en":"Tipitapa"}},{"name":"Valle San Francisco","state_code":"MN","latitude":"12.51667000","longitude":"-86.28333000","population":2219,"timezone":"America/Managua","type":"city","translations":{"es":"Valle San Francisco","en":"Valle San Francisco"}},{"name":"Villa El Carmen","state_code":"MN","latitude":"11.98009000","longitude":"-86.50571000","population":5219,"timezone":"America/Managua","type":"adm2","translations":{"es":"Villa El Carmen","en":"Villa El Carmen"}},{"name":"Catarina","state_code":"MS","latitude":"11.91197000","longitude":"-86.07383000","population":2327,"timezone":"America/Managua","type":"adm2","translations":{"es":"Catarina","en":"Catarina"}},{"name":"La Concepción","state_code":"MS","latitude":"11.93711000","longitude":"-86.18976000","population":6946,"timezone":"America/Managua","type":"adm2","translations":{"es":"La Concepción","en":"La Concepción"}},{"name":"Masatepe","state_code":"MS","latitude":"11.91445000","longitude":"-86.14458000","population":21452,"timezone":"America/Managua","type":"adm2","translations":{"es":"Masatepe","en":"Masatepe"}},{"name":"Masaya","state_code":"MS","latitude":"11.97444000","longitude":"-86.09417000","population":130113,"timezone":"America/Managua","type":"adm1","translations":{"es":"Masaya","en":"Masaya"}},{"name":"Municipio de Masatepe","state_code":"MS","latitude":"11.90567000","longitude":"-86.14946000","population":21452,"timezone":"America/Managua","type":"adm2","translations":{"es":"Municipio de Masatepe","en":"Municipio de Masatepe"}},{"name":"Municipio de Nandasmo","state_code":"MS","latitude":"11.93333000","longitude":"-86.11667000","population":6934,"timezone":"America/Managua","type":"adm2","translations":{"es":"Municipio de Nandasmo","en":"Municipio de Nandasmo"}},{"name":"Municipio de Niquinohomo","state_code":"MS","latitude":"11.88228000","longitude":"-86.10035000","population":7732,"timezone":"America/Managua","type":"adm2","translations":{"es":"Municipio de Niquinohomo","en":"Municipio de Niquinohomo"}},{"name":"Municipio de San Juan de Oriente","state_code":"MS","latitude":"11.90517000","longitude":"-86.07460000","population":2111,"timezone":"America/Managua","type":"adm2","translations":{"es":"Municipio de San Juan de Oriente","en":"Municipio de San Juan de Oriente"}},{"name":"Nandasmo","state_code":"MS","latitude":"11.92411000","longitude":"-86.12072000","population":6934,"timezone":"America/Managua","type":"adm2","translations":{"es":"Nandasmo","en":"Nandasmo"}},{"name":"Nindirí","state_code":"MS","latitude":"12.00386000","longitude":"-86.12128000","population":7073,"timezone":"America/Managua","type":"adm2","translations":{"es":"Nindirí","en":"Nindirí"}},{"name":"Niquinohomo","state_code":"MS","latitude":"11.90518000","longitude":"-86.09446000","population":7732,"timezone":"America/Managua","type":"adm2","translations":{"es":"Niquinohomo","en":"Niquinohomo"}},{"name":"San Juan de Oriente","state_code":"MS","latitude":"11.90624000","longitude":"-86.07343000","population":2111,"timezone":"America/Managua","type":"adm2","translations":{"es":"San Juan de Oriente","en":"San Juan de Oriente"}},{"name":"Tisma","state_code":"MS","latitude":"12.08194000","longitude":"-86.01739000","population":5182,"timezone":"America/Managua","type":"adm2","translations":{"es":"Tisma","en":"Tisma"}},{"name":"Ciudad Darío","state_code":"MT","latitude":"12.73143000","longitude":"-86.12402000","population":13318,"timezone":"America/Managua","type":"adm2","translations":{"es":"Ciudad Darío","en":"Ciudad Darío"}},{"name":"Matagalpa","state_code":"MT","latitude":"12.92559000","longitude":"-85.91747000","population":109089,"timezone":"America/Managua","type":"adm1","translations":{"es":"Matagalpa","en":"Matagalpa"}},{"name":"Matiguás","state_code":"MT","latitude":"12.83734000","longitude":"-85.46218000","population":10523,"timezone":"America/Managua","type":"adm2","translations":{"es":"Matiguás","en":"Matiguás"}},{"name":"Muy Muy","state_code":"MT","latitude":"12.76224000","longitude":"-85.62915000","population":4839,"timezone":"America/Managua","type":"adm2","translations":{"es":"Muy Muy","en":"Muy Muy"}},{"name":"Río Blanco","state_code":"MT","latitude":"12.93435000","longitude":"-85.22354000","population":17018,"timezone":"America/Managua","type":"adm2","translations":{"es":"Río Blanco","en":"Río Blanco"}},{"name":"San Dionisio","state_code":"MT","latitude":"12.76023000","longitude":"-85.85018000","population":3910,"timezone":"America/Managua","type":"adm2","translations":{"es":"San Dionisio","en":"San Dionisio"}},{"name":"San Ramón","state_code":"MT","latitude":"12.92344000","longitude":"-85.83898000","population":2827,"timezone":"America/Managua","type":"adm2","translations":{"es":"San Ramón","en":"San Ramón"}},{"name":"Terrabona","state_code":"MT","latitude":"12.73028000","longitude":"-85.96474000","population":1902,"timezone":"America/Managua","type":"adm2","translations":{"es":"Terrabona","en":"Terrabona"}},{"name":"Bonanza","state_code":"AN","latitude":"14.02885000","longitude":"-84.59103000","population":6315,"timezone":"America/Managua","type":"adm2","translations":{"es":"Bonanza","en":"Bonanza"}},{"name":"Prinzapolka","state_code":"AN","latitude":"13.40708000","longitude":"-83.56452000","population":417,"timezone":"America/Managua","type":"adm2","translations":{"es":"Princesa polca","en":"Prinzapolka"}},{"name":"Puerto Cabezas","state_code":"AN","latitude":"14.03507000","longitude":"-83.38882000","population":33635,"timezone":"America/Managua","type":"adm1","translations":{"es":"Puerto Cabezas","en":"Puerto Cabezas"}},{"name":"Siuna","state_code":"AN","latitude":"13.73321000","longitude":"-84.77725000","population":16056,"timezone":"America/Managua","type":"adm2","translations":{"es":"Siuna","en":"Siuna"}},{"name":"Waslala","state_code":"AN","latitude":"13.23333000","longitude":"-85.38333000","population":6498,"timezone":"America/Managua","type":"city","translations":{"es":"Waslala","en":"Waslala"}},{"name":"Waspán","state_code":"AN","latitude":"14.74189000","longitude":"-83.97170000","population":6403,"timezone":"America/Managua","type":"adm2","translations":{"es":"Waspán","en":"Waspán"}},{"name":"Ciudad Antigua","state_code":"NS","latitude":"13.63929030","longitude":"-86.31189830","population":1787,"timezone":"America/Managua","type":"adm2","translations":{"es":"Ciudad Antigua","en":"Ciudad Antigua"}},{"name":"Dipilto","state_code":"NS","latitude":"13.72225520","longitude":"-86.51366060","population":467,"timezone":"America/Managua","type":"adm2","translations":{"es":"Dipilto","en":"Dipilto"}},{"name":"El Jícaro","state_code":"NS","latitude":"13.72222480","longitude":"-86.14115420","population":0,"timezone":"America/Managua","type":"adm2","translations":{"es":"El Jícaro","en":"El Jícaro"}},{"name":"Jalapa","state_code":"NS","latitude":"13.92071420","longitude":"-86.14212330","population":24037,"timezone":"America/Managua","type":"adm2","translations":{"es":"Jalapa","en":"Jalapa"}},{"name":"Macuelizo","state_code":"NS","latitude":"13.65192960","longitude":"-86.61427170","population":374,"timezone":"America/Managua","type":"adm2","translations":{"es":"Macuelizo","en":"Macuelizo"}},{"name":"Mozonte","state_code":"NS","latitude":"13.65956840","longitude":"-86.44536490","population":6795,"timezone":"America/Managua","type":"adm2","translations":{"es":"Mozonte","en":"Mozonte"}},{"name":"Murra","state_code":"NS","latitude":"13.75927550","longitude":"-86.02196840","population":1179,"timezone":"America/Managua","type":"adm2","translations":{"es":"Murra","en":"Murra"}},{"name":"Ocotal","state_code":"NS","latitude":"13.63411380","longitude":"-86.50107470","population":467,"timezone":"America/Managua","type":"adm2","translations":{"es":"Ocotal","en":"Ocotal"}},{"name":"Quilalí","state_code":"NS","latitude":"13.56491080","longitude":"-86.02921480","population":13590,"timezone":"America/Managua","type":"adm2","translations":{"es":"Quilalí","en":"Quilalí"}},{"name":"San Fernando","state_code":"NS","latitude":"13.67873430","longitude":"-86.32079750","population":3899,"timezone":"America/Managua","type":"adm2","translations":{"es":"San Fernando","en":"San Fernando"}},{"name":"Santa María","state_code":"NS","latitude":"13.74665480","longitude":"-86.71124070","population":720,"timezone":"America/Managua","type":"adm2","translations":{"es":"Santa María","en":"Santa María"}},{"name":"Wiwilí","state_code":"NS","latitude":"13.62076450","longitude":"-85.83169700","population":6955,"timezone":"America/Managua","type":"adm2","translations":{"es":"Wiwilí","en":"Wiwilí"}},{"name":"El Almendro","state_code":"SJ","latitude":"11.67859000","longitude":"-84.70269000","population":2681,"timezone":"America/Managua","type":"adm2","translations":{"es":"El Almendro","en":"El Almendro"}},{"name":"Greytown","state_code":"SJ","latitude":"10.94684000","longitude":"-83.73467000","population":null,"timezone":"America/Managua","type":"city","translations":{"es":"Greytown","en":"Greytown"}},{"name":"Morrito","state_code":"SJ","latitude":"11.62118000","longitude":"-85.08052000","population":1360,"timezone":"America/Managua","type":"adm2","translations":{"es":"Morrito","en":"Morrito"}},{"name":"San Carlos","state_code":"SJ","latitude":"11.12360000","longitude":"-84.77795000","population":13451,"timezone":"America/Managua","type":"adm1","translations":{"es":"San Carlos","en":"San Carlos"}},{"name":"San Miguelito","state_code":"SJ","latitude":"11.40255000","longitude":"-84.89991000","population":4181,"timezone":"America/Managua","type":"adm2","translations":{"es":"San Miguelito","en":"San Miguelito"}},{"name":"Altagracia","state_code":"RI","latitude":"11.56615000","longitude":"-85.57840000","population":2771,"timezone":"America/Managua","type":"city","translations":{"es":"Altagracia","en":"Altagracia"}},{"name":"Belén","state_code":"RI","latitude":"11.50299000","longitude":"-85.88935000","population":5415,"timezone":"America/Managua","type":"adm2","translations":{"es":"Belén","en":"Belén"}},{"name":"Buenos Aires","state_code":"RI","latitude":"11.46916000","longitude":"-85.81661000","population":1692,"timezone":"America/Managua","type":"adm2","translations":{"es":"Buenos Aires","en":"Buenos Aires"}},{"name":"Cárdenas","state_code":"RI","latitude":"11.19639000","longitude":"-85.50890000","population":1204,"timezone":"America/Managua","type":"adm2","translations":{"es":"Cárdenas","en":"Cárdenas"}},{"name":"Moyogalpa","state_code":"RI","latitude":"11.54006000","longitude":"-85.69795000","population":3940,"timezone":"America/Managua","type":"adm2","translations":{"es":"Moyogalpa","en":"Moyogalpa"}},{"name":"Municipio de Altagracia","state_code":"RI","latitude":"11.47983000","longitude":"-85.54166000","population":null,"timezone":"America/Managua","type":"city","translations":{"es":"Municipio de Altagracia","en":"Municipio de Altagracia"}},{"name":"Municipio de Belén","state_code":"RI","latitude":"11.57193000","longitude":"-85.96316000","population":null,"timezone":"America/Managua","type":"adm2","translations":{"es":"Municipio de Belén","en":"Municipio de Belén"}},{"name":"Municipio de Buenos Aires","state_code":"RI","latitude":"11.51760000","longitude":"-85.78333000","population":null,"timezone":"America/Managua","type":"adm2","translations":{"es":"Municipio de Buenos Aires","en":"Municipio de Buenos Aires"}},{"name":"Municipio de Cárdenas","state_code":"RI","latitude":"11.14912000","longitude":"-85.42323000","population":null,"timezone":"America/Managua","type":"city","translations":{"es":"Municipio de Cárdenas","en":"Municipio de Cárdenas"}},{"name":"Municipio de Moyogalpa","state_code":"RI","latitude":"11.52632000","longitude":"-85.67329000","population":null,"timezone":"America/Managua","type":"adm2","translations":{"es":"Municipio de Moyogalpa","en":"Municipio de Moyogalpa"}},{"name":"Municipio de Potosí","state_code":"RI","latitude":"11.57854000","longitude":"-85.87764000","population":null,"timezone":"America/Managua","type":"adm2","translations":{"es":"Municipio de Potosí","en":"Municipio de Potosí"}},{"name":"Municipio de Rivas","state_code":"RI","latitude":"11.43931000","longitude":"-85.82700000","population":30000,"timezone":"America/Managua","type":"adm1","translations":{"es":"Municipio de Rivas","en":"Municipio de Rivas"}},{"name":"Municipio de San Jorge","state_code":"RI","latitude":"11.42703000","longitude":"-85.78904000","population":null,"timezone":"America/Managua","type":"adm2","translations":{"es":"Municipio de San Jorge","en":"Municipio de San Jorge"}},{"name":"Municipio de San Juan del Sur","state_code":"RI","latitude":"11.22368000","longitude":"-85.78289000","population":null,"timezone":"America/Managua","type":"adm2","translations":{"es":"Municipio de San Juan del Sur","en":"Municipio de San Juan del Sur"}},{"name":"Municipio de Tola","state_code":"RI","latitude":"11.46009000","longitude":"-86.00789000","population":null,"timezone":"America/Managua","type":"adm2","translations":{"es":"Municipio de Tola","en":"Municipio de Tola"}},{"name":"Potosí","state_code":"RI","latitude":"11.49416000","longitude":"-85.85680000","population":5222,"timezone":"America/Managua","type":"adm2","translations":{"es":"Potosí","en":"Potosí"}},{"name":"Rivas","state_code":"RI","latitude":"11.43716000","longitude":"-85.82632000","population":30000,"timezone":"America/Managua","type":"adm1","translations":{"es":"Rivas","en":"Rivas"}},{"name":"San Jorge","state_code":"RI","latitude":"11.45584000","longitude":"-85.80308000","population":7158,"timezone":"America/Managua","type":"adm2","translations":{"es":"San Jorge","en":"San Jorge"}},{"name":"San Juan del Sur","state_code":"RI","latitude":"11.25292000","longitude":"-85.87049000","population":7790,"timezone":"America/Managua","type":"adm2","translations":{"es":"San Juan del Sur","en":"San Juan del Sur"}},{"name":"Tola","state_code":"RI","latitude":"11.43927000","longitude":"-85.93891000","population":2638,"timezone":"America/Managua","type":"adm2","translations":{"es":"Tola","en":"Tola"}},{"name":"Bluefields","state_code":"AS","latitude":"12.01366000","longitude":"-83.76353000","population":44373,"timezone":"America/Managua","type":"adm1","translations":{"es":"Bluefields","en":"Bluefields"}},{"name":"Bocana de Paiwas","state_code":"AS","latitude":"12.78571000","longitude":"-85.12269000","population":7872,"timezone":"America/Managua","type":"adm2","translations":{"es":"Bocana de Paiwas","en":"Bocana de Paiwas"}},{"name":"Corn Island","state_code":"AS","latitude":"12.17575000","longitude":"-83.06145000","population":8011,"timezone":"America/Managua","type":"adm2","translations":{"es":"Isla del Maíz","en":"Corn Island"}},{"name":"El Rama","state_code":"AS","latitude":"12.15965000","longitude":"-84.21952000","population":20456,"timezone":"America/Managua","type":"adm2","translations":{"es":"El Rama","en":"El Rama"}},{"name":"El Tortuguero","state_code":"AS","latitude":"12.82247000","longitude":"-84.19629000","population":1292,"timezone":"America/Managua","type":"adm2","translations":{"es":"El Tortuguero","en":"El Tortuguero"}},{"name":"Kukrahill","state_code":"AS","latitude":"12.24096000","longitude":"-83.74517000","population":0,"timezone":"America/Managua","type":"adm2","translations":{"es":"Kukrahill","en":"Kukrahill"}},{"name":"La Cruz de Río Grande","state_code":"AS","latitude":"13.11290000","longitude":"-84.18588000","population":1669,"timezone":"America/Managua","type":"adm2","translations":{"es":"La Cruz de Río Grande","en":"La Cruz de Río Grande"}},{"name":"Laguna de Perlas","state_code":"AS","latitude":"12.34294000","longitude":"-83.67123000","population":null,"timezone":"America/Managua","type":"city","translations":{"es":"Laguna de Perlas","en":"Laguna de Perlas"}},{"name":"Muelle de los Bueyes","state_code":"AS","latitude":"12.06999000","longitude":"-84.53503000","population":3587,"timezone":"America/Managua","type":"adm2","translations":{"es":"Muelle de los Bueyes","en":"Muelle de los Bueyes"}},{"name":"Nueva Guinea","state_code":"AS","latitude":"11.68758000","longitude":"-84.45616000","population":52929,"timezone":"America/Managua","type":"adm2","translations":{"es":"Nueva Guinea","en":"Nueva Guinea"}}]