[{"name":"Åseral","state_code":"42","latitude":"58.61730000","longitude":"7.41118000","population":915,"timezone":"Europe/Oslo","type":"city","translations":{"es":"Aseral","en":"Åseral"}},{"name":"Audnedal","state_code":"42","latitude":"58.28378000","longitude":"7.35487000","population":null,"timezone":"Europe/Oslo","type":"city","translations":{"es":"Audnedal","en":"Audnedal"}},{"name":"Farsund","state_code":"42","latitude":"58.09538000","longitude":"6.80403000","population":3377,"timezone":"Europe/Oslo","type":"adm2","translations":{"es":"Farsund","en":"Farsund"}},{"name":"Flekkefjord","state_code":"42","latitude":"58.29791000","longitude":"6.66345000","population":9329,"timezone":"Europe/Oslo","type":"adm2","translations":{"es":"Fiordo Flekkefjord","en":"Flekkefjord"}},{"name":"Hægebostad","state_code":"42","latitude":"58.37572000","longitude":"7.21973000","population":1786,"timezone":"Europe/Oslo","type":"city","translations":{"es":"Hægebostad","en":"Hægebostad"}},{"name":"Justvik","state_code":"42","latitude":"58.19691000","longitude":"8.03107000","population":2770,"timezone":"Europe/Oslo","type":"city","translations":{"es":"Justvik","en":"Justvik"}},{"name":"Kristiansand","state_code":"42","latitude":"58.14642000","longitude":"7.99687000","population":118221,"timezone":"Europe/Oslo","type":"adm1","translations":{"es":"Kristiansand","en":"Kristiansand"}},{"name":"Kvinesdal","state_code":"42","latitude":"58.23894000","longitude":"6.71445000","population":6163,"timezone":"Europe/Oslo","type":"adm2","translations":{"es":"Kvinesdal","en":"Kvinesdal"}},{"name":"Liknes","state_code":"42","latitude":"58.31216000","longitude":"6.96180000","population":2649,"timezone":"Europe/Oslo","type":"adm2","translations":{"es":"Me gusta","en":"Liknes"}},{"name":"Lindesnes","state_code":"42","latitude":"58.08435000","longitude":"7.30162000","population":23768,"timezone":"Europe/Oslo","type":"city","translations":{"es":"Lindesnes","en":"Lindesnes"}},{"name":"Lyngdal","state_code":"42","latitude":"58.13829000","longitude":"7.06836000","population":5602,"timezone":"Europe/Oslo","type":"adm2","translations":{"es":"Lyngdal","en":"Lyngdal"}},{"name":"Mandal","state_code":"42","latitude":"58.02633000","longitude":"7.45014000","population":11477,"timezone":"Europe/Oslo","type":"adm2","translations":{"es":"Mandala","en":"Mandal"}},{"name":"Marnardal","state_code":"42","latitude":"58.19802000","longitude":"7.52802000","population":null,"timezone":"Europe/Oslo","type":"city","translations":{"es":"Marnardal","en":"Marnardal"}},{"name":"Nodeland","state_code":"42","latitude":"58.15517000","longitude":"7.83576000","population":2208,"timezone":"Europe/Oslo","type":"city","translations":{"es":"Nodeland","en":"Nodeland"}},{"name":"Sirdal","state_code":"42","latitude":"58.66510000","longitude":"6.71585000","population":874,"timezone":"Europe/Oslo","type":"adm2","translations":{"es":"Sirdal","en":"Sirdal"}},{"name":"Skålevik","state_code":"42","latitude":"58.07955000","longitude":"8.01602000","population":2599,"timezone":"Europe/Oslo","type":"locality","translations":{"es":"Skålevik","en":"Skålevik"}},{"name":"Songdalen","state_code":"42","latitude":"58.15273000","longitude":"7.83677000","population":null,"timezone":"Europe/Oslo","type":"city","translations":{"es":"Songdalen","en":"Songdalen"}},{"name":"Søgne","state_code":"42","latitude":"58.09663000","longitude":"7.81491000","population":11187,"timezone":"Europe/Oslo","type":"city","translations":{"es":"Søgne","en":"Søgne"}},{"name":"Strai","state_code":"42","latitude":"58.18930000","longitude":"7.92826000","population":1266,"timezone":"Europe/Oslo","type":"locality","translations":{"es":"Estrecho","en":"Strai"}},{"name":"Tonstad","state_code":"42","latitude":"58.66263000","longitude":"6.71694000","population":899,"timezone":"Europe/Oslo","type":"adm2","translations":{"es":"Tonstad","en":"Tonstad"}},{"name":"Tveit","state_code":"42","latitude":"58.23366000","longitude":"8.12199000","population":1605,"timezone":"Europe/Oslo","type":"section","translations":{"es":"Tveit","en":"Tveit"}},{"name":"Vanse","state_code":"42","latitude":"58.09812000","longitude":"6.69184000","population":2057,"timezone":"Europe/Oslo","type":"city","translations":{"es":"Vanse","en":"Vanse"}},{"name":"Vennesla","state_code":"42","latitude":"58.34271000","longitude":"7.97596000","population":15622,"timezone":"Europe/Oslo","type":"adm2","translations":{"es":"Vennesla","en":"Vennesla"}},{"name":"Vestbygd","state_code":"42","latitude":"58.09991000","longitude":"6.58696000","population":1123,"timezone":"Europe/Oslo","type":"city","translations":{"es":"Vestbygd","en":"Vestbygd"}},{"name":"Vigeland","state_code":"42","latitude":"58.08437000","longitude":"7.30497000","population":1715,"timezone":"Europe/Oslo","type":"city","translations":{"es":"Tierra de Vige","en":"Vigeland"}},{"name":"Åneby","state_code":"32","latitude":"60.08926000","longitude":"10.86998000","population":1602,"timezone":"Europe/Oslo","type":"city","translations":{"es":"Åneby","en":"Åneby"}},{"name":"Årnes","state_code":"32","latitude":"60.12237000","longitude":"11.47005000","population":3289,"timezone":"Europe/Oslo","type":"adm2","translations":{"es":"Arnes","en":"Årnes"}},{"name":"Ås","state_code":"32","latitude":"59.66366000","longitude":"10.79101000","population":0,"timezone":"Europe/Oslo","type":"adm2","translations":{"es":"Como","en":"Ås"}},{"name":"Ask","state_code":"32","latitude":"60.07131000","longitude":"11.03620000","population":6890,"timezone":"Europe/Oslo","type":"adm2","translations":{"es":"Preguntar","en":"Ask"}},{"name":"Asker","state_code":"32","latitude":"59.83734000","longitude":"10.43595000","population":61906,"timezone":"Europe/Oslo","type":"adm2","translations":{"es":"Preguntador","en":"Asker"}},{"name":"Auli","state_code":"32","latitude":"60.03450000","longitude":"11.36046000","population":2638,"timezone":"Europe/Oslo","type":"city","translations":{"es":"Auli","en":"Auli"}},{"name":"Aurskog-Høland","state_code":"32","latitude":"59.88321000","longitude":"11.56491000","population":18314,"timezone":"Europe/Oslo","type":"city","translations":{"es":"Aurskog-Holanda","en":"Aurskog-Høland"}},{"name":"Aursmoen","state_code":"32","latitude":"59.92763000","longitude":"11.44275000","population":2173,"timezone":"Europe/Oslo","type":"city","translations":{"es":"Aursmoen","en":"Aursmoen"}},{"name":"Bærum","state_code":"32","latitude":"59.88996000","longitude":"10.52649000","population":132358,"timezone":"Europe/Oslo","type":"city","translations":{"es":"Bærum","en":"Bærum"}},{"name":"Billingstad","state_code":"32","latitude":"59.87548000","longitude":"10.48230000","population":2349,"timezone":"Europe/Oslo","type":"city","translations":{"es":"Billingstad","en":"Billingstad"}},{"name":"Bjørkelangen","state_code":"32","latitude":"59.88357000","longitude":"11.56396000","population":2346,"timezone":"Europe/Oslo","type":"adm2","translations":{"es":"Bjørkelangen","en":"Bjørkelangen"}},{"name":"Blakstad","state_code":"32","latitude":"59.81910000","longitude":"10.46450000","population":1898,"timezone":"Europe/Oslo","type":"locality","translations":{"es":"Blakstad","en":"Blakstad"}},{"name":"Drøbak","state_code":"32","latitude":"59.66333000","longitude":"10.62975000","population":13774,"timezone":"Europe/Oslo","type":"adm2","translations":{"es":"Drøbak","en":"Drøbak"}},{"name":"Eidsvoll","state_code":"32","latitude":"60.32893000","longitude":"11.26119000","population":0,"timezone":"Europe/Oslo","type":"adm2","translations":{"es":"Eidsvoll","en":"Eidsvoll"}},{"name":"Enebakk","state_code":"32","latitude":"59.76452000","longitude":"11.14492000","population":0,"timezone":"Europe/Oslo","type":"adm2","translations":{"es":"Enebakk","en":"Enebakk"}},{"name":"Fagerstrand","state_code":"32","latitude":"59.73746000","longitude":"10.59404000","population":1990,"timezone":"Europe/Oslo","type":"city","translations":{"es":"Fagerstrand","en":"Fagerstrand"}},{"name":"Fet","state_code":"32","latitude":"59.92216000","longitude":"11.16778000","population":null,"timezone":"Europe/Oslo","type":"city","translations":{"es":"Feto","en":"Fet"}},{"name":"Fetsund","state_code":"32","latitude":"59.92463000","longitude":"11.15711000","population":6441,"timezone":"Europe/Oslo","type":"city","translations":{"es":"Fetsund","en":"Fetsund"}},{"name":"Fjellfoten","state_code":"32","latitude":"60.08967000","longitude":"11.47222000","population":1029,"timezone":"Europe/Oslo","type":"city","translations":{"es":"Fjellfoten","en":"Fjellfoten"}},{"name":"Flateby","state_code":"32","latitude":"59.82951000","longitude":"11.15345000","population":3901,"timezone":"Europe/Oslo","type":"city","translations":{"es":"Flateby","en":"Flateby"}},{"name":"Frogn","state_code":"32","latitude":"59.66665000","longitude":"10.63566000","population":16337,"timezone":"Europe/Oslo","type":"adm2","translations":{"es":"Rana","en":"Frogn"}},{"name":"Frogner","state_code":"32","latitude":"60.02463000","longitude":"11.10284000","population":1174,"timezone":"Europe/Oslo","type":"city","translations":{"es":"Frogner","en":"Frogner"}},{"name":"Gjerdrum","state_code":"32","latitude":"60.07159000","longitude":"11.03597000","population":7453,"timezone":"Europe/Oslo","type":"city","translations":{"es":"Gjerdrum","en":"Gjerdrum"}},{"name":"Hurdal","state_code":"32","latitude":"60.43518000","longitude":"11.06707000","population":0,"timezone":"Europe/Oslo","type":"adm2","translations":{"es":"Hurdal","en":"Hurdal"}},{"name":"Jessheim","state_code":"32","latitude":"60.14151000","longitude":"11.17515000","population":12365,"timezone":"Europe/Oslo","type":"adm2","translations":{"es":"Jessheim","en":"Jessheim"}},{"name":"Kløfta","state_code":"32","latitude":"60.07407000","longitude":"11.13805000","population":5942,"timezone":"Europe/Oslo","type":"city","translations":{"es":"Kløfta","en":"Kløfta"}},{"name":"Leirsund","state_code":"32","latitude":"59.99682000","longitude":"11.08746000","population":1177,"timezone":"Europe/Oslo","type":"city","translations":{"es":"Leirsund","en":"Leirsund"}},{"name":"Lillestrøm","state_code":"32","latitude":"59.95597000","longitude":"11.04918000","population":89684,"timezone":"Europe/Oslo","type":"adm2","translations":{"es":"Lillestrøm","en":"Lillestrøm"}},{"name":"Lørenskog","state_code":"32","latitude":"59.93209000","longitude":"10.96079000","population":50013,"timezone":"Europe/Oslo","type":"adm2","translations":{"es":"Lørenskog","en":"Lørenskog"}},{"name":"Lysaker","state_code":"32","latitude":"59.90994000","longitude":"10.63545000","population":3439,"timezone":"Europe/Oslo","type":"city","translations":{"es":"Lysaker","en":"Lysaker"}},{"name":"Maura","state_code":"32","latitude":"60.25830000","longitude":"11.03192000","population":4757,"timezone":"Europe/Oslo","type":"city","translations":{"es":"Maura","en":"Maura"}},{"name":"Nannestad","state_code":"32","latitude":"60.21707000","longitude":"11.01200000","population":16505,"timezone":"Europe/Oslo","type":"city","translations":{"es":"Nannestad","en":"Nannestad"}},{"name":"Nes","state_code":"32","latitude":"60.12252000","longitude":"11.46570000","population":0,"timezone":"Europe/Oslo","type":"adm2","translations":{"es":"Nes","en":"Nes"}},{"name":"Neskollen","state_code":"32","latitude":"60.12159000","longitude":"11.33926000","population":1157,"timezone":"Europe/Oslo","type":"city","translations":{"es":"Neskollen","en":"Neskollen"}},{"name":"Nesodden","state_code":"32","latitude":"59.84220000","longitude":"10.64940000","population":20698,"timezone":"Europe/Oslo","type":"adm2","translations":{"es":"Nesodden","en":"Nesodden"}},{"name":"Nesoddtangen","state_code":"32","latitude":"59.86244000","longitude":"10.66308000","population":13392,"timezone":"Europe/Oslo","type":"adm2","translations":{"es":"Nesoddtangen","en":"Nesoddtangen"}},{"name":"Nittedal","state_code":"32","latitude":"60.04278000","longitude":"10.88167000","population":26023,"timezone":"Europe/Oslo","type":"city","translations":{"es":"Nittedal","en":"Nittedal"}},{"name":"Oppegård","state_code":"32","latitude":"59.81149000","longitude":"10.79712000","population":null,"timezone":"Europe/Oslo","type":"adm2","translations":{"es":"Oppegård","en":"Oppegård"}},{"name":"Råholt","state_code":"32","latitude":"60.27513000","longitude":"11.17901000","population":8593,"timezone":"Europe/Oslo","type":"city","translations":{"es":"Råholt","en":"Råholt"}},{"name":"Rælingen","state_code":"32","latitude":"59.92626000","longitude":"11.06527000","population":0,"timezone":"Europe/Oslo","type":"adm2","translations":{"es":"Rælingen","en":"Rælingen"}},{"name":"Rotnes","state_code":"32","latitude":"60.05707000","longitude":"10.86135000","population":4705,"timezone":"Europe/Oslo","type":"adm2","translations":{"es":"Rotnes","en":"Rotnes"}},{"name":"Skedsmo","state_code":"32","latitude":"59.95448000","longitude":"11.03952000","population":null,"timezone":"Europe/Oslo","type":"city","translations":{"es":"Skedsmo","en":"Skedsmo"}},{"name":"Ski","state_code":"32","latitude":"59.72049000","longitude":"10.83882000","population":22548,"timezone":"Europe/Oslo","type":"adm2","translations":{"es":"Esquí","en":"Ski"}},{"name":"Skui","state_code":"32","latitude":"59.92746000","longitude":"10.44750000","population":3487,"timezone":"Europe/Oslo","type":"city","translations":{"es":"Skui","en":"Skui"}},{"name":"Sørum","state_code":"32","latitude":"59.98709000","longitude":"11.24019000","population":null,"timezone":"Europe/Oslo","type":"city","translations":{"es":"Sørum","en":"Sørum"}},{"name":"Sørumsand","state_code":"32","latitude":"59.98621000","longitude":"11.24154000","population":5962,"timezone":"Europe/Oslo","type":"city","translations":{"es":"Sørumsand","en":"Sørumsand"}},{"name":"Ullensaker","state_code":"32","latitude":"60.14401000","longitude":"11.17441000","population":45066,"timezone":"Europe/Oslo","type":"city","translations":{"es":"Ullensaker","en":"Ullensaker"}},{"name":"Vestby","state_code":"32","latitude":"59.60228000","longitude":"10.74807000","population":19855,"timezone":"Europe/Oslo","type":"adm2","translations":{"es":"Vestby","en":"Vestby"}},{"name":"Ål","state_code":"33","latitude":"60.63028000","longitude":"8.56115000","population":2278,"timezone":"Europe/Oslo","type":"adm2","translations":{"es":"Alabama","en":"Ål"}},{"name":"Åros","state_code":"33","latitude":"59.70610000","longitude":"10.51092000","population":1142,"timezone":"Europe/Oslo","type":"city","translations":{"es":"Åros","en":"Åros"}},{"name":"Drammen","state_code":"33","latitude":"59.74389000","longitude":"10.20449000","population":105452,"timezone":"Europe/Oslo","type":"adm1","translations":{"es":"Drammen","en":"Drammen"}},{"name":"Flå","state_code":"33","latitude":"60.42910000","longitude":"9.46611000","population":1117,"timezone":"Europe/Oslo","type":"adm2","translations":{"es":"Plancha","en":"Flå"}},{"name":"Flesberg","state_code":"33","latitude":"59.83283000","longitude":"9.58308000","population":2797,"timezone":"Europe/Oslo","type":"city","translations":{"es":"Flesberg","en":"Flesberg"}},{"name":"Geilo","state_code":"33","latitude":"60.53369000","longitude":"8.20539000","population":2586,"timezone":"Europe/Oslo","type":"city","translations":{"es":"Geilo","en":"Geilo"}},{"name":"Gol","state_code":"33","latitude":"60.69953000","longitude":"8.95024000","population":4888,"timezone":"Europe/Oslo","type":"adm2","translations":{"es":"Gol","en":"Gol"}},{"name":"Hemsedal","state_code":"33","latitude":"60.86114000","longitude":"8.56537000","population":2685,"timezone":"Europe/Oslo","type":"city","translations":{"es":"Hemsedal","en":"Hemsedal"}},{"name":"Hol","state_code":"33","latitude":"60.61528000","longitude":"8.30194000","population":4527,"timezone":"Europe/Oslo","type":"adm2","translations":{"es":"Hol","en":"Hol"}},{"name":"Hole","state_code":"33","latitude":"60.08017000","longitude":"10.27840000","population":0,"timezone":"Europe/Oslo","type":"adm2","translations":{"es":"Agujero","en":"Hole"}},{"name":"Hønefoss","state_code":"33","latitude":"60.16804000","longitude":"10.25647000","population":17084,"timezone":"Europe/Oslo","type":"adm2","translations":{"es":"Hønefoss","en":"Hønefoss"}},{"name":"Hurum","state_code":"33","latitude":"59.61401000","longitude":"10.45763000","population":null,"timezone":"Europe/Oslo","type":"city","translations":{"es":"Hurum","en":"Hurum"}},{"name":"Hvittingfoss","state_code":"33","latitude":"59.48572000","longitude":"10.01173000","population":1122,"timezone":"Europe/Oslo","type":"city","translations":{"es":"Hvittingfoss","en":"Hvittingfoss"}},{"name":"Kongsberg","state_code":"33","latitude":"59.66516000","longitude":"9.64653000","population":29011,"timezone":"Europe/Oslo","type":"adm2","translations":{"es":"Kongsberg","en":"Kongsberg"}},{"name":"Krødsherad","state_code":"33","latitude":"60.17944000","longitude":"9.62124000","population":2235,"timezone":"Europe/Oslo","type":"adm2","translations":{"es":"Krødsherad","en":"Krødsherad"}},{"name":"Lier","state_code":"33","latitude":"59.78663000","longitude":"10.24590000","population":0,"timezone":"Europe/Oslo","type":"adm2","translations":{"es":"Mentiroso","en":"Lier"}},{"name":"Modum","state_code":"33","latitude":"59.97346000","longitude":"10.00468000","population":14664,"timezone":"Europe/Oslo","type":"city","translations":{"es":"Módulo","en":"Modum"}},{"name":"Nedre Eiker","state_code":"33","latitude":"59.75023000","longitude":"10.00736000","population":null,"timezone":"Europe/Oslo","type":"city","translations":{"es":"Nedre Eiker","en":"Nedre Eiker"}},{"name":"Nesbyen","state_code":"33","latitude":"60.56809000","longitude":"9.10274000","population":2145,"timezone":"Europe/Oslo","type":"adm2","translations":{"es":"Nesbyen","en":"Nesbyen"}},{"name":"Nore og Uvdal","state_code":"33","latitude":"60.26706000","longitude":"8.94635000","population":0,"timezone":"Europe/Oslo","type":"adm2","translations":{"es":"Nore y Uvdal","en":"Nore og Uvdal"}},{"name":"Noresund","state_code":"33","latitude":"60.17985000","longitude":"9.62411000","population":374,"timezone":"Europe/Oslo","type":"adm2","translations":{"es":"Noresund","en":"Noresund"}},{"name":"Øvre Eiker","state_code":"33","latitude":"59.77111000","longitude":"9.90840000","population":20861,"timezone":"Europe/Oslo","type":"city","translations":{"es":"Øvre Eiker","en":"Øvre Eiker"}},{"name":"Prestfoss","state_code":"33","latitude":"60.04343000","longitude":"9.63520000","population":520,"timezone":"Europe/Oslo","type":"adm2","translations":{"es":"Prestfoss","en":"Prestfoss"}},{"name":"Ringerike","state_code":"33","latitude":"60.16018000","longitude":"10.25660000","population":31793,"timezone":"Europe/Oslo","type":"city","translations":{"es":"Ringerike","en":"Ringerike"}},{"name":"Rollag","state_code":"33","latitude":"59.98413000","longitude":"9.29489000","population":1414,"timezone":"Europe/Oslo","type":"adm2","translations":{"es":"Rollag","en":"Rollag"}},{"name":"Røyken","state_code":"33","latitude":"59.74019000","longitude":"10.41321000","population":4030,"timezone":"Europe/Oslo","type":"city","translations":{"es":"Røyken","en":"Røyken"}},{"name":"Sætre","state_code":"33","latitude":"59.68129000","longitude":"10.52749000","population":3009,"timezone":"Europe/Oslo","type":"city","translations":{"es":"Sætre","en":"Sætre"}},{"name":"Sigdal","state_code":"33","latitude":"60.04592000","longitude":"9.63673000","population":3530,"timezone":"Europe/Oslo","type":"adm2","translations":{"es":"Sigdal","en":"Sigdal"}},{"name":"Skoger","state_code":"33","latitude":"59.71327000","longitude":"10.25356000","population":1206,"timezone":"Europe/Oslo","type":"city","translations":{"es":"Skoger","en":"Skoger"}},{"name":"Tofte","state_code":"33","latitude":"59.54275000","longitude":"10.56138000","population":3158,"timezone":"Europe/Oslo","type":"city","translations":{"es":"Tofte","en":"Tofte"}},{"name":"Tomter","state_code":"33","latitude":"59.65910000","longitude":"10.99487000","population":2238,"timezone":"Europe/Oslo","type":"city","translations":{"es":"Tomter","en":"Tomter"}},{"name":"Tranby","state_code":"33","latitude":"59.80850000","longitude":"10.26114000","population":5320,"timezone":"Europe/Oslo","type":"city","translations":{"es":"Tranby","en":"Tranby"}},{"name":"Vikersund","state_code":"33","latitude":"59.96838000","longitude":"9.99107000","population":3250,"timezone":"Europe/Oslo","type":"adm2","translations":{"es":"Vikersund","en":"Vikersund"}},{"name":"Alta","state_code":"56","latitude":"69.97675000","longitude":"23.29634000","population":21877,"timezone":"Europe/Oslo","type":"city","translations":{"es":"Alta","en":"Alta"}},{"name":"Ávanuorri","state_code":"56","latitude":"70.99634000","longitude":"24.66217000","population":1138,"timezone":"Europe/Oslo","type":"adm2","translations":{"es":"Ávanuorri","en":"Ávanuorri"}},{"name":"Båtsfjord","state_code":"56","latitude":"70.63428000","longitude":"29.71750000","population":2107,"timezone":"Europe/Oslo","type":"adm2","translations":{"es":"Fiordo de Båts","en":"Båtsfjord"}},{"name":"Berg","state_code":"56","latitude":"69.44444000","longitude":"17.29950000","population":599,"timezone":"Europe/Oslo","type":"city","translations":{"es":"Iceberg","en":"Berg"}},{"name":"Berlevåg","state_code":"56","latitude":"70.85778000","longitude":"29.08636000","population":890,"timezone":"Europe/Oslo","type":"adm2","translations":{"es":"Berlevåg","en":"Berlevåg"}},{"name":"Bjørnevatn","state_code":"56","latitude":"69.66745000","longitude":"29.98722000","population":2574,"timezone":"Europe/Oslo","type":"city","translations":{"es":"Bjørnevatn","en":"Bjørnevatn"}},{"name":"Borkenes","state_code":"56","latitude":"68.77261000","longitude":"16.17115000","population":1519,"timezone":"Europe/Oslo","type":"adm2","translations":{"es":"Borkenes","en":"Borkenes"}},{"name":"Evenskjer","state_code":"56","latitude":"68.58283000","longitude":"16.57203000","population":601,"timezone":"Europe/Oslo","type":"adm2","translations":{"es":"Evenskjer","en":"Evenskjer"}},{"name":"Finnsnes","state_code":"56","latitude":"69.22959000","longitude":"17.98114000","population":3907,"timezone":"Europe/Oslo","type":"adm2","translations":{"es":"Finnsnes","en":"Finnsnes"}},{"name":"Gamvik","state_code":"56","latitude":"71.04107000","longitude":"27.85144000","population":779,"timezone":"Europe/Oslo","type":"adm2","translations":{"es":"Gamvik","en":"Gamvik"}},{"name":"Gryllefjord","state_code":"56","latitude":"69.36304000","longitude":"17.05284000","population":310,"timezone":"Europe/Oslo","type":"city","translations":{"es":"Fiordo Gryllefjord","en":"Gryllefjord"}},{"name":"Hammerfest","state_code":"56","latitude":"70.66257000","longitude":"23.68295000","population":11324,"timezone":"Europe/Oslo","type":"adm2","translations":{"es":"Hammerfest","en":"Hammerfest"}},{"name":"Hansnes","state_code":"56","latitude":"69.96701000","longitude":"19.62752000","population":515,"timezone":"Europe/Oslo","type":"adm2","translations":{"es":"Hansnes","en":"Hansnes"}},{"name":"Hasvik","state_code":"56","latitude":"70.59164000","longitude":"22.30272000","population":977,"timezone":"Europe/Oslo","type":"city","translations":{"es":"Hasvik","en":"Hasvik"}},{"name":"Honningsvåg","state_code":"56","latitude":"70.98209000","longitude":"25.97037000","population":2255,"timezone":"Europe/Oslo","type":"adm2","translations":{"es":"Honningsvåg","en":"Honningsvåg"}},{"name":"Kåfjord","state_code":"56","latitude":"69.60400000","longitude":"20.53456000","population":0,"timezone":"Europe/Oslo","type":"adm2","translations":{"es":"Fiordo de Kåfjord","en":"Kåfjord"}},{"name":"Kárášjohka","state_code":"56","latitude":"69.47187000","longitude":"25.51122000","population":1844,"timezone":"Europe/Oslo","type":"adm2","translations":{"es":"Kárášjohka","en":"Kárášjohka"}},{"name":"Karasjok","state_code":"56","latitude":"69.47224000","longitude":"25.51885000","population":2524,"timezone":"Europe/Oslo","type":"adm2","translations":{"es":"Karasjok","en":"Karasjok"}},{"name":"Kautokeino","state_code":"56","latitude":"69.01151000","longitude":"23.04151000","population":2000,"timezone":"Europe/Oslo","type":"adm2","translations":{"es":"Kautokeino","en":"Kautokeino"}},{"name":"Kirkenes","state_code":"56","latitude":"69.72706000","longitude":"30.04578000","population":3535,"timezone":"Europe/Oslo","type":"adm2","translations":{"es":"Kirkenes","en":"Kirkenes"}},{"name":"Kjøllefjord","state_code":"56","latitude":"70.94574000","longitude":"27.34650000","population":840,"timezone":"Europe/Oslo","type":"adm2","translations":{"es":"Fiordo de Kjølle","en":"Kjøllefjord"}},{"name":"Kvalsund","state_code":"56","latitude":"70.49910000","longitude":"23.97393000","population":597,"timezone":"Europe/Oslo","type":"city","translations":{"es":"Kvalsund","en":"Kvalsund"}},{"name":"Lakselv","state_code":"56","latitude":"70.05133000","longitude":"24.97182000","population":2250,"timezone":"Europe/Oslo","type":"adm2","translations":{"es":"Lakselv","en":"Lakselv"}},{"name":"Lebesby","state_code":"56","latitude":"70.94535000","longitude":"27.35134000","population":1238,"timezone":"Europe/Oslo","type":"city","translations":{"es":"Lebesby","en":"Lebesby"}},{"name":"Lenvik","state_code":"56","latitude":"69.23111000","longitude":"17.98739000","population":null,"timezone":"Europe/Oslo","type":"city","translations":{"es":"Lenvik","en":"Lenvik"}},{"name":"Loppa","state_code":"56","latitude":"70.23952000","longitude":"22.35136000","population":864,"timezone":"Europe/Oslo","type":"city","translations":{"es":"Loppa","en":"Loppa"}},{"name":"Lyngseidet","state_code":"56","latitude":"69.57629000","longitude":"20.21887000","population":752,"timezone":"Europe/Oslo","type":"adm2","translations":{"es":"Lyngseidet","en":"Lyngseidet"}},{"name":"Måsøy","state_code":"56","latitude":"70.99654000","longitude":"24.66146000","population":1098,"timezone":"Europe/Oslo","type":"city","translations":{"es":"Måsøy","en":"Måsøy"}},{"name":"Mehamn","state_code":"56","latitude":"71.04137000","longitude":"27.85133000","population":725,"timezone":"Europe/Oslo","type":"adm2","translations":{"es":"Mehamn","en":"Mehamn"}},{"name":"Moen","state_code":"56","latitude":"69.13043000","longitude":"18.61226000","population":848,"timezone":"Europe/Oslo","type":"adm2","translations":{"es":"Moen","en":"Moen"}},{"name":"Nesseby","state_code":"56","latitude":"69.88541000","longitude":"28.43368000","population":868,"timezone":"Europe/Oslo","type":"city","translations":{"es":"Nesseby","en":"Nesseby"}},{"name":"Nordkapp","state_code":"56","latitude":"70.97808000","longitude":"25.97473000","population":2956,"timezone":"Europe/Oslo","type":"city","translations":{"es":"Cabo Norte","en":"Nordkapp"}},{"name":"Olderdalen","state_code":"56","latitude":"69.60407000","longitude":"20.53272000","population":305,"timezone":"Europe/Oslo","type":"adm2","translations":{"es":"Olderdalen","en":"Olderdalen"}},{"name":"Øksfjord","state_code":"56","latitude":"70.23936000","longitude":"22.35070000","population":490,"timezone":"Europe/Oslo","type":"adm2","translations":{"es":"Fiordo de Øks","en":"Øksfjord"}},{"name":"Porsanger","state_code":"56","latitude":"70.05214000","longitude":"24.95592000","population":3896,"timezone":"Europe/Oslo","type":"city","translations":{"es":"Porsanger","en":"Porsanger"}},{"name":"Rypefjord","state_code":"56","latitude":"70.64126000","longitude":"23.67213000","population":1786,"timezone":"Europe/Oslo","type":"city","translations":{"es":"Fiordo de Rype","en":"Rypefjord"}},{"name":"Setermoen","state_code":"56","latitude":"68.86099000","longitude":"18.34857000","population":2540,"timezone":"Europe/Oslo","type":"adm2","translations":{"es":"Setermoen","en":"Setermoen"}},{"name":"Sjøvegan","state_code":"56","latitude":"68.87363000","longitude":"17.84706000","population":794,"timezone":"Europe/Oslo","type":"adm2","translations":{"es":"Sjøvegan","en":"Sjøvegan"}},{"name":"Skånland","state_code":"56","latitude":"68.58378000","longitude":"16.57305000","population":601,"timezone":"Europe/Oslo","type":"adm2","translations":{"es":"Escandinavia","en":"Skånland"}},{"name":"Sør-Varanger","state_code":"56","latitude":"69.72859000","longitude":"30.04264000","population":9963,"timezone":"Europe/Oslo","type":"adm2","translations":{"es":"Sør-Varanger","en":"Sør-Varanger"}},{"name":"Storslett","state_code":"56","latitude":"69.76783000","longitude":"21.02466000","population":1455,"timezone":"Europe/Oslo","type":"adm2","translations":{"es":"Storslett","en":"Storslett"}},{"name":"Storsteinnes","state_code":"56","latitude":"69.24081000","longitude":"19.23437000","population":1131,"timezone":"Europe/Oslo","type":"adm2","translations":{"es":"Storsteinnes","en":"Storsteinnes"}},{"name":"Tana","state_code":"56","latitude":"70.19976000","longitude":"28.18494000","population":2798,"timezone":"Europe/Oslo","type":"adm2","translations":{"es":"Tana","en":"Tana"}},{"name":"Torsken","state_code":"56","latitude":"69.36184000","longitude":"17.05384000","population":0,"timezone":"Europe/Oslo","type":"city","translations":{"es":"Torsken","en":"Torsken"}},{"name":"Tranøy","state_code":"56","latitude":"69.17022000","longitude":"17.73480000","population":null,"timezone":"Europe/Oslo","type":"city","translations":{"es":"Tranøy","en":"Tranøy"}},{"name":"Vadsø","state_code":"56","latitude":"70.07412000","longitude":"29.74922000","population":5777,"timezone":"Europe/Oslo","type":"adm1","translations":{"es":"Vadsø","en":"Vadsø"}},{"name":"Vardø","state_code":"56","latitude":"70.37040000","longitude":"31.10866000","population":1982,"timezone":"Europe/Oslo","type":"adm2","translations":{"es":"Vardø","en":"Vardø"}},{"name":"Alvdal","state_code":"34","latitude":"62.10854000","longitude":"10.63483000","population":2509,"timezone":"Europe/Oslo","type":"adm2","translations":{"es":"Alvdal","en":"Alvdal"}},{"name":"Åmot","state_code":"34","latitude":"61.13199000","longitude":"11.37328000","population":0,"timezone":"Europe/Oslo","type":"adm2","translations":{"es":"Åmot","en":"Åmot"}},{"name":"Åsnes","state_code":"34","latitude":"60.61363000","longitude":"12.01200000","population":7247,"timezone":"Europe/Oslo","type":"city","translations":{"es":"Asnes","en":"Åsnes"}},{"name":"Bagn","state_code":"34","latitude":"60.82249000","longitude":"9.55207000","population":616,"timezone":"Europe/Oslo","type":"adm2","translations":{"es":"Bagn","en":"Bagn"}},{"name":"Brumunddal","state_code":"34","latitude":"60.88095000","longitude":"10.93948000","population":11337,"timezone":"Europe/Oslo","type":"adm2","translations":{"es":"Brumunddal","en":"Brumunddal"}},{"name":"Dokka","state_code":"34","latitude":"60.83500000","longitude":"10.07362000","population":2944,"timezone":"Europe/Oslo","type":"adm2","translations":{"es":"Dokka","en":"Dokka"}},{"name":"Dombås","state_code":"34","latitude":"62.07554000","longitude":"9.12785000","population":1163,"timezone":"Europe/Oslo","type":"city","translations":{"es":"Dombås","en":"Dombås"}},{"name":"Dovre","state_code":"34","latitude":"61.98582000","longitude":"9.24947000","population":2516,"timezone":"Europe/Oslo","type":"adm2","translations":{"es":"Dovre","en":"Dovre"}},{"name":"Eidskog","state_code":"34","latitude":"59.98556000","longitude":"12.12502000","population":6059,"timezone":"Europe/Oslo","type":"adm2","translations":{"es":"Eidskog","en":"Eidskog"}},{"name":"Elverum","state_code":"34","latitude":"60.88159000","longitude":"11.56314000","population":12490,"timezone":"Europe/Oslo","type":"adm2","translations":{"es":"Elverum","en":"Elverum"}},{"name":"Engerdal","state_code":"34","latitude":"61.75774000","longitude":"11.95966000","population":0,"timezone":"Europe/Oslo","type":"adm2","translations":{"es":"Engerdal","en":"Engerdal"}},{"name":"Etnedal","state_code":"34","latitude":"60.88872000","longitude":"9.64031000","population":235,"timezone":"Europe/Oslo","type":"adm2","translations":{"es":"Etnedal","en":"Etnedal"}},{"name":"Fagernes","state_code":"34","latitude":"60.98584000","longitude":"9.23236000","population":1983,"timezone":"Europe/Oslo","type":"adm2","translations":{"es":"Fagernes","en":"Fagernes"}},{"name":"Folldal","state_code":"34","latitude":"62.13329000","longitude":"9.99710000","population":497,"timezone":"Europe/Oslo","type":"adm2","translations":{"es":"Folldal","en":"Folldal"}},{"name":"Fossbergom","state_code":"34","latitude":"61.83772000","longitude":"8.56842000","population":2211,"timezone":"Europe/Oslo","type":"adm2","translations":{"es":"Fossbergom","en":"Fossbergom"}},{"name":"Gausdal","state_code":"34","latitude":"61.22685000","longitude":"10.22145000","population":6174,"timezone":"Europe/Oslo","type":"city","translations":{"es":"Gausdal","en":"Gausdal"}},{"name":"Gjøvik","state_code":"34","latitude":"60.79472000","longitude":"10.69287000","population":17596,"timezone":"Europe/Oslo","type":"adm2","translations":{"es":"Gjøvik","en":"Gjøvik"}},{"name":"Gran","state_code":"34","latitude":"60.39293000","longitude":"10.56045000","population":4848,"timezone":"Europe/Oslo","type":"adm2","translations":{"es":"Abuela","en":"Gran"}},{"name":"Grua","state_code":"34","latitude":"60.25701000","longitude":"10.66222000","population":1623,"timezone":"Europe/Oslo","type":"city","translations":{"es":"Grua","en":"Grua"}},{"name":"Grue","state_code":"34","latitude":"60.45133000","longitude":"12.05489000","population":4513,"timezone":"Europe/Oslo","type":"adm2","translations":{"es":"Grue","en":"Grue"}},{"name":"Hamar","state_code":"34","latitude":"60.79450000","longitude":"11.06798000","population":30030,"timezone":"Europe/Oslo","type":"adm1","translations":{"es":"Hamar","en":"Hamar"}},{"name":"Hov","state_code":"34","latitude":"60.69870000","longitude":"10.35193000","population":2132,"timezone":"Europe/Oslo","type":"adm2","translations":{"es":"Hov","en":"Hov"}},{"name":"Hundorp","state_code":"34","latitude":"61.55523000","longitude":"9.94069000","population":584,"timezone":"Europe/Oslo","type":"adm2","translations":{"es":"Hundorp","en":"Hundorp"}},{"name":"Innbygda","state_code":"34","latitude":"61.31484000","longitude":"12.26374000","population":2569,"timezone":"Europe/Oslo","type":"adm2","translations":{"es":"Innbygda","en":"Innbygda"}},{"name":"Jevnaker","state_code":"34","latitude":"60.24060000","longitude":"10.38587000","population":4308,"timezone":"Europe/Oslo","type":"adm2","translations":{"es":"Jevnaker","en":"Jevnaker"}},{"name":"Kirkenær","state_code":"34","latitude":"60.45790000","longitude":"12.05855000","population":1225,"timezone":"Europe/Oslo","type":"adm2","translations":{"es":"Kirkenær","en":"Kirkenær"}},{"name":"Kongsvinger","state_code":"34","latitude":"60.19117000","longitude":"11.99916000","population":12338,"timezone":"Europe/Oslo","type":"adm2","translations":{"es":"Kongsvinger","en":"Kongsvinger"}},{"name":"Koppang","state_code":"34","latitude":"61.57219000","longitude":"11.04659000","population":1006,"timezone":"Europe/Oslo","type":"adm2","translations":{"es":"Koppang","en":"Koppang"}},{"name":"Lena","state_code":"34","latitude":"60.67391000","longitude":"10.81317000","population":1393,"timezone":"Europe/Oslo","type":"adm2","translations":{"es":"Lena","en":"Lena"}},{"name":"Lesja","state_code":"34","latitude":"62.11785000","longitude":"8.86262000","population":2006,"timezone":"Europe/Oslo","type":"adm2","translations":{"es":"Lesja","en":"Lesja"}},{"name":"Lillehammer","state_code":"34","latitude":"61.11464000","longitude":"10.46743000","population":29011,"timezone":"Europe/Oslo","type":"adm1","translations":{"es":"Lillehammer","en":"Lillehammer"}},{"name":"Lom","state_code":"34","latitude":"61.83639000","longitude":"8.56811000","population":2215,"timezone":"Europe/Oslo","type":"city","translations":{"es":"Lom","en":"Lom"}},{"name":"Løten","state_code":"34","latitude":"60.81771000","longitude":"11.34373000","population":7931,"timezone":"Europe/Oslo","type":"adm2","translations":{"es":"Loten","en":"Løten"}},{"name":"Lunner","state_code":"34","latitude":"60.29462000","longitude":"10.60860000","population":9420,"timezone":"Europe/Oslo","type":"adm2","translations":{"es":"Almuerzo","en":"Lunner"}},{"name":"Moelv","state_code":"34","latitude":"60.93333000","longitude":"10.70000000","population":4547,"timezone":"Europe/Oslo","type":"city","translations":{"es":"Moelv","en":"Moelv"}},{"name":"Nord-Aurdal","state_code":"34","latitude":"60.98531000","longitude":"9.23661000","population":6455,"timezone":"Europe/Oslo","type":"city","translations":{"es":"Norte de Aurdal","en":"Nord-Aurdal"}},{"name":"Nord-Fron","state_code":"34","latitude":"61.59556000","longitude":"9.74830000","population":5553,"timezone":"Europe/Oslo","type":"city","translations":{"es":"Frente Norte","en":"Nord-Fron"}},{"name":"Nord-Odal","state_code":"34","latitude":"60.39195000","longitude":"11.54151000","population":5006,"timezone":"Europe/Oslo","type":"city","translations":{"es":"Nord-Odal","en":"Nord-Odal"}},{"name":"Nordre Land","state_code":"34","latitude":"60.83471000","longitude":"10.07543000","population":6544,"timezone":"Europe/Oslo","type":"adm2","translations":{"es":"Tierra del Norte","en":"Nordre Land"}},{"name":"Os","state_code":"34","latitude":"62.49536000","longitude":"11.22807000","population":1895,"timezone":"Europe/Oslo","type":"adm2","translations":{"es":"Os","en":"Os"}},{"name":"Otta","state_code":"34","latitude":"61.77120000","longitude":"9.53529000","population":2322,"timezone":"Europe/Oslo","type":"adm2","translations":{"es":"Otta","en":"Otta"}},{"name":"Østre Toten","state_code":"34","latitude":"60.67659000","longitude":"10.81997000","population":14827,"timezone":"Europe/Oslo","type":"city","translations":{"es":"Østre Toten","en":"Østre Toten"}},{"name":"Øyer","state_code":"34","latitude":"61.26495000","longitude":"10.41297000","population":5134,"timezone":"Europe/Oslo","type":"city","translations":{"es":"Øyer","en":"Øyer"}},{"name":"Øystre Slidre","state_code":"34","latitude":"61.13377000","longitude":"9.07872000","population":3311,"timezone":"Europe/Oslo","type":"city","translations":{"es":"Øystre Slidre","en":"Øystre Slidre"}},{"name":"Raufoss","state_code":"34","latitude":"60.72604000","longitude":"10.61330000","population":7839,"timezone":"Europe/Oslo","type":"adm2","translations":{"es":"Raufoss","en":"Raufoss"}},{"name":"Reinsvoll","state_code":"34","latitude":"60.67977000","longitude":"10.62175000","population":1083,"timezone":"Europe/Oslo","type":"city","translations":{"es":"Reinsvoll","en":"Reinsvoll"}},{"name":"Rena","state_code":"34","latitude":"61.13222000","longitude":"11.37156000","population":2117,"timezone":"Europe/Oslo","type":"adm2","translations":{"es":"Rena","en":"Rena"}},{"name":"Rendalen","state_code":"34","latitude":"61.89004000","longitude":"11.07694000","population":1846,"timezone":"Europe/Oslo","type":"city","translations":{"es":"Rendalen","en":"Rendalen"}},{"name":"Ringebu","state_code":"34","latitude":"61.52980000","longitude":"10.14180000","population":4447,"timezone":"Europe/Oslo","type":"adm2","translations":{"es":"Ringebu","en":"Ringebu"}},{"name":"Ringsaker","state_code":"34","latitude":"60.88216000","longitude":"10.95030000","population":35911,"timezone":"Europe/Oslo","type":"city","translations":{"es":"Anillo de anillos","en":"Ringsaker"}},{"name":"Sand","state_code":"34","latitude":"60.39220000","longitude":"11.54030000","population":1131,"timezone":"Europe/Oslo","type":"adm2","translations":{"es":"Arena","en":"Sand"}},{"name":"Sel","state_code":"34","latitude":"61.77278000","longitude":"9.53415000","population":5623,"timezone":"Europe/Oslo","type":"city","translations":{"es":"Sel","en":"Sel"}},{"name":"Skarnes","state_code":"34","latitude":"60.25391000","longitude":"11.68485000","population":2728,"timezone":"Europe/Oslo","type":"adm2","translations":{"es":"Skarnes","en":"Skarnes"}},{"name":"Skjåk","state_code":"34","latitude":"61.88349000","longitude":"8.26490000","population":2179,"timezone":"Europe/Oslo","type":"city","translations":{"es":"Skjåk","en":"Skjåk"}},{"name":"Skotterud","state_code":"34","latitude":"59.98281000","longitude":"12.12825000","population":1398,"timezone":"Europe/Oslo","type":"adm2","translations":{"es":"Skotterud","en":"Skotterud"}},{"name":"Skreia","state_code":"34","latitude":"60.65257000","longitude":"10.93564000","population":1036,"timezone":"Europe/Oslo","type":"city","translations":{"es":"Skreia","en":"Skreia"}},{"name":"Søndre Land","state_code":"34","latitude":"60.69944000","longitude":"10.35086000","population":5597,"timezone":"Europe/Oslo","type":"city","translations":{"es":"Tierra de Søndre","en":"Søndre Land"}},{"name":"Sør-Aurdal","state_code":"34","latitude":"60.82242000","longitude":"9.54836000","population":2822,"timezone":"Europe/Oslo","type":"city","translations":{"es":"Sør-Aurdal","en":"Sør-Aurdal"}},{"name":"Sør-Fron","state_code":"34","latitude":"61.55652000","longitude":"9.93949000","population":3128,"timezone":"Europe/Oslo","type":"city","translations":{"es":"Sør-Fron","en":"Sør-Fron"}},{"name":"Sør-Odal","state_code":"34","latitude":"60.25455000","longitude":"11.68246000","population":8150,"timezone":"Europe/Oslo","type":"city","translations":{"es":"Sør-Odal","en":"Sør-Odal"}},{"name":"Spetalen","state_code":"34","latitude":"60.18333000","longitude":"11.90000000","population":2354,"timezone":"Europe/Oslo","type":"city","translations":{"es":"Especialistas","en":"Spetalen"}},{"name":"Stange","state_code":"34","latitude":"60.71576000","longitude":"11.19069000","population":21691,"timezone":"Europe/Oslo","type":"adm2","translations":{"es":"Extraño","en":"Stange"}},{"name":"Stor-Elvdal","state_code":"34","latitude":"61.57198000","longitude":"11.04759000","population":2250,"timezone":"Europe/Oslo","type":"city","translations":{"es":"Stor-Elvdal","en":"Stor-Elvdal"}},{"name":"Tolga","state_code":"34","latitude":"62.40984000","longitude":"10.99770000","population":646,"timezone":"Europe/Oslo","type":"adm2","translations":{"es":"Tolga","en":"Tolga"}},{"name":"Tretten","state_code":"34","latitude":"61.31423000","longitude":"10.30066000","population":861,"timezone":"Europe/Oslo","type":"adm2","translations":{"es":"Tretten","en":"Tretten"}},{"name":"Trysil","state_code":"34","latitude":"61.31549000","longitude":"12.26422000","population":6542,"timezone":"Europe/Oslo","type":"city","translations":{"es":"Trysil","en":"Trysil"}},{"name":"Tynset","state_code":"34","latitude":"62.27387000","longitude":"10.77626000","population":5722,"timezone":"Europe/Oslo","type":"adm2","translations":{"es":"Tynset","en":"Tynset"}},{"name":"Vågå","state_code":"34","latitude":"61.87565000","longitude":"9.09572000","population":1487,"timezone":"Europe/Oslo","type":"adm2","translations":{"es":"Vågå","en":"Vågå"}},{"name":"Vågåmo","state_code":"34","latitude":"61.87505000","longitude":"9.09671000","population":1471,"timezone":"Europe/Oslo","type":"adm2","translations":{"es":"Vågåmo","en":"Vågåmo"}},{"name":"Våler","state_code":"34","latitude":"60.67845000","longitude":"11.83314000","population":3559,"timezone":"Europe/Oslo","type":"adm2","translations":{"es":"Våler","en":"Våler"}},{"name":"Vang","state_code":"34","latitude":"61.12564000","longitude":"8.57167000","population":1648,"timezone":"Europe/Oslo","type":"adm2","translations":{"es":"Vang","en":"Vang"}},{"name":"Vestre Slidre","state_code":"34","latitude":"61.08842000","longitude":"8.98196000","population":2142,"timezone":"Europe/Oslo","type":"city","translations":{"es":"Vestre Slidre","en":"Vestre Slidre"}},{"name":"Vestre Toten","state_code":"34","latitude":"60.72593000","longitude":"10.60764000","population":13649,"timezone":"Europe/Oslo","type":"city","translations":{"es":"Vestre Toten","en":"Vestre Toten"}},{"name":"Vinstra","state_code":"34","latitude":"61.59496000","longitude":"9.75134000","population":2674,"timezone":"Europe/Oslo","type":"adm2","translations":{"es":"Vinstra","en":"Vinstra"}},{"name":"Ålesund","state_code":"15","latitude":"62.47225000","longitude":"6.15492000","population":59198,"timezone":"Europe/Oslo","type":"adm2","translations":{"es":"Ålesund","en":"Ålesund"}},{"name":"Åndalsnes","state_code":"15","latitude":"62.56749000","longitude":"7.68709000","population":2483,"timezone":"Europe/Oslo","type":"adm2","translations":{"es":"Åndalsnes","en":"Åndalsnes"}},{"name":"Aukra","state_code":"15","latitude":"62.80500000","longitude":"6.88722000","population":0,"timezone":"Europe/Oslo","type":"adm2","translations":{"es":"Aukra","en":"Aukra"}},{"name":"Aure","state_code":"15","latitude":"63.26750000","longitude":"8.52778000","population":3394,"timezone":"Europe/Oslo","type":"adm2","translations":{"es":"Aure","en":"Aure"}},{"name":"Averøy","state_code":"15","latitude":"63.05344000","longitude":"7.63265000","population":5992,"timezone":"Europe/Oslo","type":"adm2","translations":{"es":"Avery","en":"Averøy"}},{"name":"Batnfjordsøra","state_code":"15","latitude":"62.89463000","longitude":"7.67251000","population":367,"timezone":"Europe/Oslo","type":"adm2","translations":{"es":"Batnfjordsøra","en":"Batnfjordsøra"}},{"name":"Brattvåg","state_code":"15","latitude":"62.59991000","longitude":"6.44426000","population":2437,"timezone":"Europe/Oslo","type":"adm2","translations":{"es":"Brattvåg","en":"Brattvåg"}},{"name":"Eide","state_code":"15","latitude":"62.91570000","longitude":"7.44496000","population":1496,"timezone":"Europe/Oslo","type":"city","translations":{"es":"Eide","en":"Eide"}},{"name":"Eidsvåg","state_code":"15","latitude":"62.77656000","longitude":"8.06550000","population":986,"timezone":"Europe/Oslo","type":"adm2","translations":{"es":"Eidsvåg","en":"Eidsvåg"}},{"name":"Elnesvågen","state_code":"15","latitude":"62.85426000","longitude":"7.13769000","population":2741,"timezone":"Europe/Oslo","type":"adm2","translations":{"es":"Elnesvågen","en":"Elnesvågen"}},{"name":"Fræna","state_code":"15","latitude":"62.85375000","longitude":"7.15380000","population":null,"timezone":"Europe/Oslo","type":"adm1","translations":{"es":"Frena","en":"Fræna"}},{"name":"Giske","state_code":"15","latitude":"62.50070000","longitude":"6.13472000","population":8773,"timezone":"Europe/Oslo","type":"city","translations":{"es":"Giske","en":"Giske"}},{"name":"Gjemnes","state_code":"15","latitude":"62.89379000","longitude":"7.67714000","population":2708,"timezone":"Europe/Oslo","type":"adm2","translations":{"es":"Gjemnes","en":"Gjemnes"}},{"name":"Halsa","state_code":"15","latitude":"63.11855000","longitude":"8.31536000","population":0,"timezone":"Europe/Oslo","type":"city","translations":{"es":"Halsa","en":"Halsa"}},{"name":"Haram","state_code":"15","latitude":"62.59898000","longitude":"6.44483000","population":2146,"timezone":"Europe/Oslo","type":"adm2","translations":{"es":"Haram","en":"Haram"}},{"name":"Hareid","state_code":"15","latitude":"62.36742000","longitude":"6.02114000","population":5320,"timezone":"Europe/Oslo","type":"adm2","translations":{"es":"Hareid","en":"Hareid"}},{"name":"Herøy","state_code":"15","latitude":"62.33333000","longitude":"5.63598000","population":1888,"timezone":"Europe/Oslo","type":"city","translations":{"es":"Herøy","en":"Herøy"}},{"name":"Hjelset","state_code":"15","latitude":"62.78050000","longitude":"7.49277000","population":1001,"timezone":"Europe/Oslo","type":"city","translations":{"es":"Hjelset","en":"Hjelset"}},{"name":"Hopen","state_code":"15","latitude":"63.46539000","longitude":"8.01437000","population":0,"timezone":"Europe/Oslo","type":"adm2","translations":{"es":"Esperanza","en":"Hopen"}},{"name":"Kristiansund","state_code":"15","latitude":"63.11152000","longitude":"7.73198000","population":24578,"timezone":"Europe/Oslo","type":"adm2","translations":{"es":"Kristiansund","en":"Kristiansund"}},{"name":"Larsnes","state_code":"15","latitude":"62.20282000","longitude":"5.57729000","population":644,"timezone":"Europe/Oslo","type":"adm2","translations":{"es":"Larsnes","en":"Larsnes"}},{"name":"Midsund","state_code":"15","latitude":"62.67614000","longitude":"6.67776000","population":590,"timezone":"Europe/Oslo","type":"adm2","translations":{"es":"Midsund","en":"Midsund"}},{"name":"Molde","state_code":"15","latitude":"62.73807000","longitude":"7.15882000","population":22410,"timezone":"Europe/Oslo","type":"adm1","translations":{"es":"Molde","en":"Molde"}},{"name":"Nesset","state_code":"15","latitude":"62.77619000","longitude":"8.06623000","population":0,"timezone":"Europe/Oslo","type":"city","translations":{"es":"Nesset","en":"Nesset"}},{"name":"Norddal","state_code":"15","latitude":"62.29910000","longitude":"7.26145000","population":0,"timezone":"Europe/Oslo","type":"city","translations":{"es":"Norddal","en":"Norddal"}},{"name":"Nordstranda","state_code":"15","latitude":"62.51384000","longitude":"6.13166000","population":3700,"timezone":"Europe/Oslo","type":"city","translations":{"es":"Nordstranda","en":"Nordstranda"}},{"name":"Ørskog","state_code":"15","latitude":"62.48450000","longitude":"6.82025000","population":null,"timezone":"Europe/Oslo","type":"city","translations":{"es":"Ørskog","en":"Ørskog"}},{"name":"Ørsta","state_code":"15","latitude":"62.19937000","longitude":"6.13084000","population":11055,"timezone":"Europe/Oslo","type":"adm2","translations":{"es":"Ørsta","en":"Ørsta"}},{"name":"Rauma","state_code":"15","latitude":"62.56810000","longitude":"7.68612000","population":7196,"timezone":"Europe/Oslo","type":"city","translations":{"es":"Rauma","en":"Rauma"}},{"name":"Rensvik","state_code":"15","latitude":"63.09843000","longitude":"7.82026000","population":2572,"timezone":"Europe/Oslo","type":"locality","translations":{"es":"Rensvik","en":"Rensvik"}},{"name":"Sande","state_code":"15","latitude":"62.20455000","longitude":"5.57971000","population":992,"timezone":"Europe/Oslo","type":"city","translations":{"es":"Sande","en":"Sande"}},{"name":"Sandøy","state_code":"15","latitude":"62.78167000","longitude":"6.46875000","population":null,"timezone":"Europe/Oslo","type":"city","translations":{"es":"Sandøy","en":"Sandøy"}},{"name":"Sjøholt","state_code":"15","latitude":"62.48263000","longitude":"6.81376000","population":1586,"timezone":"Europe/Oslo","type":"city","translations":{"es":"Sjøholt","en":"Sjøholt"}},{"name":"Skodje","state_code":"15","latitude":"62.50306000","longitude":"6.69817000","population":2544,"timezone":"Europe/Oslo","type":"city","translations":{"es":"Skodje","en":"Skodje"}},{"name":"Smøla","state_code":"15","latitude":"63.46526000","longitude":"8.01814000","population":2168,"timezone":"Europe/Oslo","type":"city","translations":{"es":"Smøla","en":"Smøla"}},{"name":"Steinshamn","state_code":"15","latitude":"62.78389000","longitude":"6.47065000","population":429,"timezone":"Europe/Oslo","type":"city","translations":{"es":"Steinshamn","en":"Steinshamn"}},{"name":"Stordal","state_code":"15","latitude":"62.38214000","longitude":"6.98708000","population":0,"timezone":"Europe/Oslo","type":"adm2","translations":{"es":"Stordal","en":"Stordal"}},{"name":"Stranda","state_code":"15","latitude":"62.31132000","longitude":"6.93115000","population":4380,"timezone":"Europe/Oslo","type":"adm2","translations":{"es":"Stranda","en":"Stranda"}},{"name":"Sula","state_code":"15","latitude":"62.44447000","longitude":"6.21229000","population":0,"timezone":"Europe/Oslo","type":"city","translations":{"es":"Sula","en":"Sula"}},{"name":"Sunndal","state_code":"15","latitude":"62.67464000","longitude":"8.56188000","population":0,"timezone":"Europe/Oslo","type":"city","translations":{"es":"Sunndal","en":"Sunndal"}},{"name":"Sunndalsøra","state_code":"15","latitude":"62.67519000","longitude":"8.56327000","population":4207,"timezone":"Europe/Oslo","type":"adm2","translations":{"es":"Sunndalsøra","en":"Sunndalsøra"}},{"name":"Surnadal","state_code":"15","latitude":"62.97533000","longitude":"8.72490000","population":0,"timezone":"Europe/Oslo","type":"adm2","translations":{"es":"Surnadal","en":"Surnadal"}},{"name":"Sykkylven","state_code":"15","latitude":"62.38962000","longitude":"6.57825000","population":7635,"timezone":"Europe/Oslo","type":"adm2","translations":{"es":"Sykkylven","en":"Sykkylven"}},{"name":"Tingvoll","state_code":"15","latitude":"62.91194000","longitude":"8.20673000","population":3077,"timezone":"Europe/Oslo","type":"adm2","translations":{"es":"Tingvoll","en":"Tingvoll"}},{"name":"Tomra","state_code":"15","latitude":"62.58118000","longitude":"6.93106000","population":1167,"timezone":"Europe/Oslo","type":"city","translations":{"es":"Tomra","en":"Tomra"}},{"name":"Ulstein","state_code":"15","latitude":"62.34423000","longitude":"5.85241000","population":8862,"timezone":"Europe/Oslo","type":"adm2","translations":{"es":"Ulstein","en":"Ulstein"}},{"name":"Ulsteinvik","state_code":"15","latitude":"62.34317000","longitude":"5.84869000","population":6208,"timezone":"Europe/Oslo","type":"adm2","translations":{"es":"Ulsteinvik","en":"Ulsteinvik"}},{"name":"Ulsteinvik weather pws station","state_code":"15","latitude":"62.34338000","longitude":"5.84385000","population":null,"timezone":"Europe/Oslo","type":"city","translations":{"es":"Estación meteorológica de Ulsteinvik","en":"Ulsteinvik weather pws station"}},{"name":"Vanylven","state_code":"15","latitude":"62.10003000","longitude":"5.55827000","population":3048,"timezone":"Europe/Oslo","type":"city","translations":{"es":"Vanylven","en":"Vanylven"}},{"name":"Vatne","state_code":"15","latitude":"62.55826000","longitude":"6.61708000","population":2439,"timezone":"Europe/Oslo","type":"city","translations":{"es":"Vatne","en":"Vatne"}},{"name":"Vestnes","state_code":"15","latitude":"62.62130000","longitude":"7.08966000","population":7242,"timezone":"Europe/Oslo","type":"adm2","translations":{"es":"Vestnes","en":"Vestnes"}},{"name":"Volda","state_code":"15","latitude":"62.14678000","longitude":"6.06800000","population":11131,"timezone":"Europe/Oslo","type":"adm2","translations":{"es":"Volda","en":"Volda"}},{"name":"Alstahaug","state_code":"18","latitude":"65.97556000","longitude":"12.56836000","population":7465,"timezone":"Europe/Oslo","type":"city","translations":{"es":"Alstahaug","en":"Alstahaug"}},{"name":"Andenes","state_code":"18","latitude":"69.31428000","longitude":"16.11939000","population":2499,"timezone":"Europe/Oslo","type":"adm2","translations":{"es":"Andenes","en":"Andenes"}},{"name":"Andøy","state_code":"18","latitude":"69.08033000","longitude":"15.77637000","population":4542,"timezone":"Europe/Oslo","type":"city","translations":{"es":"Andøy","en":"Andøy"}},{"name":"Ballangen","state_code":"18","latitude":"68.34365000","longitude":"16.83317000","population":794,"timezone":"Europe/Oslo","type":"city","translations":{"es":"Ballangen","en":"Ballangen"}},{"name":"Beiarn","state_code":"18","latitude":"67.00725000","longitude":"14.57304000","population":0,"timezone":"Europe/Oslo","type":"adm2","translations":{"es":"Beiarn","en":"Beiarn"}},{"name":"Bindal","state_code":"18","latitude":"65.08780000","longitude":"12.37747000","population":1374,"timezone":"Europe/Oslo","type":"adm2","translations":{"es":"Bindal","en":"Bindal"}},{"name":"Bjerkvik","state_code":"18","latitude":"68.54917000","longitude":"17.55709000","population":1074,"timezone":"Europe/Oslo","type":"city","translations":{"es":"Bjerkvik","en":"Bjerkvik"}},{"name":"Bodø","state_code":"18","latitude":"67.28325000","longitude":"14.38319000","population":43322,"timezone":"Europe/Oslo","type":"adm1","translations":{"es":"Bodø","en":"Bodø"}},{"name":"Bogen","state_code":"18","latitude":"68.52647000","longitude":"16.99280000","population":395,"timezone":"Europe/Oslo","type":"adm2","translations":{"es":"Arco","en":"Bogen"}},{"name":"Bø","state_code":"18","latitude":"68.68823000","longitude":"14.47899000","population":0,"timezone":"Europe/Oslo","type":"city","translations":{"es":"Bø","en":"Bø"}},{"name":"Brønnøy","state_code":"18","latitude":"65.46786000","longitude":"12.20626000","population":7838,"timezone":"Europe/Oslo","type":"city","translations":{"es":"Brønnøy","en":"Brønnøy"}},{"name":"Brønnøysund","state_code":"18","latitude":"65.47487000","longitude":"12.21285000","population":5093,"timezone":"Europe/Oslo","type":"adm2","translations":{"es":"Brønnøysund","en":"Brønnøysund"}},{"name":"Dønna","state_code":"18","latitude":"66.10606000","longitude":"12.48189000","population":1447,"timezone":"Europe/Oslo","type":"city","translations":{"es":"Donna","en":"Dønna"}},{"name":"Evenes","state_code":"18","latitude":"68.52334000","longitude":"17.00888000","population":1362,"timezone":"Europe/Oslo","type":"city","translations":{"es":"Evenes","en":"Evenes"}},{"name":"Evjen","state_code":"18","latitude":"68.26667000","longitude":"13.73333000","population":2127,"timezone":"Europe/Oslo","type":"city","translations":{"es":"Evjen","en":"Evjen"}},{"name":"Fauske","state_code":"18","latitude":"67.25963000","longitude":"15.39410000","population":9805,"timezone":"Europe/Oslo","type":"adm2","translations":{"es":"Fauske","en":"Fauske"}},{"name":"Flakstad","state_code":"18","latitude":"68.09292000","longitude":"13.23310000","population":1266,"timezone":"Europe/Oslo","type":"city","translations":{"es":"Flakstad","en":"Flakstad"}},{"name":"Gildeskål","state_code":"18","latitude":"67.03394000","longitude":"14.02582000","population":2003,"timezone":"Europe/Oslo","type":"city","translations":{"es":"Gildeskål","en":"Gildeskål"}},{"name":"Gladstad","state_code":"18","latitude":"65.67683000","longitude":"11.96218000","population":306,"timezone":"Europe/Oslo","type":"adm2","translations":{"es":"Gladstad","en":"Gladstad"}},{"name":"Glomfjord","state_code":"18","latitude":"66.81663000","longitude":"13.94404000","population":1089,"timezone":"Europe/Oslo","type":"city","translations":{"es":"Glomfjord","en":"Glomfjord"}},{"name":"Grane","state_code":"18","latitude":"65.53865000","longitude":"13.38499000","population":1430,"timezone":"Europe/Oslo","type":"city","translations":{"es":"Grano","en":"Grane"}},{"name":"Gravdal","state_code":"18","latitude":"68.11832000","longitude":"13.55339000","population":1700,"timezone":"Europe/Oslo","type":"city","translations":{"es":"Gravdal","en":"Gravdal"}},{"name":"Hadsel","state_code":"18","latitude":"68.56328000","longitude":"14.90835000","population":8400,"timezone":"Europe/Oslo","type":"city","translations":{"es":"Hadsel","en":"Hadsel"}},{"name":"Hamarøy","state_code":"18","latitude":"68.08381000","longitude":"15.61671000","population":2786,"timezone":"Europe/Oslo","type":"adm2","translations":{"es":"Hamarøy","en":"Hamarøy"}},{"name":"Hattfjelldal","state_code":"18","latitude":"65.59765000","longitude":"13.98948000","population":1274,"timezone":"Europe/Oslo","type":"adm2","translations":{"es":"Hattfjelldal","en":"Hattfjelldal"}},{"name":"Hauknes","state_code":"18","latitude":"66.28333000","longitude":"14.06667000","population":2101,"timezone":"Europe/Oslo","type":"city","translations":{"es":"Hauknes","en":"Hauknes"}},{"name":"Hemnes","state_code":"18","latitude":"66.07712000","longitude":"13.81350000","population":715,"timezone":"Europe/Oslo","type":"city","translations":{"es":"Hemnes","en":"Hemnes"}},{"name":"Hemnesberget","state_code":"18","latitude":"66.22489000","longitude":"13.61643000","population":1335,"timezone":"Europe/Oslo","type":"city","translations":{"es":"Hemnesberget","en":"Hemnesberget"}},{"name":"Herøy","state_code":"18","latitude":"65.98427000","longitude":"12.28916000","population":1888,"timezone":"Europe/Oslo","type":"city","translations":{"es":"Herøy","en":"Herøy"}},{"name":"Inndyr","state_code":"18","latitude":"67.03353000","longitude":"14.02663000","population":649,"timezone":"Europe/Oslo","type":"adm2","translations":{"es":"Inndyr","en":"Inndyr"}},{"name":"Kabelvåg","state_code":"18","latitude":"68.21066000","longitude":"14.47554000","population":2322,"timezone":"Europe/Oslo","type":"city","translations":{"es":"Cable","en":"Kabelvåg"}},{"name":"Kjøpsvik","state_code":"18","latitude":"68.09696000","longitude":"16.37416000","population":787,"timezone":"Europe/Oslo","type":"city","translations":{"es":"Kjøpsvik","en":"Kjøpsvik"}},{"name":"Korgen","state_code":"18","latitude":"66.07662000","longitude":"13.82160000","population":912,"timezone":"Europe/Oslo","type":"adm2","translations":{"es":"Korgen","en":"Korgen"}},{"name":"Leirfjord","state_code":"18","latitude":"66.06348000","longitude":"12.93667000","population":2354,"timezone":"Europe/Oslo","type":"adm2","translations":{"es":"Fiordo de Leir","en":"Leirfjord"}},{"name":"Leknes","state_code":"18","latitude":"68.14746000","longitude":"13.61151000","population":3766,"timezone":"Europe/Oslo","type":"adm2","translations":{"es":"Leknes","en":"Leknes"}},{"name":"Leland","state_code":"18","latitude":"66.06406000","longitude":"12.94325000","population":774,"timezone":"Europe/Oslo","type":"adm2","translations":{"es":"Leland","en":"Leland"}},{"name":"Løding","state_code":"18","latitude":"67.30055000","longitude":"14.73852000","population":3333,"timezone":"Europe/Oslo","type":"city","translations":{"es":"Løding","en":"Løding"}},{"name":"Lødingen","state_code":"18","latitude":"68.40998000","longitude":"15.99012000","population":2067,"timezone":"Europe/Oslo","type":"adm2","translations":{"es":"Lødingen","en":"Lødingen"}},{"name":"Løpsmarka","state_code":"18","latitude":"67.31343000","longitude":"14.44934000","population":2301,"timezone":"Europe/Oslo","type":"locality","translations":{"es":"Løpsmarka","en":"Løpsmarka"}},{"name":"Lurøy","state_code":"18","latitude":"66.41887000","longitude":"12.84248000","population":0,"timezone":"Europe/Oslo","type":"adm2","translations":{"es":"Lurøy","en":"Lurøy"}},{"name":"Melbu","state_code":"18","latitude":"68.50246000","longitude":"14.79962000","population":2277,"timezone":"Europe/Oslo","type":"city","translations":{"es":"Melbourne","en":"Melbu"}},{"name":"Meløy","state_code":"18","latitude":"66.87204000","longitude":"13.70763000","population":6104,"timezone":"Europe/Oslo","type":"city","translations":{"es":"Meløy","en":"Meløy"}},{"name":"Mo i Rana","state_code":"18","latitude":"66.31278000","longitude":"14.14278000","population":18755,"timezone":"Europe/Oslo","type":"adm2","translations":{"es":"Mo i Rana","en":"Mo i Rana"}},{"name":"Mosjøen","state_code":"18","latitude":"65.83599000","longitude":"13.19076000","population":10059,"timezone":"Europe/Oslo","type":"adm2","translations":{"es":"Mosjøen","en":"Mosjøen"}},{"name":"Moskenes","state_code":"18","latitude":"67.93467000","longitude":"13.09109000","population":969,"timezone":"Europe/Oslo","type":"city","translations":{"es":"Moskenes","en":"Moskenes"}},{"name":"Myre","state_code":"18","latitude":"68.91400000","longitude":"15.07843000","population":2232,"timezone":"Europe/Oslo","type":"adm2","translations":{"es":"Myre","en":"Myre"}},{"name":"Narvik","state_code":"18","latitude":"68.43896000","longitude":"17.42775000","population":14183,"timezone":"Europe/Oslo","type":"adm2","translations":{"es":"Narvik","en":"Narvik"}},{"name":"Nesna","state_code":"18","latitude":"66.19796000","longitude":"13.02229000","population":1770,"timezone":"Europe/Oslo","type":"adm2","translations":{"es":"Nesna","en":"Nesna"}},{"name":"Øksnes","state_code":"18","latitude":"68.91463000","longitude":"15.08703000","population":4628,"timezone":"Europe/Oslo","type":"city","translations":{"es":"Øksnes","en":"Øksnes"}},{"name":"Ørnes","state_code":"18","latitude":"66.86878000","longitude":"13.70579000","population":1624,"timezone":"Europe/Oslo","type":"adm2","translations":{"es":"Ørnes","en":"Ørnes"}},{"name":"Rana","state_code":"18","latitude":"66.31122000","longitude":"14.13996000","population":25927,"timezone":"Europe/Oslo","type":"adm2","translations":{"es":"Rana","en":"Rana"}},{"name":"Reine","state_code":"18","latitude":"67.93249000","longitude":"13.08955000","population":286,"timezone":"Europe/Oslo","type":"adm2","translations":{"es":"Reina","en":"Reine"}},{"name":"Rognan","state_code":"18","latitude":"67.10021000","longitude":"15.39086000","population":2584,"timezone":"Europe/Oslo","type":"adm2","translations":{"es":"Rognan","en":"Rognan"}},{"name":"Rødøy","state_code":"18","latitude":"66.71195000","longitude":"13.28530000","population":1160,"timezone":"Europe/Oslo","type":"adm2","translations":{"es":"Rødøy","en":"Rødøy"}},{"name":"Røst","state_code":"18","latitude":"67.51727000","longitude":"12.11564000","population":458,"timezone":"Europe/Oslo","type":"adm2","translations":{"es":"Rost","en":"Røst"}},{"name":"Saltdal","state_code":"18","latitude":"67.10144000","longitude":"15.39458000","population":4822,"timezone":"Europe/Oslo","type":"adm2","translations":{"es":"Saltdal","en":"Saltdal"}},{"name":"Sandnessjøen","state_code":"18","latitude":"66.02166000","longitude":"12.63158000","population":6056,"timezone":"Europe/Oslo","type":"adm2","translations":{"es":"Sandnessjøen","en":"Sandnessjøen"}},{"name":"Sortland","state_code":"18","latitude":"68.69618000","longitude":"15.41174000","population":10781,"timezone":"Europe/Oslo","type":"adm2","translations":{"es":"Sortland","en":"Sortland"}},{"name":"Sømna","state_code":"18","latitude":"65.31379000","longitude":"12.16729000","population":1979,"timezone":"Europe/Oslo","type":"city","translations":{"es":"Sømna","en":"Sømna"}},{"name":"Sørfold","state_code":"18","latitude":"67.34803000","longitude":"15.59445000","population":1851,"timezone":"Europe/Oslo","type":"adm2","translations":{"es":"Sørfold","en":"Sørfold"}},{"name":"Sørland","state_code":"18","latitude":"67.66564000","longitude":"12.69784000","population":589,"timezone":"Europe/Oslo","type":"adm2","translations":{"es":"Sørland","en":"Sørland"}},{"name":"Steigen","state_code":"18","latitude":"67.77625000","longitude":"15.01621000","population":0,"timezone":"Europe/Oslo","type":"adm2","translations":{"es":"Steigen","en":"Steigen"}},{"name":"Stokmarknes","state_code":"18","latitude":"68.56462000","longitude":"14.91075000","population":3540,"timezone":"Europe/Oslo","type":"adm2","translations":{"es":"Estocolmo","en":"Stokmarknes"}},{"name":"Straume","state_code":"18","latitude":"68.68880000","longitude":"14.47205000","population":331,"timezone":"Europe/Oslo","type":"adm2","translations":{"es":"Straume","en":"Straume"}},{"name":"Straumen","state_code":"18","latitude":"67.34769000","longitude":"15.60493000","population":892,"timezone":"Europe/Oslo","type":"adm2","translations":{"es":"Straumen","en":"Straumen"}},{"name":"Svolvær","state_code":"18","latitude":"68.23417000","longitude":"14.56834000","population":4775,"timezone":"Europe/Oslo","type":"adm2","translations":{"es":"Svolvær","en":"Svolvær"}},{"name":"Terråk","state_code":"18","latitude":"65.08700000","longitude":"12.37148000","population":527,"timezone":"Europe/Oslo","type":"adm2","translations":{"es":"Tierra","en":"Terråk"}},{"name":"Tjeldsund","state_code":"18","latitude":"68.55557000","longitude":"16.36172000","population":4209,"timezone":"Europe/Oslo","type":"city","translations":{"es":"Tjeldsund","en":"Tjeldsund"}},{"name":"Træna","state_code":"18","latitude":"66.50159000","longitude":"12.09645000","population":463,"timezone":"Europe/Oslo","type":"city","translations":{"es":"Traena","en":"Træna"}},{"name":"Trofors","state_code":"18","latitude":"65.53335000","longitude":"13.40631000","population":860,"timezone":"Europe/Oslo","type":"adm2","translations":{"es":"Trofors","en":"Trofors"}},{"name":"Tysfjord","state_code":"18","latitude":"68.09772000","longitude":"16.37591000","population":null,"timezone":"Europe/Oslo","type":"city","translations":{"es":"Fiordo de Tys","en":"Tysfjord"}},{"name":"Vågan","state_code":"18","latitude":"68.23220000","longitude":"14.56226000","population":9871,"timezone":"Europe/Oslo","type":"city","translations":{"es":"Vågan","en":"Vågan"}},{"name":"Værøy","state_code":"18","latitude":"67.66374000","longitude":"12.69337000","population":677,"timezone":"Europe/Oslo","type":"city","translations":{"es":"Værøy","en":"Værøy"}},{"name":"Vefsn","state_code":"18","latitude":"65.84109000","longitude":"13.20024000","population":13475,"timezone":"Europe/Oslo","type":"adm2","translations":{"es":"Vefsn","en":"Vefsn"}},{"name":"Vega","state_code":"18","latitude":"65.67539000","longitude":"11.96456000","population":1207,"timezone":"Europe/Oslo","type":"city","translations":{"es":"Vega","en":"Vega"}},{"name":"Vestvågøy","state_code":"18","latitude":"68.14830000","longitude":"13.61119000","population":3556,"timezone":"Europe/Oslo","type":"adm2","translations":{"es":"Vestvågøy","en":"Vestvågøy"}},{"name":"Vevelstad","state_code":"18","latitude":"65.70002000","longitude":"12.43921000","population":470,"timezone":"Europe/Oslo","type":"adm2","translations":{"es":"Vevelstad","en":"Vevelstad"}},{"name":"Vik","state_code":"18","latitude":"65.31254000","longitude":"12.16734000","population":360,"timezone":"Europe/Oslo","type":"adm2","translations":{"es":"Vik","en":"Vik"}},{"name":"Oslo","state_code":"03","latitude":"59.91273000","longitude":"10.74609000","population":1082575,"timezone":"Europe/Oslo","type":"capital","translations":{"es":"Oslo","en":"Oslo"}},{"name":"Sjølyststranda","state_code":"03","latitude":"59.92105000","longitude":"10.68017000","population":1500,"timezone":"Europe/Oslo","type":"section","translations":{"es":"Sjølyststranda","en":"Sjølyststranda"}},{"name":"Aremark","state_code":"31","latitude":"59.22198000","longitude":"11.69582000","population":1346,"timezone":"Europe/Oslo","type":"city","translations":{"es":"Una nota","en":"Aremark"}},{"name":"Askim","state_code":"31","latitude":"59.58464000","longitude":"11.16084000","population":15368,"timezone":"Europe/Oslo","type":"adm2","translations":{"es":"Askim","en":"Askim"}},{"name":"Eidsberg","state_code":"31","latitude":"59.55148000","longitude":"11.33587000","population":null,"timezone":"Europe/Oslo","type":"adm2","translations":{"es":"Eidsberg","en":"Eidsberg"}},{"name":"Fossby","state_code":"31","latitude":"59.22218000","longitude":"11.69928000","population":344,"timezone":"Europe/Oslo","type":"adm2","translations":{"es":"Fossby","en":"Fossby"}},{"name":"Fredrikstad","state_code":"31","latitude":"59.21759000","longitude":"10.93787000","population":85862,"timezone":"Europe/Oslo","type":"adm2","translations":{"es":"Fredrikstad","en":"Fredrikstad"}},{"name":"Halden","state_code":"31","latitude":"59.12258000","longitude":"11.38709000","population":21970,"timezone":"Europe/Oslo","type":"adm2","translations":{"es":"Halden","en":"Halden"}},{"name":"Hobøl","state_code":"31","latitude":"59.62252000","longitude":"10.94979000","population":null,"timezone":"Europe/Oslo","type":"adm2","translations":{"es":"Hobøl","en":"Hobøl"}},{"name":"Hvaler","state_code":"31","latitude":"59.02809000","longitude":"11.03110000","population":4777,"timezone":"Europe/Oslo","type":"city","translations":{"es":"Hvaler","en":"Hvaler"}},{"name":"Karlshus","state_code":"31","latitude":"59.35195000","longitude":"10.87226000","population":1801,"timezone":"Europe/Oslo","type":"adm2","translations":{"es":"Karlshus","en":"Karlshus"}},{"name":"Knappstad","state_code":"31","latitude":"59.62424000","longitude":"11.03274000","population":1133,"timezone":"Europe/Oslo","type":"city","translations":{"es":"Knappstad","en":"Knappstad"}},{"name":"Larkollen","state_code":"31","latitude":"59.33196000","longitude":"10.66687000","population":1544,"timezone":"Europe/Oslo","type":"city","translations":{"es":"Larkollen","en":"Larkollen"}},{"name":"Lervik","state_code":"31","latitude":"59.27119000","longitude":"10.74610000","population":2331,"timezone":"Europe/Oslo","type":"locality","translations":{"es":"Lervik","en":"Lervik"}},{"name":"Marker","state_code":"31","latitude":"59.47952000","longitude":"11.65917000","population":1722,"timezone":"Europe/Oslo","type":"adm2","translations":{"es":"Marcador","en":"Marker"}},{"name":"Moss","state_code":"31","latitude":"59.43436000","longitude":"10.65968000","population":52646,"timezone":"Europe/Oslo","type":"adm2","translations":{"es":"Musgo","en":"Moss"}},{"name":"Mysen","state_code":"31","latitude":"59.55354000","longitude":"11.32578000","population":5516,"timezone":"Europe/Oslo","type":"adm2","translations":{"es":"Mysen","en":"Mysen"}},{"name":"Ørje","state_code":"31","latitude":"59.48023000","longitude":"11.66016000","population":1859,"timezone":"Europe/Oslo","type":"adm2","translations":{"es":"Ørje","en":"Ørje"}},{"name":"Råde","state_code":"31","latitude":"59.35162000","longitude":"10.87135000","population":7850,"timezone":"Europe/Oslo","type":"adm2","translations":{"es":"Råde","en":"Råde"}},{"name":"Rakkestad","state_code":"31","latitude":"59.42822000","longitude":"11.34350000","population":8527,"timezone":"Europe/Oslo","type":"adm2","translations":{"es":"Rakkestad","en":"Rakkestad"}},{"name":"Rømskog","state_code":"31","latitude":"59.74968000","longitude":"11.81122000","population":null,"timezone":"Europe/Oslo","type":"city","translations":{"es":"Rømskog","en":"Rømskog"}},{"name":"Rygge","state_code":"31","latitude":"59.40629000","longitude":"10.69298000","population":null,"timezone":"Europe/Oslo","type":"city","translations":{"es":"Rygge","en":"Rygge"}},{"name":"Ryggebyen","state_code":"31","latitude":"59.37500000","longitude":"10.75000000","population":2416,"timezone":"Europe/Oslo","type":"city","translations":{"es":"Ryggebyen","en":"Ryggebyen"}},{"name":"Sarpsborg","state_code":"31","latitude":"59.28148000","longitude":"11.11167000","population":60139,"timezone":"Europe/Oslo","type":"adm1","translations":{"es":"Sarpsborg","en":"Sarpsborg"}},{"name":"Skiptvet","state_code":"31","latitude":"59.47751000","longitude":"11.16171000","population":3956,"timezone":"Europe/Oslo","type":"adm2","translations":{"es":"Skiptvet","en":"Skiptvet"}},{"name":"Skjærhalden","state_code":"31","latitude":"59.02526000","longitude":"11.03685000","population":642,"timezone":"Europe/Oslo","type":"adm2","translations":{"es":"Skjærhalden","en":"Skjærhalden"}},{"name":"Skjeberg","state_code":"31","latitude":"59.21148000","longitude":"11.19025000","population":1594,"timezone":"Europe/Oslo","type":"city","translations":{"es":"Skjeberg","en":"Skjeberg"}},{"name":"Spydeberg","state_code":"31","latitude":"59.62028000","longitude":"11.08069000","population":6694,"timezone":"Europe/Oslo","type":"adm2","translations":{"es":"Spydeberg","en":"Spydeberg"}},{"name":"Trøgstad","state_code":"31","latitude":"59.64016000","longitude":"11.31890000","population":null,"timezone":"Europe/Oslo","type":"adm2","translations":{"es":"Trøgstad","en":"Trøgstad"}},{"name":"Våler","state_code":"31","latitude":"59.48870000","longitude":"10.86551000","population":3559,"timezone":"Europe/Oslo","type":"adm2","translations":{"es":"Våler","en":"Våler"}},{"name":"Åkrehamn","state_code":"11","latitude":"59.26053000","longitude":"5.18689000","population":5018,"timezone":"Europe/Oslo","type":"city","translations":{"es":"Akrehamn","en":"Åkrehamn"}},{"name":"Bjerkreim","state_code":"11","latitude":"58.63050000","longitude":"6.08130000","population":2905,"timezone":"Europe/Oslo","type":"city","translations":{"es":"Bjerkreim","en":"Bjerkreim"}},{"name":"Bokn","state_code":"11","latitude":"59.23062000","longitude":"5.43524000","population":0,"timezone":"Europe/Oslo","type":"adm2","translations":{"es":"Libro","en":"Bokn"}},{"name":"Bryne","state_code":"11","latitude":"58.73536000","longitude":"5.64766000","population":13312,"timezone":"Europe/Oslo","type":"adm2","translations":{"es":"Bryne","en":"Bryne"}},{"name":"Egersund","state_code":"11","latitude":"58.45133000","longitude":"5.99970000","population":11788,"timezone":"Europe/Oslo","type":"adm2","translations":{"es":"Egersund","en":"Egersund"}},{"name":"Eigersund","state_code":"11","latitude":"58.45236000","longitude":"6.00314000","population":15375,"timezone":"Europe/Oslo","type":"adm2","translations":{"es":"Eigersund","en":"Eigersund"}},{"name":"Eike","state_code":"11","latitude":"59.39833000","longitude":"5.36389000","population":1408,"timezone":"Europe/Oslo","type":"city","translations":{"es":"Eike","en":"Eike"}},{"name":"Finnøy","state_code":"11","latitude":"59.17117000","longitude":"5.87398000","population":null,"timezone":"Europe/Oslo","type":"adm2","translations":{"es":"Finnøy","en":"Finnøy"}},{"name":"Forsand","state_code":"11","latitude":"58.89929000","longitude":"6.09642000","population":530,"timezone":"Europe/Oslo","type":"adm2","translations":{"es":"Forsand","en":"Forsand"}},{"name":"Gjesdal","state_code":"11","latitude":"58.76478000","longitude":"5.85500000","population":12536,"timezone":"Europe/Oslo","type":"locality","translations":{"es":"Gjesdal","en":"Gjesdal"}},{"name":"Hå","state_code":"11","latitude":"58.61610000","longitude":"5.64497000","population":20067,"timezone":"Europe/Oslo","type":"adm2","translations":{"es":"Ja","en":"Hå"}},{"name":"Hauge i Dalane","state_code":"11","latitude":"58.34361000","longitude":"6.28121000","population":2148,"timezone":"Europe/Oslo","type":"adm2","translations":{"es":"Hauge y Dalane","en":"Hauge i Dalane"}},{"name":"Haugesund","state_code":"11","latitude":"59.41015000","longitude":"5.27551000","population":38441,"timezone":"Europe/Oslo","type":"adm2","translations":{"es":"Haugesund","en":"Haugesund"}},{"name":"Hjelmeland","state_code":"11","latitude":"59.23668000","longitude":"6.17912000","population":2681,"timezone":"Europe/Oslo","type":"city","translations":{"es":"Hjelmeland","en":"Hjelmeland"}},{"name":"Hommersåk","state_code":"11","latitude":"58.92556000","longitude":"5.85104000","population":6764,"timezone":"Europe/Oslo","type":"locality","translations":{"es":"Hommersåk","en":"Hommersåk"}},{"name":"Jørpeland","state_code":"11","latitude":"59.02251000","longitude":"6.04078000","population":7714,"timezone":"Europe/Oslo","type":"adm2","translations":{"es":"Jørpeland","en":"Jørpeland"}},{"name":"Judaberg","state_code":"11","latitude":"59.17204000","longitude":"5.87617000","population":560,"timezone":"Europe/Oslo","type":"adm2","translations":{"es":"Judaberg","en":"Judaberg"}},{"name":"Karmøy","state_code":"11","latitude":"59.28079000","longitude":"5.30529000","population":11561,"timezone":"Europe/Oslo","type":"adm2","translations":{"es":"Karmøy","en":"Karmøy"}},{"name":"Klepp","state_code":"11","latitude":"58.77655000","longitude":"5.63009000","population":0,"timezone":"Europe/Oslo","type":"adm2","translations":{"es":"Klepp","en":"Klepp"}},{"name":"Kopervik","state_code":"11","latitude":"59.28354000","longitude":"5.30669000","population":11860,"timezone":"Europe/Oslo","type":"adm2","translations":{"es":"Kopervik","en":"Kopervik"}},{"name":"Kvitsøy","state_code":"11","latitude":"59.06471000","longitude":"5.40537000","population":570,"timezone":"Europe/Oslo","type":"adm2","translations":{"es":"Kvitsøy","en":"Kvitsøy"}},{"name":"Lund","state_code":"11","latitude":"58.45715000","longitude":"6.54871000","population":3259,"timezone":"Europe/Oslo","type":"adm2","translations":{"es":"Lund","en":"Lund"}},{"name":"Lyefjell","state_code":"11","latitude":"58.73539000","longitude":"5.73615000","population":2200,"timezone":"Europe/Oslo","type":"city","translations":{"es":"Lyefjell","en":"Lyefjell"}},{"name":"Moi","state_code":"11","latitude":"58.45674000","longitude":"6.55184000","population":2008,"timezone":"Europe/Oslo","type":"adm2","translations":{"es":"Yo","en":"Moi"}},{"name":"Nærbø","state_code":"11","latitude":"58.66546000","longitude":"5.63788000","population":7632,"timezone":"Europe/Oslo","type":"city","translations":{"es":"Cerca de","en":"Nærbø"}},{"name":"Ølen","state_code":"11","latitude":"59.60437000","longitude":"5.80799000","population":891,"timezone":"Europe/Oslo","type":"adm2","translations":{"es":"Ølen","en":"Ølen"}},{"name":"Randaberg","state_code":"11","latitude":"58.99870000","longitude":"5.62055000","population":11795,"timezone":"Europe/Oslo","type":"adm2","translations":{"es":"Randaberg","en":"Randaberg"}},{"name":"Rennesøy","state_code":"11","latitude":"59.09899000","longitude":"5.69966000","population":null,"timezone":"Europe/Oslo","type":"city","translations":{"es":"Rennesøy","en":"Rennesøy"}},{"name":"Sandnes","state_code":"11","latitude":"58.84760000","longitude":"5.72855000","population":373,"timezone":"Europe/Oslo","type":"adm2","translations":{"es":"Sandnes","en":"Sandnes"}},{"name":"Sauda","state_code":"11","latitude":"59.65067000","longitude":"6.35312000","population":4600,"timezone":"Europe/Oslo","type":"adm2","translations":{"es":"Sauda","en":"Sauda"}},{"name":"Sæveland","state_code":"11","latitude":"59.26667000","longitude":"5.20000000","population":7873,"timezone":"Europe/Oslo","type":"city","translations":{"es":"Sæveland","en":"Sæveland"}},{"name":"Skudeneshavn","state_code":"11","latitude":"59.14856000","longitude":"5.25687000","population":3348,"timezone":"Europe/Oslo","type":"city","translations":{"es":"Skudeneshavn","en":"Skudeneshavn"}},{"name":"Sokndal","state_code":"11","latitude":"58.34256000","longitude":"6.29425000","population":3371,"timezone":"Europe/Oslo","type":"city","translations":{"es":"Sokndal","en":"Sokndal"}},{"name":"Sola","state_code":"11","latitude":"58.88806000","longitude":"5.64728000","population":29153,"timezone":"Europe/Oslo","type":"adm2","translations":{"es":"Sola","en":"Sola"}},{"name":"Stavanger","state_code":"11","latitude":"58.96941000","longitude":"5.72856000","population":150123,"timezone":"Europe/Oslo","type":"adm1","translations":{"es":"Stavanger","en":"Stavanger"}},{"name":"Strand","state_code":"11","latitude":"59.02353000","longitude":"6.04343000","population":785,"timezone":"Europe/Oslo","type":"city","translations":{"es":"Hebra","en":"Strand"}},{"name":"Suldal","state_code":"11","latitude":"59.48571000","longitude":"6.25222000","population":0,"timezone":"Europe/Oslo","type":"adm2","translations":{"es":"Suldal","en":"Suldal"}},{"name":"Tananger","state_code":"11","latitude":"58.93618000","longitude":"5.57410000","population":6377,"timezone":"Europe/Oslo","type":"city","translations":{"es":"Tangara","en":"Tananger"}},{"name":"Tau","state_code":"11","latitude":"59.06481000","longitude":"5.92250000","population":3512,"timezone":"Europe/Oslo","type":"city","translations":{"es":"Tau","en":"Tau"}},{"name":"Time","state_code":"11","latitude":"58.73636000","longitude":"5.65297000","population":20157,"timezone":"Europe/Oslo","type":"adm2","translations":{"es":"Tiempo","en":"Time"}},{"name":"Tysvær","state_code":"11","latitude":"59.42159000","longitude":"5.44781000","population":11715,"timezone":"Europe/Oslo","type":"adm2","translations":{"es":"Tysvær","en":"Tysvær"}},{"name":"Utsira","state_code":"11","latitude":"59.30565000","longitude":"4.88621000","population":217,"timezone":"Europe/Oslo","type":"adm2","translations":{"es":"Utsira","en":"Utsira"}},{"name":"Varhaug","state_code":"11","latitude":"58.61810000","longitude":"5.65702000","population":3387,"timezone":"Europe/Oslo","type":"adm2","translations":{"es":"Varhaug","en":"Varhaug"}},{"name":"Vedavågen","state_code":"11","latitude":"59.29483000","longitude":"5.21874000","population":2728,"timezone":"Europe/Oslo","type":"city","translations":{"es":"Vedavågen","en":"Vedavågen"}},{"name":"Vigrestad","state_code":"11","latitude":"58.57103000","longitude":"5.68182000","population":2149,"timezone":"Europe/Oslo","type":"city","translations":{"es":"Vigrestad","en":"Vigrestad"}},{"name":"Vikeså","state_code":"11","latitude":"58.63759000","longitude":"6.09133000","population":1040,"timezone":"Europe/Oslo","type":"adm2","translations":{"es":"Vikeså","en":"Vikeså"}},{"name":"Vikevåg","state_code":"11","latitude":"59.09754000","longitude":"5.69790000","population":529,"timezone":"Europe/Oslo","type":"city","translations":{"es":"Vikevåg","en":"Vikevåg"}},{"name":"Vindafjord","state_code":"11","latitude":"59.60543000","longitude":"5.80784000","population":891,"timezone":"Europe/Oslo","type":"adm2","translations":{"es":"Fiordo de Vinda","en":"Vindafjord"}},{"name":"Vormedal","state_code":"11","latitude":"59.35607000","longitude":"5.31962000","population":2774,"timezone":"Europe/Oslo","type":"city","translations":{"es":"Vormedal","en":"Vormedal"}},{"name":"Bamble","state_code":"40","latitude":"59.00146000","longitude":"9.74573000","population":14310,"timezone":"Europe/Oslo","type":"city","translations":{"es":"Bamble","en":"Bamble"}},{"name":"Bø","state_code":"40","latitude":"59.41281000","longitude":"9.06618000","population":0,"timezone":"Europe/Oslo","type":"adm2","translations":{"es":"Bø","en":"Bø"}},{"name":"Dalen","state_code":"40","latitude":"59.44499000","longitude":"8.00492000","population":560,"timezone":"Europe/Oslo","type":"adm2","translations":{"es":"Dalen","en":"Dalen"}},{"name":"Drangedal","state_code":"40","latitude":"59.09655000","longitude":"9.05960000","population":4067,"timezone":"Europe/Oslo","type":"adm2","translations":{"es":"Drangedal","en":"Drangedal"}},{"name":"Fyresdal","state_code":"40","latitude":"59.18651000","longitude":"8.08953000","population":1256,"timezone":"Europe/Oslo","type":"adm2","translations":{"es":"Fyresdal","en":"Fyresdal"}},{"name":"Gvarv","state_code":"40","latitude":"59.38767000","longitude":"9.17240000","population":871,"timezone":"Europe/Oslo","type":"adm2","translations":{"es":"Gvarv","en":"Gvarv"}},{"name":"Herre","state_code":"40","latitude":"59.10351000","longitude":"9.56195000","population":1255,"timezone":"Europe/Oslo","type":"city","translations":{"es":"Aquí","en":"Herre"}},{"name":"Hjartdal","state_code":"40","latitude":"59.61276000","longitude":"8.94942000","population":1646,"timezone":"Europe/Oslo","type":"city","translations":{"es":"Hjartdal","en":"Hjartdal"}},{"name":"Kragerø","state_code":"40","latitude":"58.86792000","longitude":"9.41099000","population":10446,"timezone":"Europe/Oslo","type":"adm2","translations":{"es":"Kragerø","en":"Kragerø"}},{"name":"Kviteseid","state_code":"40","latitude":"59.40194000","longitude":"8.49459000","population":2473,"timezone":"Europe/Oslo","type":"adm2","translations":{"es":"Kviteseid","en":"Kviteseid"}},{"name":"Lunde","state_code":"40","latitude":"59.29832000","longitude":"9.10268000","population":1566,"timezone":"Europe/Oslo","type":"city","translations":{"es":"Lunde","en":"Lunde"}},{"name":"Nissedal","state_code":"40","latitude":"59.01958000","longitude":"8.52127000","population":1486,"timezone":"Europe/Oslo","type":"city","translations":{"es":"Nissedal","en":"Nissedal"}},{"name":"Nome","state_code":"40","latitude":"59.28136000","longitude":"9.25678000","population":6558,"timezone":"Europe/Oslo","type":"adm2","translations":{"es":"Nombre","en":"Nome"}},{"name":"Notodden","state_code":"40","latitude":"59.55992000","longitude":"9.26046000","population":13333,"timezone":"Europe/Oslo","type":"adm2","translations":{"es":"Notodden","en":"Notodden"}},{"name":"Porsgrunn","state_code":"40","latitude":"59.14190000","longitude":"9.65680000","population":37289,"timezone":"Europe/Oslo","type":"adm2","translations":{"es":"Porsgrunn","en":"Porsgrunn"}},{"name":"Prestestranda","state_code":"40","latitude":"59.09773000","longitude":"9.05866000","population":1354,"timezone":"Europe/Oslo","type":"adm2","translations":{"es":"Prestestranda","en":"Prestestranda"}},{"name":"Re","state_code":"40","latitude":"59.35056000","longitude":"10.24763000","population":null,"timezone":"Europe/Oslo","type":"city","translations":{"es":"Re","en":"Re"}},{"name":"Rjukan","state_code":"40","latitude":"59.87891000","longitude":"8.59411000","population":3005,"timezone":"Europe/Oslo","type":"adm2","translations":{"es":"Rjukan","en":"Rjukan"}},{"name":"Sande","state_code":"40","latitude":"59.59362000","longitude":"10.20757000","population":1389,"timezone":"Europe/Oslo","type":"city","translations":{"es":"Sande","en":"Sande"}},{"name":"Sauherad","state_code":"40","latitude":"59.39642000","longitude":"9.24910000","population":null,"timezone":"Europe/Oslo","type":"city","translations":{"es":"Sauherad","en":"Sauherad"}},{"name":"Seljord","state_code":"40","latitude":"59.48274000","longitude":"8.62672000","population":2981,"timezone":"Europe/Oslo","type":"adm2","translations":{"es":"Seljord","en":"Seljord"}},{"name":"Siljan","state_code":"40","latitude":"59.28251000","longitude":"9.73368000","population":2389,"timezone":"Europe/Oslo","type":"adm2","translations":{"es":"Siljan","en":"Siljan"}},{"name":"Skien","state_code":"40","latitude":"59.20748000","longitude":"9.61052000","population":56866,"timezone":"Europe/Oslo","type":"adm1","translations":{"es":"Skien","en":"Skien"}},{"name":"Tinn","state_code":"40","latitude":"59.83486000","longitude":"9.13528000","population":5529,"timezone":"Europe/Oslo","type":"city","translations":{"es":"Estaño","en":"Tinn"}},{"name":"Tokke","state_code":"40","latitude":"59.44569000","longitude":"8.01388000","population":2238,"timezone":"Europe/Oslo","type":"adm2","translations":{"es":"Tokke","en":"Tokke"}},{"name":"Ulefoss","state_code":"40","latitude":"59.28245000","longitude":"9.26548000","population":2488,"timezone":"Europe/Oslo","type":"adm2","translations":{"es":"Ulefoss","en":"Ulefoss"}},{"name":"Vinje","state_code":"40","latitude":"59.56924000","longitude":"7.98896000","population":0,"timezone":"Europe/Oslo","type":"adm2","translations":{"es":"Vinje","en":"Vinje"}},{"name":"Balsfjord","state_code":"55","latitude":"69.24024000","longitude":"19.22653000","population":5595,"timezone":"Europe/Oslo","type":"city","translations":{"es":"Balsfjord","en":"Balsfjord"}},{"name":"Bardu","state_code":"55","latitude":"68.86058000","longitude":"18.35052000","population":3961,"timezone":"Europe/Oslo","type":"city","translations":{"es":"Bardu","en":"Bardu"}},{"name":"Dyrøy","state_code":"55","latitude":"69.09154000","longitude":"17.69094000","population":1069,"timezone":"Europe/Oslo","type":"adm2","translations":{"es":"Dyrøy","en":"Dyrøy"}},{"name":"Gratangen","state_code":"55","latitude":"68.69273000","longitude":"17.53186000","population":1062,"timezone":"Europe/Oslo","type":"city","translations":{"es":"Gratangen","en":"Gratangen"}},{"name":"Harstad","state_code":"55","latitude":"68.79896000","longitude":"16.52930000","population":25167,"timezone":"Europe/Oslo","type":"adm2","translations":{"es":"Harstad","en":"Harstad"}},{"name":"Ibestad","state_code":"55","latitude":"68.77866000","longitude":"17.17661000","population":1301,"timezone":"Europe/Oslo","type":"city","translations":{"es":"Ibestad","en":"Ibestad"}},{"name":"Karlsøy","state_code":"55","latitude":"69.96185000","longitude":"19.61811000","population":0,"timezone":"Europe/Oslo","type":"city","translations":{"es":"Karlsøy","en":"Karlsøy"}},{"name":"Kvæfjord","state_code":"55","latitude":"68.77201000","longitude":"16.17294000","population":2852,"timezone":"Europe/Oslo","type":"city","translations":{"es":"Fiordo de Kvæfjord","en":"Kvæfjord"}},{"name":"Kvænangen","state_code":"55","latitude":"69.93890000","longitude":"22.04935000","population":1131,"timezone":"Europe/Oslo","type":"adm2","translations":{"es":"Kvænangen","en":"Kvænangen"}},{"name":"Lavangen","state_code":"55","latitude":"68.74722000","longitude":"17.80558000","population":0,"timezone":"Europe/Oslo","type":"adm2","translations":{"es":"Lavangen","en":"Lavangen"}},{"name":"Lyngen","state_code":"55","latitude":"69.57621000","longitude":"20.21702000","population":2734,"timezone":"Europe/Oslo","type":"city","translations":{"es":"Lyngen","en":"Lyngen"}},{"name":"Målselv","state_code":"55","latitude":"69.12389000","longitude":"18.61498000","population":6794,"timezone":"Europe/Oslo","type":"city","translations":{"es":"Målselv","en":"Målselv"}},{"name":"Nordreisa","state_code":"55","latitude":"69.76825000","longitude":"21.02569000","population":4810,"timezone":"Europe/Oslo","type":"city","translations":{"es":"Nordreisa","en":"Nordreisa"}},{"name":"Salangen","state_code":"55","latitude":"68.87669000","longitude":"17.83375000","population":2116,"timezone":"Europe/Oslo","type":"city","translations":{"es":"Salangen","en":"Salangen"}},{"name":"Skjervøy","state_code":"55","latitude":"70.03379000","longitude":"20.97365000","population":2784,"timezone":"Europe/Oslo","type":"adm2","translations":{"es":"Skjervøy","en":"Skjervøy"}},{"name":"Sørreisa","state_code":"55","latitude":"69.14697000","longitude":"18.15629000","population":3533,"timezone":"Europe/Oslo","type":"adm2","translations":{"es":"Sorpresa","en":"Sørreisa"}},{"name":"Storfjord","state_code":"55","latitude":"69.26860000","longitude":"19.96089000","population":1829,"timezone":"Europe/Oslo","type":"city","translations":{"es":"Fiordo de Storfjord","en":"Storfjord"}},{"name":"Tromsø","state_code":"55","latitude":"69.64961000","longitude":"18.95702000","population":79421,"timezone":"Europe/Oslo","type":"adm1","translations":{"es":"Tromsø","en":"Tromsø"}},{"name":"Å i Åfjord","state_code":"50","latitude":"63.96068000","longitude":"10.22468000","population":1145,"timezone":"Europe/Oslo","type":"city","translations":{"es":"Å i Åfjord","en":"Å i Åfjord"}},{"name":"Åfjord","state_code":"50","latitude":"63.96196000","longitude":"10.22587000","population":1145,"timezone":"Europe/Oslo","type":"city","translations":{"es":"Fiordo","en":"Åfjord"}},{"name":"Agdenes","state_code":"50","latitude":"63.50575000","longitude":"9.82623000","population":null,"timezone":"Europe/Oslo","type":"city","translations":{"es":"Agdenes","en":"Agdenes"}},{"name":"Berkåk","state_code":"50","latitude":"62.82496000","longitude":"10.01177000","population":1003,"timezone":"Europe/Oslo","type":"adm2","translations":{"es":"Berkåk","en":"Berkåk"}},{"name":"Bjugn","state_code":"50","latitude":"63.76522000","longitude":"9.80940000","population":1379,"timezone":"Europe/Oslo","type":"adm2","translations":{"es":"Bjugn","en":"Bjugn"}},{"name":"Botngård","state_code":"50","latitude":"63.76484000","longitude":"9.80863000","population":1144,"timezone":"Europe/Oslo","type":"adm2","translations":{"es":"Botngård","en":"Botngård"}},{"name":"Brekstad","state_code":"50","latitude":"63.68697000","longitude":"9.66541000","population":1835,"timezone":"Europe/Oslo","type":"city","translations":{"es":"Brekstad","en":"Brekstad"}},{"name":"Fillan","state_code":"50","latitude":"63.60638000","longitude":"8.96961000","population":510,"timezone":"Europe/Oslo","type":"adm2","translations":{"es":"Fillan","en":"Fillan"}},{"name":"Flatanger","state_code":"50","latitude":"64.41282000","longitude":"11.03285000","population":1121,"timezone":"Europe/Oslo","type":"city","translations":{"es":"Flatanger","en":"Flatanger"}},{"name":"Fosnes","state_code":"50","latitude":"64.65910000","longitude":"11.26535000","population":null,"timezone":"Europe/Oslo","type":"city","translations":{"es":"Fosnes","en":"Fosnes"}},{"name":"Frosta","state_code":"50","latitude":"63.58910000","longitude":"10.74230000","population":2661,"timezone":"Europe/Oslo","type":"adm2","translations":{"es":"Escarcha","en":"Frosta"}},{"name":"Frøya","state_code":"50","latitude":"63.73005000","longitude":"8.82426000","population":5655,"timezone":"Europe/Oslo","type":"city","translations":{"es":"Frøya","en":"Frøya"}},{"name":"Grong","state_code":"50","latitude":"64.46397000","longitude":"12.31114000","population":2314,"timezone":"Europe/Oslo","type":"adm2","translations":{"es":"Grong","en":"Grong"}},{"name":"Hemne","state_code":"50","latitude":"63.29095000","longitude":"9.08893000","population":null,"timezone":"Europe/Oslo","type":"city","translations":{"es":"Hemne","en":"Hemne"}},{"name":"Hitra","state_code":"50","latitude":"63.54528000","longitude":"8.78029000","population":5414,"timezone":"Europe/Oslo","type":"city","translations":{"es":"Hitra","en":"Hitra"}},{"name":"Holtålen","state_code":"50","latitude":"62.84318000","longitude":"11.29284000","population":2048,"timezone":"Europe/Oslo","type":"adm2","translations":{"es":"Holtålen","en":"Holtålen"}},{"name":"Hommelvik","state_code":"50","latitude":"63.41083000","longitude":"10.79424000","population":5925,"timezone":"Europe/Oslo","type":"adm2","translations":{"es":"Hommelvik","en":"Hommelvik"}},{"name":"Høylandet","state_code":"50","latitude":"64.62759000","longitude":"12.30041000","population":1235,"timezone":"Europe/Oslo","type":"adm2","translations":{"es":"Hoylandet","en":"Høylandet"}},{"name":"Inderøy","state_code":"50","latitude":"63.87826000","longitude":"11.28424000","population":7031,"timezone":"Europe/Oslo","type":"city","translations":{"es":"Inderøy","en":"Inderøy"}},{"name":"Indre Fosen","state_code":"50","latitude":"63.58897000","longitude":"9.95847000","population":10042,"timezone":"Europe/Oslo","type":"city","translations":{"es":"Indre Fosen","en":"Indre Fosen"}},{"name":"Klæbu","state_code":"50","latitude":"63.30060000","longitude":"10.48188000","population":0,"timezone":"Europe/Oslo","type":"adm2","translations":{"es":"Klæbu","en":"Klæbu"}},{"name":"Kolvereid","state_code":"50","latitude":"64.86549000","longitude":"11.60465000","population":1791,"timezone":"Europe/Oslo","type":"city","translations":{"es":"Kolvereid","en":"Kolvereid"}},{"name":"Kyrksæterøra","state_code":"50","latitude":"63.29057000","longitude":"9.08909000","population":2598,"timezone":"Europe/Oslo","type":"adm2","translations":{"es":"Kyrksæterøra","en":"Kyrksæterøra"}},{"name":"Lauvsnes","state_code":"50","latitude":"64.50061000","longitude":"10.89396000","population":530,"timezone":"Europe/Oslo","type":"adm2","translations":{"es":"Lauvsnes","en":"Lauvsnes"}},{"name":"Leka","state_code":"50","latitude":"65.09244000","longitude":"11.70513000","population":593,"timezone":"Europe/Oslo","type":"city","translations":{"es":"Leka","en":"Leka"}},{"name":"Levanger","state_code":"50","latitude":"63.74585000","longitude":"11.29991000","population":20732,"timezone":"Europe/Oslo","type":"adm2","translations":{"es":"Levanger","en":"Levanger"}},{"name":"Lierne","state_code":"50","latitude":"64.46413000","longitude":"13.59249000","population":1316,"timezone":"Europe/Oslo","type":"city","translations":{"es":"Lierne","en":"Lierne"}},{"name":"Lundamo","state_code":"50","latitude":"63.15216000","longitude":"10.28555000","population":1159,"timezone":"Europe/Oslo","type":"city","translations":{"es":"Lundamo","en":"Lundamo"}},{"name":"Malm","state_code":"50","latitude":"64.07534000","longitude":"11.22398000","population":1163,"timezone":"Europe/Oslo","type":"adm2","translations":{"es":"Malm","en":"Malm"}},{"name":"Malvik","state_code":"50","latitude":"63.41057000","longitude":"10.79382000","population":5418,"timezone":"Europe/Oslo","type":"adm2","translations":{"es":"Malvik","en":"Malvik"}},{"name":"Meldal","state_code":"50","latitude":"63.04598000","longitude":"9.71088000","population":628,"timezone":"Europe/Oslo","type":"city","translations":{"es":"Meldal","en":"Meldal"}},{"name":"Melhus","state_code":"50","latitude":"63.28755000","longitude":"10.27686000","population":6393,"timezone":"Europe/Oslo","type":"adm2","translations":{"es":"Melhus","en":"Melhus"}},{"name":"Meråker","state_code":"50","latitude":"63.41423000","longitude":"11.74558000","population":2472,"timezone":"Europe/Oslo","type":"adm2","translations":{"es":"Meråker","en":"Meråker"}},{"name":"Midtre Gauldal","state_code":"50","latitude":"63.03902000","longitude":"10.28701000","population":6141,"timezone":"Europe/Oslo","type":"city","translations":{"es":"Midtre Gauldal","en":"Midtre Gauldal"}},{"name":"Namdalseid","state_code":"50","latitude":"64.10843000","longitude":"10.91862000","population":331,"timezone":"Europe/Oslo","type":"city","translations":{"es":"Namdalseid","en":"Namdalseid"}},{"name":"Namsos","state_code":"50","latitude":"64.47842000","longitude":"11.54182000","population":15154,"timezone":"Europe/Oslo","type":"city","translations":{"es":"Namsos","en":"Namsos"}},{"name":"Namsskogan","state_code":"50","latitude":"64.92597000","longitude":"13.15932000","population":0,"timezone":"Europe/Oslo","type":"adm2","translations":{"es":"Namsskogan","en":"Namsskogan"}},{"name":"Nærøy","state_code":"50","latitude":"64.86298000","longitude":"11.60505000","population":1467,"timezone":"Europe/Oslo","type":"city","translations":{"es":"Nærøy","en":"Nærøy"}},{"name":"Oppdal","state_code":"50","latitude":"62.59495000","longitude":"9.68761000","population":7408,"timezone":"Europe/Oslo","type":"adm2","translations":{"es":"Oppdal","en":"Oppdal"}},