[{"name":"Auckland","state_code":"AUK","latitude":"-36.84853000","longitude":"174.76349000","population":1530500,"timezone":"Pacific/Auckland","type":"adm1","translations":{"es":"Auckland","en":"Auckland"}},{"name":"Mangere","state_code":"AUK","latitude":"-36.96807000","longitude":"174.79875000","population":23790,"timezone":"Pacific/Auckland","type":"city","translations":{"es":"Mangere","en":"Mangere"}},{"name":"Manukau City","state_code":"AUK","latitude":"-36.99282000","longitude":"174.87986000","population":362000,"timezone":"Pacific/Auckland","type":"city","translations":{"es":"Ciudad de Manukau","en":"Manukau City"}},{"name":"Muriwai Beach","state_code":"AUK","latitude":"-36.81667000","longitude":"174.45000000","population":null,"timezone":"Pacific/Auckland","type":"city","translations":{"es":"Playa Muriwai","en":"Muriwai Beach"}},{"name":"Murrays Bay","state_code":"AUK","latitude":"-36.72819000","longitude":"174.75019000","population":5000,"timezone":"Pacific/Auckland","type":"section","translations":{"es":"Bahía de Murrays","en":"Murrays Bay"}},{"name":"North Shore","state_code":"AUK","latitude":"-36.80000000","longitude":"174.75000000","population":258697,"timezone":"Pacific/Auckland","type":"section","translations":{"es":"Costa Norte","en":"North Shore"}},{"name":"Pakuranga","state_code":"AUK","latitude":"-36.88333000","longitude":"174.91667000","population":10040,"timezone":"Pacific/Auckland","type":"city","translations":{"es":"Pakuranga","en":"Pakuranga"}},{"name":"Papakura","state_code":"AUK","latitude":"-37.06573000","longitude":"174.94393000","population":35580,"timezone":"Pacific/Auckland","type":"city","translations":{"es":"Papakura","en":"Papakura"}},{"name":"Parakai","state_code":"AUK","latitude":"-36.65000000","longitude":"174.43333000","population":1150,"timezone":"Pacific/Auckland","type":"city","translations":{"es":"Parakai","en":"Parakai"}},{"name":"Pukekohe East","state_code":"AUK","latitude":"-37.20000000","longitude":"174.95000000","population":21438,"timezone":"Pacific/Auckland","type":"city","translations":{"es":"Pukekohe Este","en":"Pukekohe East"}},{"name":"Red Hill","state_code":"AUK","latitude":"-37.05820000","longitude":"174.97019000","population":2556,"timezone":"Pacific/Auckland","type":"section","translations":{"es":"Colina roja","en":"Red Hill"}},{"name":"Rosebank","state_code":"AUK","latitude":"-36.87495000","longitude":"174.66991000","population":4551,"timezone":"Pacific/Auckland","type":"section","translations":{"es":"Banco de rosas","en":"Rosebank"}},{"name":"Rothesay Bay","state_code":"AUK","latitude":"-36.72602000","longitude":"174.74064000","population":3060,"timezone":"Pacific/Auckland","type":"section","translations":{"es":"Bahía de Rothesay","en":"Rothesay Bay"}},{"name":"Takanini","state_code":"AUK","latitude":"-37.04820000","longitude":"174.90019000","population":17060,"timezone":"Pacific/Auckland","type":"city","translations":{"es":"Takanini","en":"Takanini"}},{"name":"Tamaki","state_code":"AUK","latitude":"-36.88820000","longitude":"174.86019000","population":5160,"timezone":"Pacific/Auckland","type":"section","translations":{"es":"Tamaki","en":"Tamaki"}},{"name":"Titirangi","state_code":"AUK","latitude":"-36.93754000","longitude":"174.65584000","population":15490,"timezone":"Pacific/Auckland","type":"section","translations":{"es":"Titirangi","en":"Titirangi"}},{"name":"Waitakere","state_code":"AUK","latitude":"-36.91754000","longitude":"174.65773000","population":null,"timezone":"Pacific/Auckland","type":"city","translations":{"es":"Waitakere","en":"Waitakere"}},{"name":"Waiuku","state_code":"AUK","latitude":"-37.24806000","longitude":"174.73489000","population":9650,"timezone":"Pacific/Auckland","type":"city","translations":{"es":"Waiuku","en":"Waiuku"}},{"name":"Warkworth","state_code":"AUK","latitude":"-36.40000000","longitude":"174.66667000","population":6220,"timezone":"Pacific/Auckland","type":"city","translations":{"es":"Warkworth","en":"Warkworth"}},{"name":"Wellsford","state_code":"AUK","latitude":"-36.28333000","longitude":"174.51667000","population":2140,"timezone":"Pacific/Auckland","type":"city","translations":{"es":"Wellsford","en":"Wellsford"}},{"name":"Wiri","state_code":"AUK","latitude":"-36.99820000","longitude":"174.86019000","population":6760,"timezone":"Pacific/Auckland","type":"section","translations":{"es":"Wiri","en":"Wiri"}},{"name":"Edgecumbe","state_code":"BOP","latitude":"-37.98333000","longitude":"176.83333000","population":1790,"timezone":"Pacific/Auckland","type":"city","translations":{"es":"Edgecumbe","en":"Edgecumbe"}},{"name":"Katikati","state_code":"BOP","latitude":"-37.55000000","longitude":"175.91667000","population":5420,"timezone":"Pacific/Auckland","type":"city","translations":{"es":"Katikati","en":"Katikati"}},{"name":"Kawerau","state_code":"BOP","latitude":"-38.10000000","longitude":"176.70000000","population":7750,"timezone":"Pacific/Auckland","type":"city","translations":{"es":"Kawerau","en":"Kawerau"}},{"name":"Maketu","state_code":"BOP","latitude":"-37.76667000","longitude":"176.45000000","population":1330,"timezone":"Pacific/Auckland","type":"city","translations":{"es":"Maketu","en":"Maketu"}},{"name":"Murupara","state_code":"BOP","latitude":"-38.46667000","longitude":"176.70000000","population":1970,"timezone":"Pacific/Auckland","type":"city","translations":{"es":"Murupara","en":"Murupara"}},{"name":"Opotiki","state_code":"BOP","latitude":"-38.00915000","longitude":"177.28706000","population":5210,"timezone":"Pacific/Auckland","type":"adm2","translations":{"es":"Opotiki","en":"Opotiki"}},{"name":"Rotorua","state_code":"BOP","latitude":"-38.13874000","longitude":"176.24516000","population":58500,"timezone":"Pacific/Auckland","type":"adm2","translations":{"es":"Rotorua","en":"Rotorua"}},{"name":"Tauranga","state_code":"BOP","latitude":"-37.68611000","longitude":"176.16667000","population":151300,"timezone":"Pacific/Auckland","type":"adm2","translations":{"es":"Tauranga","en":"Tauranga"}},{"name":"Waihi Beach","state_code":"BOP","latitude":"-37.40000000","longitude":"175.93333000","population":2720,"timezone":"Pacific/Auckland","type":"city","translations":{"es":"Playa Waihi","en":"Waihi Beach"}},{"name":"Whakatane","state_code":"BOP","latitude":"-37.95855000","longitude":"176.98545000","population":16850,"timezone":"Pacific/Auckland","type":"adm1","translations":{"es":"Whakatane","en":"Whakatane"}},{"name":"Amberley","state_code":"CAN","latitude":"-43.15589000","longitude":"172.72975000","population":2270,"timezone":"Pacific/Auckland","type":"city","translations":{"es":"Amberley","en":"Amberley"}},{"name":"Ashburton","state_code":"CAN","latitude":"-43.89834000","longitude":"171.73011000","population":20200,"timezone":"Pacific/Auckland","type":"city","translations":{"es":"Ashburton","en":"Ashburton"}},{"name":"Ashburton District","state_code":"CAN","latitude":"-43.90000000","longitude":"171.75000000","population":2910,"timezone":"Pacific/Auckland","type":"district","translations":{"es":"Distrito de Ashburton","en":"Ashburton District"}},{"name":"Burnham","state_code":"CAN","latitude":"-43.61667000","longitude":"172.31667000","population":1290,"timezone":"Pacific/Auckland","type":"city","translations":{"es":"Burnham","en":"Burnham"}},{"name":"Christchurch","state_code":"CAN","latitude":"-43.53333000","longitude":"172.63333000","population":383200,"timezone":"Pacific/Auckland","type":"adm1","translations":{"es":"Christchurch","en":"Christchurch"}},{"name":"Darfield","state_code":"CAN","latitude":"-43.48333000","longitude":"172.11667000","population":2960,"timezone":"Pacific/Auckland","type":"city","translations":{"es":"Darfield","en":"Darfield"}},{"name":"Geraldine","state_code":"CAN","latitude":"-44.09061000","longitude":"171.24458000","population":2800,"timezone":"Pacific/Auckland","type":"city","translations":{"es":"Geraldine","en":"Geraldine"}},{"name":"Kaiapoi","state_code":"CAN","latitude":"-43.37832000","longitude":"172.64013000","population":12850,"timezone":"Pacific/Auckland","type":"city","translations":{"es":"Kaiapoi","en":"Kaiapoi"}},{"name":"Leeston","state_code":"CAN","latitude":"-43.76667000","longitude":"172.30000000","population":2370,"timezone":"Pacific/Auckland","type":"city","translations":{"es":"Leeston","en":"Leeston"}},{"name":"Lincoln","state_code":"CAN","latitude":"-43.65000000","longitude":"172.48333000","population":8130,"timezone":"Pacific/Auckland","type":"city","translations":{"es":"Lincoln","en":"Lincoln"}},{"name":"Mackenzie","state_code":"CAN","latitude":"-43.93987000","longitude":"170.51913000","population":4670,"timezone":"Pacific/Auckland","type":"district","translations":{"es":"Distrito de Mackenzie","en":"Mackenzie"}},{"name":"Methven","state_code":"CAN","latitude":"-43.63333000","longitude":"171.65000000","population":1900,"timezone":"Pacific/Auckland","type":"city","translations":{"es":"Methven","en":"Methven"}},{"name":"Oxford","state_code":"CAN","latitude":"-43.30000000","longitude":"172.18333000","population":2370,"timezone":"Pacific/Auckland","type":"city","translations":{"es":"Oxford","en":"Oxford"}},{"name":"Pleasant Point","state_code":"CAN","latitude":"-44.26667000","longitude":"171.13333000","population":1460,"timezone":"Pacific/Auckland","type":"city","translations":{"es":"Punto agradable","en":"Pleasant Point"}},{"name":"Prebbleton","state_code":"CAN","latitude":"-43.58333000","longitude":"172.51667000","population":4970,"timezone":"Pacific/Auckland","type":"city","translations":{"es":"Prebbleton","en":"Prebbleton"}},{"name":"Rakaia","state_code":"CAN","latitude":"-43.75000000","longitude":"172.01667000","population":1510,"timezone":"Pacific/Auckland","type":"city","translations":{"es":"Rakaia","en":"Rakaia"}},{"name":"Rolleston","state_code":"CAN","latitude":"-43.58333000","longitude":"172.38333000","population":33200,"timezone":"Pacific/Auckland","type":"city","translations":{"es":"Rolleston","en":"Rolleston"}},{"name":"Selwyn","state_code":"CAN","latitude":"-43.32226000","longitude":"171.87064000","population":62200,"timezone":"Pacific/Auckland","type":"district","translations":{"es":"Distrito de Selwyn","en":"Selwyn"}},{"name":"Timaru","state_code":"CAN","latitude":"-44.39672000","longitude":"171.25364000","population":28700,"timezone":"Pacific/Auckland","type":"city","translations":{"es":"Timarú","en":"Timaru"}},{"name":"Timaru District","state_code":"CAN","latitude":"-44.40000000","longitude":"171.21667000","population":47300,"timezone":"Pacific/Auckland","type":"district","translations":{"es":"Distrito de Timaru","en":"Timaru District"}},{"name":"Tinwald","state_code":"CAN","latitude":"-43.91667000","longitude":"171.71667000","population":4010,"timezone":"Pacific/Auckland","type":"city","translations":{"es":"Tinwald","en":"Tinwald"}},{"name":"Waimakariri","state_code":"CAN","latitude":"-43.20750000","longitude":"172.33286000","population":59502,"timezone":"Pacific/Auckland","type":"district","translations":{"es":"Distrito de Waimakariri","en":"Waimakariri"}},{"name":"Woodend","state_code":"CAN","latitude":"-43.31667000","longitude":"172.66667000","population":5430,"timezone":"Pacific/Auckland","type":"city","translations":{"es":"Madera","en":"Woodend"}},{"name":"Waitangi","state_code":"CIT","latitude":"-43.95353000","longitude":"-176.55973000","population":140,"timezone":"Pacific/Chatham","type":"adm1","translations":{"es":"Waitangi","en":"Waitangi"}},{"name":"Gisborne","state_code":"GIS","latitude":"-38.65333000","longitude":"178.00417000","population":37000,"timezone":"Pacific/Auckland","type":"adm1","translations":{"es":"Gisborne","en":"Gisborne"}},{"name":"Hastings","state_code":"HKB","latitude":"-39.63810000","longitude":"176.84918000","population":89200,"timezone":"Pacific/Auckland","type":"city","translations":{"es":"Hastings","en":"Hastings"}},{"name":"Napier","state_code":"HKB","latitude":"-39.49260000","longitude":"176.91233000","population":66300,"timezone":"Pacific/Auckland","type":"adm1","translations":{"es":"Napier","en":"Napier"}},{"name":"Taradale","state_code":"HKB","latitude":"-39.53333000","longitude":"176.85000000","population":12940,"timezone":"Pacific/Auckland","type":"section","translations":{"es":"Taradale","en":"Taradale"}},{"name":"Wairoa","state_code":"HKB","latitude":"-39.03333000","longitude":"177.36667000","population":4260,"timezone":"Pacific/Auckland","type":"city","translations":{"es":"Wairoa","en":"Wairoa"}},{"name":"Bulls","state_code":"MWT","latitude":"-40.17487000","longitude":"175.38463000","population":2150,"timezone":"Pacific/Auckland","type":"city","translations":{"es":"Toros","en":"Bulls"}},{"name":"Foxton","state_code":"MWT","latitude":"-40.46667000","longitude":"175.30000000","population":3310,"timezone":"Pacific/Auckland","type":"city","translations":{"es":"Foxton","en":"Foxton"}},{"name":"Horowhenua","state_code":"MWT","latitude":"-40.57733000","longitude":"175.38071000","population":33000,"timezone":"Pacific/Auckland","type":"district","translations":{"es":"Distrito de Horowhenua","en":"Horowhenua"}},{"name":"Levin","state_code":"MWT","latitude":"-40.63333000","longitude":"175.27500000","population":18800,"timezone":"Pacific/Auckland","type":"city","translations":{"es":"Levin","en":"Levin"}},{"name":"Manawatu","state_code":"MWT","latitude":"-40.11979000","longitude":"175.67426000","population":30800,"timezone":"Pacific/Auckland","type":"district","translations":{"es":"Distrito de Manawatu","en":"Manawatu"}},{"name":"Palmerston North","state_code":"MWT","latitude":"-40.35636000","longitude":"175.61113000","population":81500,"timezone":"Pacific/Auckland","type":"adm1","translations":{"es":"Palmerston Norte","en":"Palmerston North"}},{"name":"Waiouru","state_code":"MWT","latitude":"-39.47753000","longitude":"175.66834000","population":790,"timezone":"Pacific/Auckland","type":"city","translations":{"es":"Waiouru","en":"Waiouru"}},{"name":"Wanganui","state_code":"MWT","latitude":"-39.93333000","longitude":"175.05000000","population":48900,"timezone":"Pacific/Auckland","type":"city","translations":{"es":"Wanganui","en":"Wanganui"}},{"name":"Blenheim","state_code":"MBH","latitude":"-41.51603000","longitude":"173.95280000","population":28200,"timezone":"Pacific/Auckland","type":"adm1","translations":{"es":"Blenheim","en":"Blenheim"}},{"name":"Picton","state_code":"MBH","latitude":"-41.29067000","longitude":"174.00801000","population":4730,"timezone":"Pacific/Auckland","type":"city","translations":{"es":"Picton","en":"Picton"}},{"name":"Nelson","state_code":"NSN","latitude":"-41.27078000","longitude":"173.28404000","population":51100,"timezone":"Pacific/Auckland","type":"adm1","translations":{"es":"Nelson","en":"Nelson"}},{"name":"Ahipara","state_code":"NTL","latitude":"-35.16667000","longitude":"173.16667000","population":1390,"timezone":"Pacific/Auckland","type":"city","translations":{"es":"Ahipara","en":"Ahipara"}},{"name":"Dargaville","state_code":"NTL","latitude":"-35.93333000","longitude":"173.88333000","population":5130,"timezone":"Pacific/Auckland","type":"city","translations":{"es":"Dargaville","en":"Dargaville"}},{"name":"Far North","state_code":"NTL","latitude":"-35.03359000","longitude":"173.48841000","population":67200,"timezone":"Pacific/Auckland","type":"district","translations":{"es":"Distrito del Extremo Norte","en":"Far North"}},{"name":"Kaipara","state_code":"NTL","latitude":"-35.99546000","longitude":"174.04688000","population":23200,"timezone":"Pacific/Auckland","type":"district","translations":{"es":"Distrito de Kaipara","en":"Kaipara"}},{"name":"Kaitaia","state_code":"NTL","latitude":"-35.11485000","longitude":"173.26366000","population":0,"timezone":"Pacific/Auckland","type":"adm3","translations":{"es":"Kaitaia","en":"Kaitaia"}},{"name":"Kawakawa","state_code":"NTL","latitude":"-35.38333000","longitude":"174.06667000","population":1610,"timezone":"Pacific/Auckland","type":"city","translations":{"es":"Kawakawa","en":"Kawakawa"}},{"name":"Kerikeri","state_code":"NTL","latitude":"-35.22676000","longitude":"173.94739000","population":7850,"timezone":"Pacific/Auckland","type":"city","translations":{"es":"Kerikeri","en":"Kerikeri"}},{"name":"Maungatapere","state_code":"NTL","latitude":"-35.75000000","longitude":"174.20000000","population":1007,"timezone":"Pacific/Auckland","type":"city","translations":{"es":"Maungatapere","en":"Maungatapere"}},{"name":"Moerewa","state_code":"NTL","latitude":"-35.38333000","longitude":"174.03333000","population":1850,"timezone":"Pacific/Auckland","type":"city","translations":{"es":"Moerewa","en":"Moerewa"}},{"name":"Ngunguru","state_code":"NTL","latitude":"-35.61667000","longitude":"174.50000000","population":1230,"timezone":"Pacific/Auckland","type":"city","translations":{"es":"Ngunguru","en":"Ngunguru"}},{"name":"Paihia","state_code":"NTL","latitude":"-35.28067000","longitude":"174.09103000","population":1660,"timezone":"Pacific/Auckland","type":"city","translations":{"es":"Paihia","en":"Paihia"}},{"name":"Ruakaka","state_code":"NTL","latitude":"-35.90818000","longitude":"174.45019000","population":2830,"timezone":"Pacific/Auckland","type":"city","translations":{"es":"Ruakaka","en":"Ruakaka"}},{"name":"Taipa","state_code":"NTL","latitude":"-34.99604000","longitude":"173.46665000","population":1731,"timezone":"Pacific/Auckland","type":"city","translations":{"es":"Taipa","en":"Taipa"}},{"name":"Waimate North","state_code":"NTL","latitude":"-35.31667000","longitude":"173.88333000","population":2799,"timezone":"Pacific/Auckland","type":"city","translations":{"es":"Waimate Norte","en":"Waimate North"}},{"name":"Whangarei","state_code":"NTL","latitude":"-35.73167000","longitude":"174.32391000","population":54400,"timezone":"Pacific/Auckland","type":"adm1","translations":{"es":"Whangarei","en":"Whangarei"}},{"name":"Arrowtown","state_code":"OTA","latitude":"-44.93837000","longitude":"168.81007000","population":2151,"timezone":"Pacific/Auckland","type":"city","translations":{"es":"Arrowtown","en":"Arrowtown"}},{"name":"Balclutha","state_code":"OTA","latitude":"-46.23389000","longitude":"169.75000000","population":4230,"timezone":"Pacific/Auckland","type":"city","translations":{"es":"Balclutha","en":"Balclutha"}},{"name":"Clutha","state_code":"OTA","latitude":"-46.03883000","longitude":"169.60617000","population":17700,"timezone":"Pacific/Auckland","type":"district","translations":{"es":"Distrito de Clutha","en":"Clutha"}},{"name":"Cromwell","state_code":"OTA","latitude":"-45.03837000","longitude":"169.20008000","population":5160,"timezone":"Pacific/Auckland","type":"city","translations":{"es":"Cromwell","en":"Cromwell"}},{"name":"Dunedin","state_code":"OTA","latitude":"-45.87416000","longitude":"170.50361000","population":106200,"timezone":"Pacific/Auckland","type":"adm1","translations":{"es":"Dunedin","en":"Dunedin"}},{"name":"Kingston","state_code":"OTA","latitude":"-45.33288000","longitude":"168.71476000","population":360,"timezone":"Pacific/Auckland","type":"city","translations":{"es":"Kingston","en":"Kingston"}},{"name":"Milton","state_code":"OTA","latitude":"-46.12083000","longitude":"169.96944000","population":2210,"timezone":"Pacific/Auckland","type":"city","translations":{"es":"Milton","en":"Milton"}},{"name":"Oamaru","state_code":"OTA","latitude":"-45.09758000","longitude":"170.97087000","population":13700,"timezone":"Pacific/Auckland","type":"city","translations":{"es":"Oamaru","en":"Oamaru"}},{"name":"Papatowai","state_code":"OTA","latitude":"-46.56069000","longitude":"169.47068000","population":6593,"timezone":"Pacific/Auckland","type":"city","translations":{"es":"Papatowai","en":"Papatowai"}},{"name":"Portobello","state_code":"OTA","latitude":"-45.85000000","longitude":"170.65000000","population":1155,"timezone":"Pacific/Auckland","type":"city","translations":{"es":"Portobello","en":"Portobello"}},{"name":"Queenstown","state_code":"OTA","latitude":"-45.03023000","longitude":"168.66271000","population":10442,"timezone":"Pacific/Auckland","type":"city","translations":{"es":"Queenstown","en":"Queenstown"}},{"name":"Wanaka","state_code":"OTA","latitude":"-44.70000000","longitude":"169.15000000","population":11550,"timezone":"Pacific/Auckland","type":"city","translations":{"es":"Wanaka","en":"Wanaka"}},{"name":"Bluff","state_code":"STL","latitude":"-46.60000000","longitude":"168.33333000","population":1850,"timezone":"Pacific/Auckland","type":"city","translations":{"es":"Bluff","en":"Bluff"}},{"name":"Gore","state_code":"STL","latitude":"-46.10282000","longitude":"168.94357000","population":13050,"timezone":"Pacific/Auckland","type":"city","translations":{"es":"Sangre","en":"Gore"}},{"name":"Invercargill","state_code":"STL","latitude":"-46.40000000","longitude":"168.35000000","population":50200,"timezone":"Pacific/Auckland","type":"adm1","translations":{"es":"Invercargill","en":"Invercargill"}},{"name":"Riverton","state_code":"STL","latitude":"-46.35000000","longitude":"168.01667000","population":1680,"timezone":"Pacific/Auckland","type":"city","translations":{"es":"Riverton","en":"Riverton"}},{"name":"Southland","state_code":"STL","latitude":"-45.77256000","longitude":"167.85266000","population":30864,"timezone":"Pacific/Auckland","type":"district","translations":{"es":"Distrito de Southland","en":"Southland"}},{"name":"Te Anau","state_code":"STL","latitude":"-45.41667000","longitude":"167.71667000","population":2940,"timezone":"Pacific/Auckland","type":"city","translations":{"es":"Te Anau","en":"Te Anau"}},{"name":"Winton","state_code":"STL","latitude":"-46.15000000","longitude":"168.33333000","population":2470,"timezone":"Pacific/Auckland","type":"city","translations":{"es":"Winton","en":"Winton"}},{"name":"Eltham","state_code":"TKI","latitude":"-39.42917000","longitude":"174.30000000","population":2040,"timezone":"Pacific/Auckland","type":"city","translations":{"es":"Eltham","en":"Eltham"}},{"name":"Hawera","state_code":"TKI","latitude":"-39.59167000","longitude":"174.28333000","population":10300,"timezone":"Pacific/Auckland","type":"city","translations":{"es":"Hawera","en":"Hawera"}},{"name":"New Plymouth","state_code":"TKI","latitude":"-39.06667000","longitude":"174.08333000","population":90300,"timezone":"Pacific/Auckland","type":"adm1","translations":{"es":"Nueva Plymouth","en":"New Plymouth"}},{"name":"New Plymouth District","state_code":"TKI","latitude":"-39.05865000","longitude":"174.10309000","population":81900,"timezone":"Pacific/Auckland","type":"district","translations":{"es":"Distrito de New Plymouth","en":"New Plymouth District"}},{"name":"Opunake","state_code":"TKI","latitude":"-39.45556000","longitude":"173.85833000","population":1440,"timezone":"Pacific/Auckland","type":"city","translations":{"es":"Opunake","en":"Opunake"}},{"name":"Patea","state_code":"TKI","latitude":"-39.75833000","longitude":"174.48333000","population":1240,"timezone":"Pacific/Auckland","type":"city","translations":{"es":"Patea","en":"Patea"}},{"name":"South Taranaki","state_code":"TKI","latitude":"-39.52156000","longitude":"174.37160000","population":28300,"timezone":"Pacific/Auckland","type":"district","translations":{"es":"Distrito de Taranaki del Sur","en":"South Taranaki"}},{"name":"Stratford","state_code":"TKI","latitude":"-39.32215170","longitude":"174.26298160","population":6030,"timezone":"Pacific/Auckland","type":"city","translations":{"es":"Stratford","en":"Stratford"}},{"name":"Waitara","state_code":"TKI","latitude":"-39.00158000","longitude":"174.23836000","population":7270,"timezone":"Pacific/Auckland","type":"city","translations":{"es":"Waitara","en":"Waitara"}},{"name":"Brightwater","state_code":"TAS","latitude":"-41.38333000","longitude":"173.11667000","population":2250,"timezone":"Pacific/Auckland","type":"city","translations":{"es":"Agua brillante","en":"Brightwater"}},{"name":"Mapua","state_code":"TAS","latitude":"-41.25000000","longitude":"173.10000000","population":1819,"timezone":"Pacific/Auckland","type":"city","translations":{"es":"Mapua","en":"Mapua"}},{"name":"Motueka","state_code":"TAS","latitude":"-41.13333000","longitude":"173.01667000","population":8420,"timezone":"Pacific/Auckland","type":"city","translations":{"es":"Motueka","en":"Motueka"}},{"name":"Richmond","state_code":"TAS","latitude":"-41.33333000","longitude":"173.18333000","population":17250,"timezone":"Pacific/Auckland","type":"adm1","translations":{"es":"Richmond","en":"Richmond"}},{"name":"Takaka","state_code":"TAS","latitude":"-40.85000000","longitude":"172.80000000","population":1390,"timezone":"Pacific/Auckland","type":"city","translations":{"es":"Takaka","en":"Takaka"}},{"name":"Wakefield","state_code":"TAS","latitude":"-41.40000000","longitude":"173.05000000","population":2550,"timezone":"Pacific/Auckland","type":"city","translations":{"es":"Wakefield","en":"Wakefield"}},{"name":"Cambridge","state_code":"WKO","latitude":"-37.87822000","longitude":"175.44020000","population":15192,"timezone":"Pacific/Auckland","type":"city","translations":{"es":"Cambridge","en":"Cambridge"}},{"name":"Coromandel","state_code":"WKO","latitude":"-36.76110000","longitude":"175.49634000","population":1860,"timezone":"Pacific/Auckland","type":"city","translations":{"es":"Coromandel","en":"Coromandel"}},{"name":"Hamilton","state_code":"WKO","latitude":"-37.78333000","longitude":"175.28333000","population":176500,"timezone":"Pacific/Auckland","type":"adm1","translations":{"es":"Hamilton","en":"Hamilton"}},{"name":"Matamata","state_code":"WKO","latitude":"-37.81060000","longitude":"175.76237000","population":6306,"timezone":"Pacific/Auckland","type":"city","translations":{"es":"Matamata","en":"Matamata"}},{"name":"Ngaruawahia","state_code":"WKO","latitude":"-37.66738000","longitude":"175.15554000","population":7740,"timezone":"Pacific/Auckland","type":"city","translations":{"es":"Ngaruawahia","en":"Ngaruawahia"}},{"name":"Ngatea","state_code":"WKO","latitude":"-37.28333000","longitude":"175.50000000","population":1151,"timezone":"Pacific/Auckland","type":"city","translations":{"es":"Ngatea","en":"Ngatea"}},{"name":"Otorohanga","state_code":"WKO","latitude":"-38.18333000","longitude":"175.20000000","population":3240,"timezone":"Pacific/Auckland","type":"city","translations":{"es":"Otorohanga","en":"Otorohanga"}},{"name":"Paeroa","state_code":"WKO","latitude":"-37.36667000","longitude":"175.66667000","population":4510,"timezone":"Pacific/Auckland","type":"city","translations":{"es":"Paeroa","en":"Paeroa"}},{"name":"Raglan","state_code":"WKO","latitude":"-37.80000000","longitude":"174.88333000","population":3590,"timezone":"Pacific/Auckland","type":"city","translations":{"es":"Raglán","en":"Raglan"}},{"name":"South Waikato","state_code":"WKO","latitude":"-38.16797000","longitude":"175.88624000","population":24400,"timezone":"Pacific/Auckland","type":"district","translations":{"es":"Distrito del sur de Waikato","en":"South Waikato"}},{"name":"Tairua","state_code":"WKO","latitude":"-37.01667000","longitude":"175.85000000","population":1560,"timezone":"Pacific/Auckland","type":"city","translations":{"es":"Tairua","en":"Tairua"}},{"name":"Taupo","state_code":"WKO","latitude":"-38.68333000","longitude":"176.08333000","population":25400,"timezone":"Pacific/Auckland","type":"city","translations":{"es":"Taupo","en":"Taupo"}},{"name":"Te Kauwhata","state_code":"WKO","latitude":"-37.40000000","longitude":"175.15000000","population":3740,"timezone":"Pacific/Auckland","type":"city","translations":{"es":"Te Kauwhata","en":"Te Kauwhata"}},{"name":"Thames","state_code":"WKO","latitude":"-37.13832000","longitude":"175.54011000","population":7380,"timezone":"Pacific/Auckland","type":"city","translations":{"es":"Támesis","en":"Thames"}},{"name":"Tokoroa","state_code":"WKO","latitude":"-38.23333000","longitude":"175.86667000","population":14300,"timezone":"Pacific/Auckland","type":"city","translations":{"es":"Tokoroa","en":"Tokoroa"}},{"name":"Turangi","state_code":"WKO","latitude":"-38.99037000","longitude":"175.80837000","population":3650,"timezone":"Pacific/Auckland","type":"city","translations":{"es":"Turangi","en":"Turangi"}},{"name":"Waihi","state_code":"WKO","latitude":"-37.38333000","longitude":"175.83333000","population":5740,"timezone":"Pacific/Auckland","type":"city","translations":{"es":"Waihi","en":"Waihi"}},{"name":"Whangamata","state_code":"WKO","latitude":"-37.20000000","longitude":"175.86667000","population":4420,"timezone":"Pacific/Auckland","type":"city","translations":{"es":"Whangamata","en":"Whangamata"}},{"name":"Whitianga","state_code":"WKO","latitude":"-36.83333000","longitude":"175.70000000","population":6160,"timezone":"Pacific/Auckland","type":"city","translations":{"es":"Whitianga","en":"Whitianga"}},{"name":"Brooklyn","state_code":"WGN","latitude":"-41.30586000","longitude":"174.76257000","population":3855,"timezone":"Pacific/Auckland","type":"city","translations":{"es":"Brooklyn","en":"Brooklyn"}},{"name":"Castlepoint","state_code":"WGN","latitude":"-40.90000000","longitude":"176.21667000","population":1686,"timezone":"Pacific/Auckland","type":"city","translations":{"es":"Punto del castillo","en":"Castlepoint"}},{"name":"Kapiti Coast","state_code":"WGN","latitude":"-40.85682000","longitude":"175.14690000","population":53200,"timezone":"Pacific/Auckland","type":"district","translations":{"es":"Distrito de la costa de Kapiti","en":"Kapiti Coast"}},{"name":"Kelburn","state_code":"WGN","latitude":"-41.28333000","longitude":"174.76667000","population":4890,"timezone":"Pacific/Auckland","type":"section","translations":{"es":"Kelburn","en":"Kelburn"}},{"name":"Khandallah","state_code":"WGN","latitude":"-41.24500000","longitude":"174.79422000","population":8640,"timezone":"Pacific/Auckland","type":"city","translations":{"es":"Khandallah","en":"Khandallah"}},{"name":"Lower Hutt","state_code":"WGN","latitude":"-41.21667000","longitude":"174.91667000","population":110700,"timezone":"Pacific/Auckland","type":"city","translations":{"es":"Lower Hutt","en":"Lower Hutt"}},{"name":"Masterton","state_code":"WGN","latitude":"-40.95972000","longitude":"175.65750000","population":28700,"timezone":"Pacific/Auckland","type":"city","translations":{"es":"Masterton","en":"Masterton"}},{"name":"Otaki","state_code":"WGN","latitude":"-40.75833000","longitude":"175.15000000","population":4980,"timezone":"Pacific/Auckland","type":"city","translations":{"es":"Otaki","en":"Otaki"}},{"name":"Paraparaumu","state_code":"WGN","latitude":"-40.91667000","longitude":"175.01667000","population":30100,"timezone":"Pacific/Auckland","type":"city","translations":{"es":"Paraparaumu","en":"Paraparaumu"}},{"name":"Petone","state_code":"WGN","latitude":"-41.22827000","longitude":"174.87019000","population":8370,"timezone":"Pacific/Auckland","type":"section","translations":{"es":"Petone","en":"Petone"}},{"name":"Porirua","state_code":"WGN","latitude":"-41.13333000","longitude":"174.85000000","population":59600,"timezone":"Pacific/Auckland","type":"city","translations":{"es":"Porirua","en":"Porirua"}},{"name":"South Wairarapa","state_code":"WGN","latitude":"-41.26731000","longitude":"175.38442000","population":10450,"timezone":"Pacific/Auckland","type":"district","translations":{"es":"Distrito de South Wairarapa","en":"South Wairarapa"}},{"name":"Upper Hutt","state_code":"WGN","latitude":"-41.13827000","longitude":"175.05020000","population":44300,"timezone":"Pacific/Auckland","type":"city","translations":{"es":"Upper Hutt","en":"Upper Hutt"}},{"name":"Waipawa","state_code":"WGN","latitude":"-41.41222000","longitude":"175.51528000","population":2250,"timezone":"Pacific/Auckland","type":"city","translations":{"es":"Waipawa","en":"Waipawa"}},{"name":"Wellington","state_code":"WGN","latitude":"-41.28664000","longitude":"174.77557000","population":381900,"timezone":"Pacific/Auckland","type":"capital","translations":{"es":"Wellington","en":"Wellington"}},{"name":"Greymouth","state_code":"WTC","latitude":"-42.46667000","longitude":"171.20000000","population":8170,"timezone":"Pacific/Auckland","type":"adm1","translations":{"es":"Greymouth","en":"Greymouth"}},{"name":"Hokitika","state_code":"WTC","latitude":"-42.71667000","longitude":"170.96667000","population":2920,"timezone":"Pacific/Auckland","type":"city","translations":{"es":"Hokitika","en":"Hokitika"}},{"name":"Westport","state_code":"WTC","latitude":"-41.75262000","longitude":"171.60370000","population":4380,"timezone":"Pacific/Auckland","type":"city","translations":{"es":"Westport","en":"Westport"}}]