[{"name":"Adam","state_code":"DA","latitude":"22.37934000","longitude":"57.52718000","population":17283,"timezone":"Asia/Muscat","type":"city","translations":{"es":"Adán","en":"Adam"}},{"name":"Bahlā’","state_code":"DA","latitude":"22.97886000","longitude":"57.30470000","population":54338,"timezone":"Asia/Muscat","type":"city","translations":{"es":"Bahlā’","en":"Bahlā’"}},{"name":"Bidbid","state_code":"DA","latitude":"23.40787000","longitude":"58.12830000","population":21188,"timezone":"Asia/Muscat","type":"city","translations":{"es":"Ofertar ofertar","en":"Bidbid"}},{"name":"Izkī","state_code":"DA","latitude":"22.93333000","longitude":"57.76667000","population":36203,"timezone":"Asia/Muscat","type":"city","translations":{"es":"Izki","en":"Izkī"}},{"name":"Nizwá","state_code":"DA","latitude":"22.93333000","longitude":"57.53333000","population":83544,"timezone":"Asia/Muscat","type":"adm1","translations":{"es":"Nizwa","en":"Nizwá"}},{"name":"Sufālat Samā’il","state_code":"DA","latitude":"23.31667000","longitude":"58.01667000","population":47718,"timezone":"Asia/Muscat","type":"city","translations":{"es":"Sufālat Samā’il","en":"Sufālat Samā’il"}},{"name":"‘Ibrī","state_code":"ZA","latitude":"23.22573000","longitude":"56.51572000","population":163473,"timezone":"Asia/Muscat","type":"city","translations":{"es":"‘Ibri","en":"‘Ibrī"}},{"name":"Yanqul","state_code":"ZA","latitude":"23.58645000","longitude":"56.53969000","population":16599,"timezone":"Asia/Muscat","type":"city","translations":{"es":"Yanqul","en":"Yanqul"}},{"name":"Al Khābūrah","state_code":"BS","latitude":"23.97144000","longitude":"57.09313000","population":50223,"timezone":"Asia/Muscat","type":"city","translations":{"es":"Al Khabūrah","en":"Al Khābūrah"}},{"name":"As Suwayq","state_code":"BS","latitude":"23.84944000","longitude":"57.43861000","population":107143,"timezone":"Asia/Muscat","type":"city","translations":{"es":"Como Suwayq","en":"As Suwayq"}},{"name":"Liwá","state_code":"BS","latitude":"24.53077000","longitude":"56.56300000","population":26372,"timezone":"Asia/Muscat","type":"city","translations":{"es":"Liwá","en":"Liwá"}},{"name":"Şaḩam","state_code":"BS","latitude":"24.17222000","longitude":"56.88861000","population":140000,"timezone":"Asia/Muscat","type":"city","translations":{"es":"Saham","en":"Şaḩam"}},{"name":"Shināş","state_code":"BS","latitude":"24.74260000","longitude":"56.46698000","population":48009,"timezone":"Asia/Muscat","type":"city","translations":{"es":"Shināş","en":"Shināş"}},{"name":"Sohar","state_code":"BS","latitude":"24.34745000","longitude":"56.70937000","population":108274,"timezone":"Asia/Muscat","type":"adm1","translations":{"es":"Sohar","en":"Sohar"}},{"name":"Barkā’","state_code":"BJ","latitude":"23.67872000","longitude":"57.88605000","population":81647,"timezone":"Asia/Muscat","type":"section","translations":{"es":"Barkā’","en":"Barkā’"}},{"name":"Bayt al ‘Awābī","state_code":"BJ","latitude":"23.30324000","longitude":"57.52459000","population":10711,"timezone":"Asia/Muscat","type":"section","translations":{"es":"Bayt al ‘Awābī","en":"Bayt al ‘Awābī"}},{"name":"Oman Smart Future City","state_code":"BJ","latitude":"23.65270000","longitude":"57.59926000","population":null,"timezone":"Asia/Muscat","type":"city","translations":{"es":"Ciudad inteligente del futuro de Omán","en":"Oman Smart Future City"}},{"name":"Rustaq","state_code":"BJ","latitude":"23.39083000","longitude":"57.42444000","population":120000,"timezone":"Asia/Muscat","type":"city","translations":{"es":"Rustaq","en":"Rustaq"}},{"name":"Al Buraymī","state_code":"BU","latitude":"24.25088000","longitude":"55.79312000","population":73670,"timezone":"Asia/Muscat","type":"adm1","translations":{"es":"Al Buraymi","en":"Al Buraymī"}},{"name":"Haymā’","state_code":"WU","latitude":"19.95931000","longitude":"56.27575000","population":1294,"timezone":"Asia/Muscat","type":"adm1","translations":{"es":"Haymā’","en":"Haymā’"}},{"name":"Sur","state_code":"SJ","latitude":"22.56667000","longitude":"59.52889000","population":71152,"timezone":"Asia/Muscat","type":"adm1","translations":{"es":"Sur","en":"Sur"}},{"name":"Şalālah","state_code":"ZU","latitude":"17.01505000","longitude":"54.09237000","population":163140,"timezone":"Asia/Muscat","type":"adm1","translations":{"es":"Salalah","en":"Şalālah"}},{"name":"Dib Dibba","state_code":"MU","latitude":"26.19778000","longitude":"56.25778000","population":5000,"timezone":"Asia/Muscat","type":"city","translations":{"es":"Dib Dibba","en":"Dib Dibba"}},{"name":"Khasab","state_code":"MU","latitude":"26.17993000","longitude":"56.24774000","population":17904,"timezone":"Asia/Muscat","type":"adm1","translations":{"es":"Jasab","en":"Khasab"}},{"name":"Madḩā’ al Jadīdah","state_code":"MU","latitude":"25.28345000","longitude":"56.33280000","population":2260,"timezone":"Asia/Muscat","type":"city","translations":{"es":"Madḩā’ al Jadīdah","en":"Madḩā’ al Jadīdah"}},{"name":"Bawshar","state_code":"MA","latitude":"23.57769000","longitude":"58.39982000","population":402023,"timezone":"Asia/Muscat","type":"city","translations":{"es":"Bawshar","en":"Bawshar"}},{"name":"Muscat","state_code":"MA","latitude":"23.58413000","longitude":"58.40778000","population":797000,"timezone":"Asia/Muscat","type":"capital","translations":{"es":"Moscatel","en":"Muscat"}},{"name":"Seeb","state_code":"MA","latitude":"23.67027000","longitude":"58.18911000","population":470878,"timezone":"Asia/Muscat","type":"city","translations":{"es":"Seeb","en":"Seeb"}}]