[{"name":"Babiak","state_code":"30","latitude":"52.34530000","longitude":"18.66663000","population":1500,"timezone":"Europe/Warsaw","type":"adm3","translations":{"es":"Babiak","en":"Babiak"}},{"name":"Baranów","state_code":"30","latitude":"51.26342000","longitude":"18.00470000","population":1491,"timezone":"Europe/Warsaw","type":"adm3","translations":{"es":"Baranów","en":"Baranów"}},{"name":"Baranowo","state_code":"30","latitude":"52.43525000","longitude":"16.78631000","population":1331,"timezone":"Europe/Warsaw","type":"city","translations":{"es":"Baranowo","en":"Baranowo"}},{"name":"Białośliwie","state_code":"30","latitude":"53.10461000","longitude":"17.12533000","population":2600,"timezone":"Europe/Warsaw","type":"adm3","translations":{"es":"Bialosliwie","en":"Białośliwie"}},{"name":"Blizanów","state_code":"30","latitude":"51.90372000","longitude":"18.01003000","population":483,"timezone":"Europe/Warsaw","type":"adm3","translations":{"es":"Blizanów","en":"Blizanów"}},{"name":"Bojanowo","state_code":"30","latitude":"51.70749000","longitude":"16.74827000","population":2856,"timezone":"Europe/Warsaw","type":"adm3","translations":{"es":"Bojanowo","en":"Bojanowo"}},{"name":"Bojanowo Stare","state_code":"30","latitude":"51.99302000","longitude":"16.58369000","population":1692,"timezone":"Europe/Warsaw","type":"city","translations":{"es":"Estrella Bojanowo","en":"Bojanowo Stare"}},{"name":"Borek Wielkopolski","state_code":"30","latitude":"51.91674000","longitude":"17.24133000","population":2440,"timezone":"Europe/Warsaw","type":"adm3","translations":{"es":"Borek Wielkopolski","en":"Borek Wielkopolski"}},{"name":"Bralin","state_code":"30","latitude":"51.28581000","longitude":"17.90325000","population":2500,"timezone":"Europe/Warsaw","type":"adm3","translations":{"es":"Bralín","en":"Bralin"}},{"name":"Brdów","state_code":"30","latitude":"52.35390000","longitude":"18.72980000","population":855,"timezone":"Europe/Warsaw","type":"city","translations":{"es":"Brdów","en":"Brdów"}},{"name":"Brenno","state_code":"30","latitude":"51.92257000","longitude":"16.21488000","population":1268,"timezone":"Europe/Warsaw","type":"city","translations":{"es":"Brenno","en":"Brenno"}},{"name":"Brodnica","state_code":"30","latitude":"52.14123000","longitude":"16.89096000","population":756,"timezone":"Europe/Warsaw","type":"adm3","translations":{"es":"Brodnica","en":"Brodnica"}},{"name":"Broniszewice","state_code":"30","latitude":"51.96696000","longitude":"17.81648000","population":1198,"timezone":"Europe/Warsaw","type":"city","translations":{"es":"Broniszewice","en":"Broniszewice"}},{"name":"Brudzew","state_code":"30","latitude":"52.09949000","longitude":"18.60432000","population":1671,"timezone":"Europe/Warsaw","type":"adm3","translations":{"es":"Brudzew","en":"Brudzew"}},{"name":"Budzyń","state_code":"30","latitude":"52.88954000","longitude":"16.98812000","population":4861,"timezone":"Europe/Warsaw","type":"adm3","translations":{"es":"Budzyń","en":"Budzyń"}},{"name":"Buk","state_code":"30","latitude":"52.35532000","longitude":"16.51958000","population":5718,"timezone":"Europe/Warsaw","type":"adm3","translations":{"es":"Buk","en":"Buk"}},{"name":"Chocz","state_code":"30","latitude":"51.97642000","longitude":"17.86995000","population":1691,"timezone":"Europe/Warsaw","type":"adm3","translations":{"es":"Chocolate","en":"Chocz"}},{"name":"Chodów","state_code":"30","latitude":"52.24961000","longitude":"19.01218000","population":830,"timezone":"Europe/Warsaw","type":"adm3","translations":{"es":"Chodów","en":"Chodów"}},{"name":"Chodzież","state_code":"30","latitude":"52.99505000","longitude":"16.91980000","population":19830,"timezone":"Europe/Warsaw","type":"adm3","translations":{"es":"Chodzież","en":"Chodzież"}},{"name":"Chrzypsko Wielkie","state_code":"30","latitude":"52.62817000","longitude":"16.22852000","population":1001,"timezone":"Europe/Warsaw","type":"adm3","translations":{"es":"Chrzypsko Wielkie","en":"Chrzypsko Wielkie"}},{"name":"Czajków","state_code":"30","latitude":"51.49197000","longitude":"18.32726000","population":1059,"timezone":"Europe/Warsaw","type":"adm3","translations":{"es":"Czajków","en":"Czajków"}},{"name":"Czapury","state_code":"30","latitude":"52.31719000","longitude":"16.91268000","population":1256,"timezone":"Europe/Warsaw","type":"city","translations":{"es":"Czapury","en":"Czapury"}},{"name":"Czarnków","state_code":"30","latitude":"52.90214000","longitude":"16.56413000","population":10097,"timezone":"Europe/Warsaw","type":"adm3","translations":{"es":"Czarnków","en":"Czarnków"}},{"name":"Czempiń","state_code":"30","latitude":"52.14404000","longitude":"16.76408000","population":4825,"timezone":"Europe/Warsaw","type":"adm3","translations":{"es":"Checo","en":"Czempiń"}},{"name":"Czermin","state_code":"30","latitude":"51.95008000","longitude":"17.74957000","population":871,"timezone":"Europe/Warsaw","type":"adm3","translations":{"es":"Czermin","en":"Czermin"}},{"name":"Czerniejewo","state_code":"30","latitude":"52.42640000","longitude":"17.48925000","population":2576,"timezone":"Europe/Warsaw","type":"adm3","translations":{"es":"Czerniejewo","en":"Czerniejewo"}},{"name":"Czerwonak","state_code":"30","latitude":"52.46459000","longitude":"16.98169000","population":5863,"timezone":"Europe/Warsaw","type":"adm3","translations":{"es":"Czerwonak","en":"Czerwonak"}},{"name":"Dąbie","state_code":"30","latitude":"52.08668000","longitude":"18.82250000","population":2003,"timezone":"Europe/Warsaw","type":"adm3","translations":{"es":"Dąbie","en":"Dąbie"}},{"name":"Damasławek","state_code":"30","latitude":"52.83979000","longitude":"17.50062000","population":2500,"timezone":"Europe/Warsaw","type":"adm3","translations":{"es":"Damasławek","en":"Damasławek"}},{"name":"Daszewice","state_code":"30","latitude":"52.30002000","longitude":"16.95723000","population":1422,"timezone":"Europe/Warsaw","type":"city","translations":{"es":"Daszewice","en":"Daszewice"}},{"name":"Dobra","state_code":"30","latitude":"51.91664000","longitude":"18.61556000","population":1450,"timezone":"Europe/Warsaw","type":"adm3","translations":{"es":"Dobra","en":"Dobra"}},{"name":"Dobrzyca","state_code":"30","latitude":"51.86663000","longitude":"17.60336000","population":2949,"timezone":"Europe/Warsaw","type":"city","translations":{"es":"Dobrzyca","en":"Dobrzyca"}},{"name":"Dolsk","state_code":"30","latitude":"51.98180000","longitude":"17.06273000","population":1568,"timezone":"Europe/Warsaw","type":"city","translations":{"es":"Dolsk","en":"Dolsk"}},{"name":"Dominowo","state_code":"30","latitude":"52.29158000","longitude":"17.35754000","population":547,"timezone":"Europe/Warsaw","type":"adm3","translations":{"es":"Dominowo","en":"Dominowo"}},{"name":"Dopiewo","state_code":"30","latitude":"52.35726000","longitude":"16.67562000","population":2848,"timezone":"Europe/Warsaw","type":"adm3","translations":{"es":"Dopiewo","en":"Dopiewo"}},{"name":"Doruchów","state_code":"30","latitude":"51.41719000","longitude":"18.07697000","population":1978,"timezone":"Europe/Warsaw","type":"adm3","translations":{"es":"Doruchów","en":"Doruchów"}},{"name":"Drawsko","state_code":"30","latitude":"52.85421000","longitude":"16.03125000","population":1640,"timezone":"Europe/Warsaw","type":"city","translations":{"es":"Drawsko","en":"Drawsko"}},{"name":"Duszniki","state_code":"30","latitude":"52.44691000","longitude":"16.40602000","population":2100,"timezone":"Europe/Warsaw","type":"adm3","translations":{"es":"Duszniki","en":"Duszniki"}},{"name":"Gizałki","state_code":"30","latitude":"52.04267000","longitude":"17.76936000","population":583,"timezone":"Europe/Warsaw","type":"adm3","translations":{"es":"Gizałki","en":"Gizałki"}},{"name":"Gniezno","state_code":"30","latitude":"52.53481000","longitude":"17.58259000","population":65452,"timezone":"Europe/Warsaw","type":"adm2","translations":{"es":"Gniezno","en":"Gniezno"}},{"name":"Golina","state_code":"30","latitude":"52.24315000","longitude":"18.09268000","population":4395,"timezone":"Europe/Warsaw","type":"adm3","translations":{"es":"Golina","en":"Golina"}},{"name":"Gołańcz","state_code":"30","latitude":"52.94326000","longitude":"17.29995000","population":3194,"timezone":"Europe/Warsaw","type":"adm3","translations":{"es":"Gołańcz","en":"Gołańcz"}},{"name":"Gołuchów","state_code":"30","latitude":"51.85036000","longitude":"17.93140000","population":2000,"timezone":"Europe/Warsaw","type":"adm3","translations":{"es":"Gołuchów","en":"Gołuchów"}},{"name":"Gorzyce Wielkie","state_code":"30","latitude":"51.63725000","longitude":"17.72953000","population":2076,"timezone":"Europe/Warsaw","type":"city","translations":{"es":"Gorzyce Wielkie","en":"Gorzyce Wielkie"}},{"name":"Gostyń","state_code":"30","latitude":"51.88247000","longitude":"17.01225000","population":20210,"timezone":"Europe/Warsaw","type":"adm3","translations":{"es":"Gostyń","en":"Gostyń"}},{"name":"Grabów nad Prosną","state_code":"30","latitude":"51.50596000","longitude":"18.11929000","population":1917,"timezone":"Europe/Warsaw","type":"adm3","translations":{"es":"Grabów nad Prosną","en":"Grabów nad Prosną"}},{"name":"Granowo","state_code":"30","latitude":"52.22244000","longitude":"16.52859000","population":2031,"timezone":"Europe/Warsaw","type":"adm3","translations":{"es":"Granowo","en":"Granowo"}},{"name":"Grodziec","state_code":"30","latitude":"52.03855000","longitude":"18.05972000","population":1400,"timezone":"Europe/Warsaw","type":"adm3","translations":{"es":"Grodziec","en":"Grodziec"}},{"name":"Grodzisk Wielkopolski","state_code":"30","latitude":"52.22762000","longitude":"16.36534000","population":15131,"timezone":"Europe/Warsaw","type":"adm3","translations":{"es":"Grodzisk Wielkopolski","en":"Grodzisk Wielkopolski"}},{"name":"Grzegorzew","state_code":"30","latitude":"52.20177000","longitude":"18.73409000","population":1913,"timezone":"Europe/Warsaw","type":"adm3","translations":{"es":"Grzegorzew","en":"Grzegorzew"}},{"name":"Jabłonna","state_code":"30","latitude":"52.20598000","longitude":"16.20741000","population":1001,"timezone":"Europe/Warsaw","type":"city","translations":{"es":"Jabłonna","en":"Jabłonna"}},{"name":"Janków Przygodzki","state_code":"30","latitude":"51.59808000","longitude":"17.78824000","population":1640,"timezone":"Europe/Warsaw","type":"city","translations":{"es":"Janków Przygodzki","en":"Janków Przygodzki"}},{"name":"Jaraczewo","state_code":"30","latitude":"51.96854000","longitude":"17.29707000","population":1369,"timezone":"Europe/Warsaw","type":"city","translations":{"es":"Jaraczewo","en":"Jaraczewo"}},{"name":"Jarocin","state_code":"30","latitude":"51.97266000","longitude":"17.50256000","population":26399,"timezone":"Europe/Warsaw","type":"city","translations":{"es":"Jarocin","en":"Jarocin"}},{"name":"Jastrowie","state_code":"30","latitude":"53.42048000","longitude":"16.81756000","population":8344,"timezone":"Europe/Warsaw","type":"adm3","translations":{"es":"Jastrowie","en":"Jastrowie"}},{"name":"Jutrosin","state_code":"30","latitude":"51.65009000","longitude":"17.16957000","population":1910,"timezone":"Europe/Warsaw","type":"adm3","translations":{"es":"Jutrosina","en":"Jutrosin"}},{"name":"Kaczory","state_code":"30","latitude":"53.10348000","longitude":"16.88169000","population":2911,"timezone":"Europe/Warsaw","type":"city","translations":{"es":"Kaczory","en":"Kaczory"}},{"name":"Kalisz","state_code":"30","latitude":"51.76109000","longitude":"18.09102000","population":95905,"timezone":"Europe/Warsaw","type":"adm3","translations":{"es":"Kalisz","en":"Kalisz"}},{"name":"Kamieniec","state_code":"30","latitude":"52.16614000","longitude":"16.46164000","population":1275,"timezone":"Europe/Warsaw","type":"city","translations":{"es":"Kamieniec","en":"Kamieniec"}},{"name":"Kawęczyn","state_code":"30","latitude":"51.90923000","longitude":"18.53102000","population":446,"timezone":"Europe/Warsaw","type":"adm3","translations":{"es":"Kawęczyn","en":"Kawęczyn"}},{"name":"Kazimierz Biskupi","state_code":"30","latitude":"52.31100000","longitude":"18.16581000","population":4280,"timezone":"Europe/Warsaw","type":"adm3","translations":{"es":"Kazimierz Biskupi","en":"Kazimierz Biskupi"}},{"name":"Kaźmierz","state_code":"30","latitude":"52.51309000","longitude":"16.58403000","population":3235,"timezone":"Europe/Warsaw","type":"adm3","translations":{"es":"Kaźmierz","en":"Kaźmierz"}},{"name":"Kępno","state_code":"30","latitude":"51.27840000","longitude":"17.98908000","population":14813,"timezone":"Europe/Warsaw","type":"adm2","translations":{"es":"Kępno","en":"Kępno"}},{"name":"Kiszkowo","state_code":"30","latitude":"52.58871000","longitude":"17.26630000","population":1893,"timezone":"Europe/Warsaw","type":"adm3","translations":{"es":"Kiszkowo","en":"Kiszkowo"}},{"name":"Kleczew","state_code":"30","latitude":"52.37057000","longitude":"18.17714000","population":3980,"timezone":"Europe/Warsaw","type":"adm3","translations":{"es":"Kleczew","en":"Kleczew"}},{"name":"Kleszczewo","state_code":"30","latitude":"52.33377000","longitude":"17.17163000","population":580,"timezone":"Europe/Warsaw","type":"adm3","translations":{"es":"Kleszczewo","en":"Kleszczewo"}},{"name":"Kłecko","state_code":"30","latitude":"52.63181000","longitude":"17.43075000","population":2608,"timezone":"Europe/Warsaw","type":"adm3","translations":{"es":"Kłecko","en":"Kłecko"}},{"name":"Kłodawa","state_code":"30","latitude":"52.25447000","longitude":"18.91352000","population":6714,"timezone":"Europe/Warsaw","type":"adm3","translations":{"es":"Klodawa","en":"Kłodawa"}},{"name":"Kobyla Góra","state_code":"30","latitude":"51.37923000","longitude":"17.83811000","population":1981,"timezone":"Europe/Warsaw","type":"adm3","translations":{"es":"Kobyla Góra","en":"Kobyla Góra"}},{"name":"Kobylin","state_code":"30","latitude":"51.71645000","longitude":"17.22682000","population":3190,"timezone":"Europe/Warsaw","type":"adm3","translations":{"es":"Kobilino","en":"Kobylin"}},{"name":"Kobylnica","state_code":"30","latitude":"52.44597000","longitude":"17.07644000","population":1638,"timezone":"Europe/Warsaw","type":"city","translations":{"es":"Kobylnica","en":"Kobylnica"}},{"name":"Kołaczkowo","state_code":"30","latitude":"52.21739000","longitude":"17.62413000","population":753,"timezone":"Europe/Warsaw","type":"adm3","translations":{"es":"Kołaczkowo","en":"Kołaczkowo"}},{"name":"Koło","state_code":"30","latitude":"52.20024000","longitude":"18.63865000","population":23493,"timezone":"Europe/Warsaw","type":"adm2","translations":{"es":"Kolo","en":"Koło"}},{"name":"Komorniki","state_code":"30","latitude":"52.33870000","longitude":"16.81063000","population":5144,"timezone":"Europe/Warsaw","type":"adm3","translations":{"es":"Komorniki","en":"Komorniki"}},{"name":"Konary","state_code":"30","latitude":"51.65690000","longitude":"17.04185000","population":1100,"timezone":"Europe/Warsaw","type":"city","translations":{"es":"Konary","en":"Konary"}},{"name":"Konin","state_code":"30","latitude":"52.22338000","longitude":"18.25121000","population":69858,"timezone":"Europe/Warsaw","type":"city","translations":{"es":"Konin","en":"Konin"}},{"name":"Kórnik","state_code":"30","latitude":"52.24772000","longitude":"17.08949000","population":8246,"timezone":"Europe/Warsaw","type":"adm3","translations":{"es":"Kórnik","en":"Kórnik"}},{"name":"Kościan","state_code":"30","latitude":"52.08829000","longitude":"16.64866000","population":24022,"timezone":"Europe/Warsaw","type":"adm3","translations":{"es":"Kościan","en":"Kościan"}},{"name":"Kościelec","state_code":"30","latitude":"52.17425000","longitude":"18.57067000","population":1003,"timezone":"Europe/Warsaw","type":"adm3","translations":{"es":"Kościelec","en":"Kościelec"}},{"name":"Kostrzyn","state_code":"30","latitude":"52.39847000","longitude":"17.22811000","population":9809,"timezone":"Europe/Warsaw","type":"adm3","translations":{"es":"Kostrzyn","en":"Kostrzyn"}},{"name":"Kotlin","state_code":"30","latitude":"51.91913000","longitude":"17.64825000","population":3266,"timezone":"Europe/Warsaw","type":"adm3","translations":{"es":"Kotlin","en":"Kotlin"}},{"name":"Koźmin Wielkopolski","state_code":"30","latitude":"51.82712000","longitude":"17.45391000","population":6304,"timezone":"Europe/Warsaw","type":"city","translations":{"es":"Koźmin Wielkopolski","en":"Koźmin Wielkopolski"}},{"name":"Koźminek","state_code":"30","latitude":"51.79874000","longitude":"18.33893000","population":1874,"timezone":"Europe/Warsaw","type":"city","translations":{"es":"Koźminek","en":"Koźminek"}},{"name":"Krajenka","state_code":"30","latitude":"53.29759000","longitude":"16.99079000","population":3586,"timezone":"Europe/Warsaw","type":"adm3","translations":{"es":"Krajenka","en":"Krajenka"}},{"name":"Kramsk","state_code":"30","latitude":"52.26469000","longitude":"18.42407000","population":1762,"timezone":"Europe/Warsaw","type":"adm3","translations":{"es":"Kramsk","en":"Kramsk"}},{"name":"Kraszewice","state_code":"30","latitude":"51.51868000","longitude":"18.21997000","population":1477,"timezone":"Europe/Warsaw","type":"adm3","translations":{"es":"Kraszewice","en":"Kraszewice"}},{"name":"Krobia","state_code":"30","latitude":"51.77405000","longitude":"16.98237000","population":4412,"timezone":"Europe/Warsaw","type":"adm3","translations":{"es":"Krobia","en":"Krobia"}},{"name":"Krosno","state_code":"30","latitude":"52.22357000","longitude":"16.83251000","population":1724,"timezone":"Europe/Warsaw","type":"city","translations":{"es":"Krosno","en":"Krosno"}},{"name":"Krotoszyn","state_code":"30","latitude":"51.69868000","longitude":"17.43738000","population":28704,"timezone":"Europe/Warsaw","type":"adm3","translations":{"es":"Krotoszyn","en":"Krotoszyn"}},{"name":"Krzemieniewo","state_code":"30","latitude":"51.85905000","longitude":"16.83354000","population":5000,"timezone":"Europe/Warsaw","type":"adm3","translations":{"es":"Krzemieniewo","en":"Krzemieniewo"}},{"name":"Krzykosy","state_code":"30","latitude":"52.11041000","longitude":"17.37411000","population":808,"timezone":"Europe/Warsaw","type":"adm3","translations":{"es":"Krzykosy","en":"Krzykosy"}},{"name":"Krzywiń","state_code":"30","latitude":"51.96296000","longitude":"16.81985000","population":1674,"timezone":"Europe/Warsaw","type":"city","translations":{"es":"Krzywin","en":"Krzywiń"}},{"name":"Krzyż Wielkopolski","state_code":"30","latitude":"52.88097000","longitude":"16.01116000","population":6017,"timezone":"Europe/Warsaw","type":"adm3","translations":{"es":"Krzyż Wielkopolski","en":"Krzyż Wielkopolski"}},{"name":"Książ Wielkopolski","state_code":"30","latitude":"52.06167000","longitude":"17.23952000","population":2643,"timezone":"Europe/Warsaw","type":"adm3","translations":{"es":"Książ Wielkopolski","en":"Książ Wielkopolski"}},{"name":"Kuślin","state_code":"30","latitude":"52.36386000","longitude":"16.31538000","population":558,"timezone":"Europe/Warsaw","type":"adm3","translations":{"es":"Kuślin","en":"Kuślin"}},{"name":"Kwilcz","state_code":"30","latitude":"52.55506000","longitude":"16.08562000","population":2746,"timezone":"Europe/Warsaw","type":"adm3","translations":{"es":"Kwilcz","en":"Kwilcz"}},{"name":"Lądek","state_code":"30","latitude":"52.20929000","longitude":"17.92994000","population":790,"timezone":"Europe/Warsaw","type":"adm3","translations":{"es":"Chica","en":"Lądek"}},{"name":"Leszno","state_code":"30","latitude":"51.84034000","longitude":"16.57494000","population":61791,"timezone":"Europe/Warsaw","type":"adm2","translations":{"es":"Leszno","en":"Leszno"}},{"name":"Licheń Stary","state_code":"30","latitude":"52.31226000","longitude":"18.35515000","population":1100,"timezone":"Europe/Warsaw","type":"section","translations":{"es":"Lichen Stary","en":"Licheń Stary"}},{"name":"Lipka","state_code":"30","latitude":"53.49601000","longitude":"17.25085000","population":2200,"timezone":"Europe/Warsaw","type":"adm3","translations":{"es":"Lipka","en":"Lipka"}},{"name":"Lipno","state_code":"30","latitude":"51.91722000","longitude":"16.56708000","population":1176,"timezone":"Europe/Warsaw","type":"adm3","translations":{"es":"Lipno","en":"Lipno"}},{"name":"Lisków","state_code":"30","latitude":"51.83313000","longitude":"18.39789000","population":1858,"timezone":"Europe/Warsaw","type":"city","translations":{"es":"Lisków","en":"Lisków"}},{"name":"Lubasz","state_code":"30","latitude":"52.85213000","longitude":"16.52344000","population":3198,"timezone":"Europe/Warsaw","type":"adm3","translations":{"es":"Lubasz","en":"Lubasz"}},{"name":"Luboń","state_code":"30","latitude":"52.34705000","longitude":"16.89267000","population":33024,"timezone":"Europe/Warsaw","type":"adm3","translations":{"es":"Luboń","en":"Luboń"}},{"name":"Lwówek","state_code":"30","latitude":"52.44798000","longitude":"16.18106000","population":2939,"timezone":"Europe/Warsaw","type":"adm3","translations":{"es":"Lwówek","en":"Lwówek"}},{"name":"Łęka Opatowska","state_code":"30","latitude":"51.21231000","longitude":"18.10710000","population":900,"timezone":"Europe/Warsaw","type":"adm3","translations":{"es":"Leka Opatowska","en":"Łęka Opatowska"}},{"name":"Łobżenica","state_code":"30","latitude":"53.26244000","longitude":"17.25574000","population":2853,"timezone":"Europe/Warsaw","type":"adm3","translations":{"es":"Łobzenica","en":"Łobżenica"}},{"name":"Łubowo","state_code":"30","latitude":"52.51168000","longitude":"17.45333000","population":1142,"timezone":"Europe/Warsaw","type":"adm3","translations":{"es":"Łubowo","en":"Łubowo"}},{"name":"Malanów","state_code":"30","latitude":"51.95358000","longitude":"18.39128000","population":1607,"timezone":"Europe/Warsaw","type":"city","translations":{"es":"Malanów","en":"Malanów"}},{"name":"Margonin","state_code":"30","latitude":"52.97335000","longitude":"17.09464000","population":3019,"timezone":"Europe/Warsaw","type":"adm3","translations":{"es":"Margonina","en":"Margonin"}},{"name":"Miasteczko Krajeńskie","state_code":"30","latitude":"53.09784000","longitude":"17.00478000","population":1080,"timezone":"Europe/Warsaw","type":"adm3","translations":{"es":"Miasteczko Krajeńskie","en":"Miasteczko Krajeńskie"}},{"name":"Miedzichowo","state_code":"30","latitude":"52.37581000","longitude":"15.95876000","population":431,"timezone":"Europe/Warsaw","type":"adm3","translations":{"es":"Miedzichowo","en":"Miedzichowo"}},{"name":"Międzychód","state_code":"30","latitude":"52.59882000","longitude":"15.89696000","population":10994,"timezone":"Europe/Warsaw","type":"adm2","translations":{"es":"Międzychód","en":"Międzychód"}},{"name":"Miejska Górka","state_code":"30","latitude":"51.65573000","longitude":"16.95826000","population":3152,"timezone":"Europe/Warsaw","type":"adm3","translations":{"es":"Miejska Górka","en":"Miejska Górka"}},{"name":"Mieleszyn","state_code":"30","latitude":"52.66868000","longitude":"17.49779000","population":763,"timezone":"Europe/Warsaw","type":"adm3","translations":{"es":"Mieleszyn","en":"Mieleszyn"}},{"name":"Mieścisko","state_code":"30","latitude":"52.74357000","longitude":"17.33213000","population":2361,"timezone":"Europe/Warsaw","type":"city","translations":{"es":"Mieścisko","en":"Mieścisko"}},{"name":"Mikstat","state_code":"30","latitude":"51.53236000","longitude":"17.97378000","population":1743,"timezone":"Europe/Warsaw","type":"adm3","translations":{"es":"Mikstat","en":"Mikstat"}},{"name":"Miłosław","state_code":"30","latitude":"52.20318000","longitude":"17.48955000","population":3560,"timezone":"Europe/Warsaw","type":"adm3","translations":{"es":"Miloslaw","en":"Miłosław"}},{"name":"Mosina","state_code":"30","latitude":"52.24543000","longitude":"16.84709000","population":14511,"timezone":"Europe/Warsaw","type":"adm3","translations":{"es":"Mosina","en":"Mosina"}},{"name":"Murowana Goślina","state_code":"30","latitude":"52.57463000","longitude":"17.00933000","population":10247,"timezone":"Europe/Warsaw","type":"adm3","translations":{"es":"Murowana Goślina","en":"Murowana Goślina"}},{"name":"Nekla","state_code":"30","latitude":"52.36496000","longitude":"17.41329000","population":3831,"timezone":"Europe/Warsaw","type":"adm3","translations":{"es":"Nekla","en":"Nekla"}},{"name":"Niechanowo","state_code":"30","latitude":"52.46527000","longitude":"17.67812000","population":2300,"timezone":"Europe/Warsaw","type":"adm3","translations":{"es":"Niechanowo","en":"Niechanowo"}},{"name":"Nowe Miasto nad Wartą","state_code":"30","latitude":"52.09007000","longitude":"17.41114000","population":1470,"timezone":"Europe/Warsaw","type":"city","translations":{"es":"Nowe Miasto nad Wartą","en":"Nowe Miasto nad Wartą"}},{"name":"Nowe Skalmierzyce","state_code":"30","latitude":"51.71038000","longitude":"17.99337000","population":4754,"timezone":"Europe/Warsaw","type":"adm3","translations":{"es":"Nuevas escalofríos","en":"Nowe Skalmierzyce"}},{"name":"Nowy Tomyśl","state_code":"30","latitude":"52.31950000","longitude":"16.12844000","population":15179,"timezone":"Europe/Warsaw","type":"adm3","translations":{"es":"Nuevo Tomyśl","en":"Nowy Tomyśl"}},{"name":"Oborniki","state_code":"30","latitude":"52.64739000","longitude":"16.81406000","population":17629,"timezone":"Europe/Warsaw","type":"adm3","translations":{"es":"Oborniki","en":"Oborniki"}},{"name":"Obrzycko","state_code":"30","latitude":"52.70338000","longitude":"16.52807000","population":2379,"timezone":"Europe/Warsaw","type":"adm3","translations":{"es":"Obrzycko","en":"Obrzycko"}},{"name":"Odolanów","state_code":"30","latitude":"51.57419000","longitude":"17.67434000","population":5011,"timezone":"Europe/Warsaw","type":"adm3","translations":{"es":"Odolanów","en":"Odolanów"}},{"name":"Okonek","state_code":"30","latitude":"53.53618000","longitude":"16.85158000","population":3686,"timezone":"Europe/Warsaw","type":"adm3","translations":{"es":"Okonek","en":"Okonek"}},{"name":"Olszówka","state_code":"30","latitude":"52.19030000","longitude":"18.86258000","population":354,"timezone":"Europe/Warsaw","type":"adm3","translations":{"es":"Olszówka","en":"Olszówka"}},{"name":"Opalenica","state_code":"30","latitude":"52.30887000","longitude":"16.41278000","population":9360,"timezone":"Europe/Warsaw","type":"adm3","translations":{"es":"Opalenica","en":"Opalenica"}},{"name":"Opatów","state_code":"30","latitude":"51.21463000","longitude":"18.14615000","population":1164,"timezone":"Europe/Warsaw","type":"city","translations":{"es":"Opatów","en":"Opatów"}},{"name":"Opatówek","state_code":"30","latitude":"51.73989000","longitude":"18.21653000","population":3575,"timezone":"Europe/Warsaw","type":"city","translations":{"es":"Opatówek","en":"Opatówek"}},{"name":"Orchowo","state_code":"30","latitude":"52.50938000","longitude":"18.01578000","population":1338,"timezone":"Europe/Warsaw","type":"adm3","translations":{"es":"Orchowo","en":"Orchowo"}},{"name":"Osieczna","state_code":"30","latitude":"51.90420000","longitude":"16.67862000","population":2425,"timezone":"Europe/Warsaw","type":"adm3","translations":{"es":"Osieczna","en":"Osieczna"}},{"name":"Osiek Mały","state_code":"30","latitude":"52.27630000","longitude":"18.60234000","population":630,"timezone":"Europe/Warsaw","type":"adm3","translations":{"es":"Osiek Mały","en":"Osiek Mały"}},{"name":"Osiek nad Notecią","state_code":"30","latitude":"53.12030000","longitude":"17.29102000","population":4000,"timezone":"Europe/Warsaw","type":"city","translations":{"es":"Osiek nad Notecią","en":"Osiek nad Notecią"}},{"name":"Ostroróg","state_code":"30","latitude":"52.62650000","longitude":"16.44988000","population":1878,"timezone":"Europe/Warsaw","type":"adm3","translations":{"es":"Ostroróg","en":"Ostroróg"}},{"name":"Ostrów Wielkopolski","state_code":"30","latitude":"51.65501000","longitude":"17.80686000","population":70725,"timezone":"Europe/Warsaw","type":"adm2","translations":{"es":"Ostrów Wielkopolski","en":"Ostrów Wielkopolski"}},{"name":"Ostrowite","state_code":"30","latitude":"52.38199000","longitude":"18.04470000","population":582,"timezone":"Europe/Warsaw","type":"adm3","translations":{"es":"Ostrowita","en":"Ostrowite"}},{"name":"Ostrzeszów","state_code":"30","latitude":"51.42640000","longitude":"17.93355000","population":14036,"timezone":"Europe/Warsaw","type":"adm2","translations":{"es":"Ostrzeszów","en":"Ostrzeszów"}},{"name":"Pakosław","state_code":"30","latitude":"51.61438000","longitude":"17.05793000","population":1158,"timezone":"Europe/Warsaw","type":"city","translations":{"es":"Pakosław","en":"Pakosław"}},{"name":"Pamiątkowo","state_code":"30","latitude":"52.55334000","longitude":"16.68094000","population":1200,"timezone":"Europe/Warsaw","type":"city","translations":{"es":"Pamiątkowo","en":"Pamiątkowo"}},{"name":"Pecna","state_code":"30","latitude":"52.18333000","longitude":"16.80000000","population":1825,"timezone":"Europe/Warsaw","type":"city","translations":{"es":"Pecna","en":"Pecna"}},{"name":"Pępowo","state_code":"30","latitude":"51.76569000","longitude":"17.12661000","population":1780,"timezone":"Europe/Warsaw","type":"adm3","translations":{"es":"Pępowo","en":"Pępowo"}},{"name":"Perzów","state_code":"30","latitude":"51.27625000","longitude":"17.80970000","population":941,"timezone":"Europe/Warsaw","type":"adm3","translations":{"es":"Perzów","en":"Perzów"}},{"name":"Piaski","state_code":"30","latitude":"51.88497000","longitude":"17.07293000","population":3157,"timezone":"Europe/Warsaw","type":"adm3","translations":{"es":"Piaski","en":"Piaski"}},{"name":"Piła","state_code":"30","latitude":"53.15145000","longitude":"16.73782000","population":71735,"timezone":"Europe/Warsaw","type":"adm2","translations":{"es":"Pila","en":"Piła"}},{"name":"Pleszew","state_code":"30","latitude":"51.89636000","longitude":"17.78549000","population":16641,"timezone":"Europe/Warsaw","type":"adm2","translations":{"es":"Pleszew","en":"Pleszew"}},{"name":"Plewiska","state_code":"30","latitude":"52.36706000","longitude":"16.80985000","population":5861,"timezone":"Europe/Warsaw","type":"city","translations":{"es":"Plewiska","en":"Plewiska"}},{"name":"Pniewy","state_code":"30","latitude":"52.50943000","longitude":"16.25668000","population":8161,"timezone":"Europe/Warsaw","type":"adm3","translations":{"es":"Pniewy","en":"Pniewy"}},{"name":"Pobiedziska","state_code":"30","latitude":"52.47753000","longitude":"17.28767000","population":9755,"timezone":"Europe/Warsaw","type":"adm3","translations":{"es":"Pobiedziska","en":"Pobiedziska"}},{"name":"Pogorzela","state_code":"30","latitude":"51.82220000","longitude":"17.23017000","population":2048,"timezone":"Europe/Warsaw","type":"adm3","translations":{"es":"Pogorzela","en":"Pogorzela"}},{"name":"Połajewo","state_code":"30","latitude":"52.79923000","longitude":"16.73347000","population":2237,"timezone":"Europe/Warsaw","type":"adm3","translations":{"es":"Połajewo","en":"Połajewo"}},{"name":"Poniec","state_code":"30","latitude":"51.76343000","longitude":"16.80867000","population":2945,"timezone":"Europe/Warsaw","type":"adm3","translations":{"es":"Poniec","en":"Poniec"}},{"name":"Powidz","state_code":"30","latitude":"52.41362000","longitude":"17.91926000","population":1000,"timezone":"Europe/Warsaw","type":"adm3","translations":{"es":"Polvo","en":"Powidz"}},{"name":"Poznań","state_code":"30","latitude":"52.40692000","longitude":"16.92993000","population":546859,"timezone":"Europe/Warsaw","type":"adm1","translations":{"es":"Poznan","en":"Poznań"}},{"name":"Przedecz","state_code":"30","latitude":"52.33440000","longitude":"18.89915000","population":1566,"timezone":"Europe/Warsaw","type":"adm3","translations":{"es":"Przedecz","en":"Przedecz"}},{"name":"Przemęt","state_code":"30","latitude":"52.00808000","longitude":"16.30114000","population":1672,"timezone":"Europe/Warsaw","type":"adm3","translations":{"es":"Przemęt","en":"Przemęt"}},{"name":"Przygodzice","state_code":"30","latitude":"51.59195000","longitude":"17.82412000","population":3000,"timezone":"Europe/Warsaw","type":"adm3","translations":{"es":"Przygodzice","en":"Przygodzice"}},{"name":"Przykona","state_code":"30","latitude":"51.98171000","longitude":"18.61247000","population":520,"timezone":"Europe/Warsaw","type":"adm3","translations":{"es":"Przykona","en":"Przykona"}},{"name":"Puszczykowo","state_code":"30","latitude":"52.28570000","longitude":"16.84925000","population":9470,"timezone":"Europe/Warsaw","type":"adm3","translations":{"es":"Puszczykowo","en":"Puszczykowo"}},{"name":"Pyzdry","state_code":"30","latitude":"52.17056000","longitude":"17.69005000","population":3014,"timezone":"Europe/Warsaw","type":"adm3","translations":{"es":"Pyzdry","en":"Pyzdry"}},{"name":"Rakoniewice","state_code":"30","latitude":"52.13906000","longitude":"16.27346000","population":3658,"timezone":"Europe/Warsaw","type":"adm3","translations":{"es":"Rakoniewice","en":"Rakoniewice"}},{"name":"Raszków","state_code":"30","latitude":"51.71828000","longitude":"17.72571000","population":2130,"timezone":"Europe/Warsaw","type":"adm3","translations":{"es":"Raszków","en":"Raszków"}},{"name":"Rawicz","state_code":"30","latitude":"51.60946000","longitude":"16.85852000","population":20305,"timezone":"Europe/Warsaw","type":"adm2","translations":{"es":"Rawicz","en":"Rawicz"}},{"name":"Rogalinek","state_code":"30","latitude":"52.24945000","longitude":"16.89989000","population":1676,"timezone":"Europe/Warsaw","type":"city","translations":{"es":"Rogalinek","en":"Rogalinek"}},{"name":"Rogoźno","state_code":"30","latitude":"52.75226000","longitude":"16.99049000","population":10859,"timezone":"Europe/Warsaw","type":"adm3","translations":{"es":"Rogoźno","en":"Rogoźno"}},{"name":"Rokietnica","state_code":"30","latitude":"52.51245000","longitude":"16.74570000","population":1900,"timezone":"Europe/Warsaw","type":"adm3","translations":{"es":"Rokietnica","en":"Rokietnica"}},{"name":"Rozdrażew","state_code":"30","latitude":"51.78218000","longitude":"17.50491000","population":1680,"timezone":"Europe/Warsaw","type":"adm3","translations":{"es":"Rozdrażew","en":"Rozdrażew"}},{"name":"Rychtal","state_code":"30","latitude":"51.14533000","longitude":"17.85132000","population":1343,"timezone":"Europe/Warsaw","type":"adm3","translations":{"es":"Rychtal","en":"Rychtal"}},{"name":"Rychwał","state_code":"30","latitude":"52.07149000","longitude":"18.16510000","population":2402,"timezone":"Europe/Warsaw","type":"adm3","translations":{"es":"Rychwał","en":"Rychwał"}},{"name":"Ryczywół","state_code":"30","latitude":"52.81324000","longitude":"16.83114000","population":2000,"timezone":"Europe/Warsaw","type":"adm3","translations":{"es":"Ryczywół","en":"Ryczywół"}},{"name":"Rydzyna","state_code":"30","latitude":"51.78651000","longitude":"16.66761000","population":2878,"timezone":"Europe/Warsaw","type":"adm3","translations":{"es":"Rydzyna","en":"Rydzyna"}},{"name":"Rzgów Pierwszy","state_code":"30","latitude":"52.15134000","longitude":"18.04976000","population":660,"timezone":"Europe/Warsaw","type":"adm3","translations":{"es":"Rzgów Pierwszy","en":"Rzgów Pierwszy"}},{"name":"Siedlec","state_code":"30","latitude":"52.13781000","longitude":"16.00279000","population":1200,"timezone":"Europe/Warsaw","type":"adm3","translations":{"es":"Siedlec","en":"Siedlec"}},{"name":"Sieraków","state_code":"30","latitude":"52.65134000","longitude":"16.08047000","population":5930,"timezone":"Europe/Warsaw","type":"adm3","translations":{"es":"Sieraków","en":"Sieraków"}},{"name":"Sieroszewice","state_code":"30","latitude":"51.63347000","longitude":"17.97200000","population":1014,"timezone":"Europe/Warsaw","type":"adm3","translations":{"es":"Sieroszewice","en":"Sieroszewice"}},{"name":"Skalmierzyce","state_code":"30","latitude":"51.70097000","longitude":"17.96333000","population":2212,"timezone":"Europe/Warsaw","type":"city","translations":{"es":"Skalmierzyce","en":"Skalmierzyce"}},{"name":"Skoki","state_code":"30","latitude":"52.67222000","longitude":"17.16107000","population":4634,"timezone":"Europe/Warsaw","type":"adm3","translations":{"es":"Skoki","en":"Skoki"}},{"name":"Skulsk","state_code":"30","latitude":"52.48200000","longitude":"18.33112000","population":1400,"timezone":"Europe/Warsaw","type":"adm3","translations":{"es":"Skulsk","en":"Skulsk"}},{"name":"Ślesin","state_code":"30","latitude":"52.37039000","longitude":"18.30644000","population":3179,"timezone":"Europe/Warsaw","type":"adm3","translations":{"es":"Ślesin","en":"Ślesin"}},{"name":"Słupca","state_code":"30","latitude":"52.28733000","longitude":"17.87192000","population":13353,"timezone":"Europe/Warsaw","type":"adm2","translations":{"es":"Słupca","en":"Słupca"}},{"name":"Słupia pod Kępnem","state_code":"30","latitude":"51.23924000","longitude":"18.04255000","population":1436,"timezone":"Europe/Warsaw","type":"city","translations":{"es":"Słupia pod Kępnem","en":"Słupia pod Kępnem"}},{"name":"Śmigiel","state_code":"30","latitude":"52.01339000","longitude":"16.52704000","population":5648,"timezone":"Europe/Warsaw","type":"adm3","translations":{"es":"Śmigiel","en":"Śmigiel"}},{"name":"Śmiłowo","state_code":"30","latitude":"53.13647000","longitude":"16.92075000","population":1145,"timezone":"Europe/Warsaw","type":"city","translations":{"es":"Śmiłowo","en":"Śmiłowo"}},{"name":"Sompolno","state_code":"30","latitude":"52.38832000","longitude":"18.50282000","population":3429,"timezone":"Europe/Warsaw","type":"adm3","translations":{"es":"Sompolno","en":"Sompolno"}},{"name":"Sośnie","state_code":"30","latitude":"51.47315000","longitude":"17.63383000","population":1300,"timezone":"Europe/Warsaw","type":"adm3","translations":{"es":"Sośnie","en":"Sośnie"}},{"name":"Śrem","state_code":"30","latitude":"52.08868000","longitude":"17.01508000","population":28835,"timezone":"Europe/Warsaw","type":"adm2","translations":{"es":"Śrem","en":"Śrem"}},{"name":"Środa Wielkopolska","state_code":"30","latitude":"52.22843000","longitude":"17.27617000","population":24225,"timezone":"Europe/Warsaw","type":"adm2","translations":{"es":"Środa Wielkopolska","en":"Środa Wielkopolska"}},{"name":"Stare Miasto","state_code":"30","latitude":"52.17972000","longitude":"18.21499000","population":1500,"timezone":"Europe/Warsaw","type":"adm3","translations":{"es":"Stare Miasto","en":"Stare Miasto"}},{"name":"Stawiszyn","state_code":"30","latitude":"51.91786000","longitude":"18.11171000","population":1425,"timezone":"Europe/Warsaw","type":"city","translations":{"es":"Stawiszyn","en":"Stawiszyn"}},{"name":"Stęszew","state_code":"30","latitude":"52.28370000","longitude":"16.70085000","population":5964,"timezone":"Europe/Warsaw","type":"city","translations":{"es":"Stęszew","en":"Stęszew"}},{"name":"Strzałkowo","state_code":"30","latitude":"52.30701000","longitude":"17.81811000","population":5140,"timezone":"Europe/Warsaw","type":"adm3","translations":{"es":"Strzałkowo","en":"Strzałkowo"}},{"name":"Suchy Las","state_code":"30","latitude":"52.47308000","longitude":"16.87745000","population":4367,"timezone":"Europe/Warsaw","type":"adm3","translations":{"es":"Suchy Las","en":"Suchy Las"}},{"name":"Sulmierzyce","state_code":"30","latitude":"51.60594000","longitude":"17.53053000","population":2829,"timezone":"Europe/Warsaw","type":"city","translations":{"es":"Sulmierzyce","en":"Sulmierzyce"}},{"name":"Swarzędz","state_code":"30","latitude":"52.41289000","longitude":"17.08503000","population":29295,"timezone":"Europe/Warsaw","type":"adm3","translations":{"es":"Swarzędz","en":"Swarzędz"}},{"name":"Święciechowa","state_code":"30","latitude":"51.85503000","longitude":"16.49805000","population":2640,"timezone":"Europe/Warsaw","type":"adm3","translations":{"es":"Święciechowa","en":"Święciechowa"}},{"name":"Sypniewo","state_code":"30","latitude":"53.46823000","longitude":"16.60583000","population":1199,"timezone":"Europe/Warsaw","type":"city","translations":{"es":"Sypniewo","en":"Sypniewo"}},{"name":"Szamocin","state_code":"30","latitude":"53.02795000","longitude":"17.12653000","population":4007,"timezone":"Europe/Warsaw","type":"adm3","translations":{"es":"Szamocin","en":"Szamocin"}},{"name":"Szamotuły","state_code":"30","latitude":"52.61201000","longitude":"16.57794000","population":18398,"timezone":"Europe/Warsaw","type":"adm2","translations":{"es":"Szamotuły","en":"Szamotuły"}},{"name":"Szydłowo","state_code":"30","latitude":"53.16212000","longitude":"16.61171000","population":750,"timezone":"Europe/Warsaw","type":"adm3","translations":{"es":"Szydłowo","en":"Szydłowo"}},{"name":"Tarnówka","state_code":"30","latitude":"53.34174000","longitude":"16.85273000","population":1300,"timezone":"Europe/Warsaw","type":"city","translations":{"es":"Tarnówka","en":"Tarnówka"}},{"name":"Tarnowo Podgórne","state_code":"30","latitude":"52.46642000","longitude":"16.66326000","population":4235,"timezone":"Europe/Warsaw","type":"adm3","translations":{"es":"Tarnowo Podgórne","en":"Tarnowo Podgórne"}},{"name":"Trzcianka","state_code":"30","latitude":"53.04063000","longitude":"16.45629000","population":16831,"timezone":"Europe/Warsaw","type":"adm3","translations":{"es":"Trzcianka","en":"Trzcianka"}},{"name":"Trzcinica","state_code":"30","latitude":"51.16707000","longitude":"18.00453000","population":1158,"timezone":"Europe/Warsaw","type":"adm3","translations":{"es":"Trzcinica","en":"Trzcinica"}},{"name":"Trzemeszno","state_code":"30","latitude":"52.56139000","longitude":"17.82311000","population":7840,"timezone":"Europe/Warsaw","type":"adm3","translations":{"es":"Trzemeszno","en":"Trzemeszno"}},{"name":"Tuliszków","state_code":"30","latitude":"52.07658000","longitude":"18.29549000","population":3120,"timezone":"Europe/Warsaw","type":"adm3","translations":{"es":"Tuliszków","en":"Tuliszków"}},{"name":"Turek","state_code":"30","latitude":"52.01548000","longitude":"18.50055000","population":29533,"timezone":"Europe/Warsaw","type":"adm2","translations":{"es":"Turek","en":"Turek"}},{"name":"Ujście","state_code":"30","latitude":"53.05339000","longitude":"16.73201000","population":3488,"timezone":"Europe/Warsaw","type":"adm3","translations":{"es":"Ujście","en":"Ujście"}},{"name":"Wągrowiec","state_code":"30","latitude":"52.80842000","longitude":"17.19961000","population":25773,"timezone":"Europe/Warsaw","type":"city","translations":{"es":"Wągrowiec","en":"Wągrowiec"}},{"name":"Wapno","state_code":"30","latitude":"52.90804000","longitude":"17.47504000","population":1445,"timezone":"Europe/Warsaw","type":"adm3","translations":{"es":"Wapno","en":"Wapno"}},{"name":"Wieleń","state_code":"30","latitude":"52.89461000","longitude":"16.17136000","population":5878,"timezone":"Europe/Warsaw","type":"adm3","translations":{"es":"Wieleń","en":"Wieleń"}},{"name":"Wielichowo","state_code":"30","latitude":"52.11573000","longitude":"16.35180000","population":1725,"timezone":"Europe/Warsaw","type":"adm3","translations":{"es":"Wielichowo","en":"Wielichowo"}},{"name":"Wierzbinek","state_code":"30","latitude":"52.44026000","longitude":"18.51085000","population":380,"timezone":"Europe/Warsaw","type":"adm3","translations":{"es":"Wierzbinek","en":"Wierzbinek"}},{"name":"Wijewo","state_code":"30","latitude":"51.91627000","longitude":"16.18552000","population":1407,"timezone":"Europe/Warsaw","type":"adm3","translations":{"es":"Wijewo","en":"Wijewo"}},{"name":"Wilczogóra","state_code":"30","latitude":"52.47348000","longitude":"18.16744000","population":1305,"timezone":"Europe/Warsaw","type":"city","translations":{"es":"Wilczogóra","en":"Wilczogóra"}},{"name":"Wilczyn","state_code":"30","latitude":"52.48816000","longitude":"18.16126000","population":1207,"timezone":"Europe/Warsaw","type":"adm3","translations":{"es":"Wilczyn","en":"Wilczyn"}},{"name":"Wilkowice","state_code":"30","latitude":"51.88513000","longitude":"16.53417000","population":1589,"timezone":"Europe/Warsaw","type":"city","translations":{"es":"Wilkowice","en":"Wilkowice"}},{"name":"Witaszyce","state_code":"30","latitude":"51.94151000","longitude":"17.56182000","population":3967,"timezone":"Europe/Warsaw","type":"city","translations":{"es":"Witaszyce","en":"Witaszyce"}},{"name":"Witkowo","state_code":"30","latitude":"52.43964000","longitude":"17.77264000","population":7623,"timezone":"Europe/Warsaw","type":"adm3","translations":{"es":"Witkowo","en":"Witkowo"}},{"name":"Władysławów","state_code":"30","latitude":"52.10313000","longitude":"18.47626000","population":1646,"timezone":"Europe/Warsaw","type":"adm3","translations":{"es":"Władysławów","en":"Władysławów"}},{"name":"Włoszakowice","state_code":"30","latitude":"51.92754000","longitude":"16.36456000","population":3159,"timezone":"Europe/Warsaw","type":"adm3","translations":{"es":"Wloszakowice","en":"Włoszakowice"}},{"name":"Wolsztyn","state_code":"30","latitude":"52.11552000","longitude":"16.11712000","population":12504,"timezone":"Europe/Warsaw","type":"adm2","translations":{"es":"Wolsztyn","en":"Wolsztyn"}},{"name":"Wronki","state_code":"30","latitude":"52.71051000","longitude":"16.38044000","population":10918,"timezone":"Europe/Warsaw","type":"adm3","translations":{"es":"Wronki","en":"Wronki"}},{"name":"Września","state_code":"30","latitude":"52.32512000","longitude":"17.56519000","population":31986,"timezone":"Europe/Warsaw","type":"adm2","translations":{"es":"Września","en":"Września"}},{"name":"Wyrzysk","state_code":"30","latitude":"53.15300000","longitude":"17.26802000","population":5085,"timezone":"Europe/Warsaw","type":"adm3","translations":{"es":"Wyrzysk","en":"Wyrzysk"}},{"name":"Wysoka","state_code":"30","latitude":"53.18091000","longitude":"17.08353000","population":2728,"timezone":"Europe/Warsaw","type":"adm3","translations":{"es":"Wysoka","en":"Wysoka"}},{"name":"Zagórów","state_code":"30","latitude":"52.16835000","longitude":"17.89561000","population":2861,"timezone":"Europe/Warsaw","type":"adm3","translations":{"es":"Zagórów","en":"Zagórów"}},{"name":"Zakrzewo","state_code":"30","latitude":"53.41186000","longitude":"17.15472000","population":1860,"timezone":"Europe/Warsaw","type":"city","translations":{"es":"Zakrzewo","en":"Zakrzewo"}},{"name":"Zaniemyśl","state_code":"30","latitude":"52.15561000","longitude":"17.16228000","population":2583,"timezone":"Europe/Warsaw","type":"adm3","translations":{"es":"Zaniemyśl","en":"Zaniemyśl"}},{"name":"Zbąszyń","state_code":"30","latitude":"52.25090000","longitude":"15.92520000","population":7209,"timezone":"Europe/Warsaw","type":"adm3","translations":{"es":"Zbąszyń","en":"Zbąszyń"}},{"name":"Zduny","state_code":"30","latitude":"51.64580000","longitude":"17.37694000","population":4498,"timezone":"Europe/Warsaw","type":"adm3","translations":{"es":"Zduny","en":"Zduny"}},{"name":"Żelazków","state_code":"30","latitude":"51.85418000","longitude":"18.17430000","population":1250,"timezone":"Europe/Warsaw","type":"city","translations":{"es":"Żelazków","en":"Żelazków"}},{"name":"Żerków","state_code":"30","latitude":"52.06877000","longitude":"17.56349000","population":2078,"timezone":"Europe/Warsaw","type":"adm3","translations":{"es":"Żerków","en":"Żerków"}},{"name":"Złotniki","state_code":"30","latitude":"52.49407000","longitude":"16.84496000","population":1100,"timezone":"Europe/Warsaw","type":"city","translations":{"es":"Zlotniki","en":"Złotniki"}},{"name":"Złotów","state_code":"30","latitude":"53.36346000","longitude":"17.04082000","population":18768,"timezone":"Europe/Warsaw","type":"adm3","translations":{"es":"Zlotów","en":"Złotów"}},{"name":"Baćkowice","state_code":"26","latitude":"50.79194000","longitude":"21.23211000","population":574,"timezone":"Europe/Warsaw","type":"adm3","translations":{"es":"Baćkowice","en":"Baćkowice"}},{"name":"Bałtów","state_code":"26","latitude":"51.01845000","longitude":"21.54385000","population":740,"timezone":"Europe/Warsaw","type":"adm3","translations":{"es":"Bałtów","en":"Bałtów"}},{"name":"Bejsce","state_code":"26","latitude":"50.23903000","longitude":"20.59834000","population":728,"timezone":"Europe/Warsaw","type":"adm3","translations":{"es":"Bejsce","en":"Bejsce"}},{"name":"Bieliny","state_code":"26","latitude":"50.84947000","longitude":"20.94149000","population":1900,"timezone":"Europe/Warsaw","type":"adm3","translations":{"es":"Bieliny","en":"Bieliny"}},{"name":"Bliżyn","state_code":"26","latitude":"51.10778000","longitude":"20.75935000","population":1653,"timezone":"Europe/Warsaw","type":"adm3","translations":{"es":"Bliżyn","en":"Bliżyn"}},{"name":"Bodzentyn","state_code":"26","latitude":"50.94115000","longitude":"20.95719000","population":2156,"timezone":"Europe/Warsaw","type":"adm3","translations":{"es":"Bodzentyn","en":"Bodzentyn"}},{"name":"Bogoria","state_code":"26","latitude":"50.65175000","longitude":"21.26000000","population":1076,"timezone":"Europe/Warsaw","type":"adm3","translations":{"es":"Bogoria","en":"Bogoria"}},{"name":"Brody","state_code":"26","latitude":"51.02466000","longitude":"21.22147000","population":1737,"timezone":"Europe/Warsaw","type":"adm3","translations":{"es":"Brody","en":"Brody"}},{"name":"Brzeziny","state_code":"26","latitude":"50.77273000","longitude":"20.57319000","population":2015,"timezone":"Europe/Warsaw","type":"city","translations":{"es":"Brzeziny","en":"Brzeziny"}},{"name":"Busko-Zdrój","state_code":"26","latitude":"50.47078000","longitude":"20.71884000","population":15014,"timezone":"Europe/Warsaw","type":"adm2","translations":{"es":"Busko-Zdrój","en":"Busko-Zdrój"}},{"name":"Chęciny","state_code":"26","latitude":"50.80021000","longitude":"20.46229000","population":4252,"timezone":"Europe/Warsaw","type":"adm3","translations":{"es":"Checiny","en":"Chęciny"}},{"name":"Chmielnik","state_code":"26","latitude":"50.61440000","longitude":"20.75206000","population":4166,"timezone":"Europe/Warsaw","type":"adm3","translations":{"es":"Chmielnik","en":"Chmielnik"}},{"name":"Ćmielów","state_code":"26","latitude":"50.89028000","longitude":"21.51426000","population":2876,"timezone":"Europe/Warsaw","type":"adm3","translations":{"es":"Ćmielów","en":"Ćmielów"}},{"name":"Czarnocin","state_code":"26","latitude":"50.34080000","longitude":"20.51620000","population":410,"timezone":"Europe/Warsaw","type":"adm3","translations":{"es":"Czarnocin","en":"Czarnocin"}},{"name":"Daleszyce","state_code":"26","latitude":"50.80229000","longitude":"20.80791000","population":2835,"timezone":"Europe/Warsaw","type":"adm3","translations":{"es":"Daleszyce","en":"Daleszyce"}},{"name":"Domaszowice","state_code":"26","latitude":"50.87488000","longitude":"20.68288000","population":1003,"timezone":"Europe/Warsaw","type":"city","translations":{"es":"Domaszowice","en":"Domaszowice"}},{"name":"Dwikozy","state_code":"26","latitude":"50.73613000","longitude":"21.78864000","population":1687,"timezone":"Europe/Warsaw","type":"adm3","translations":{"es":"Dwikozy","en":"Dwikozy"}},{"name":"Działoszyce","state_code":"26","latitude":"50.36534000","longitude":"20.35226000","population":881,"timezone":"Europe/Warsaw","type":"adm3","translations":{"es":"Działoszyce","en":"Działoszyce"}},{"name":"Fałków","state_code":"26","latitude":"51.13606000","longitude":"20.10610000","population":994,"timezone":"Europe/Warsaw","type":"adm3","translations":{"es":"Fałków","en":"Fałków"}},{"name":"Gnojno","state_code":"26","latitude":"50.60263000","longitude":"20.84913000","population":760,"timezone":"Europe/Warsaw","type":"adm3","translations":{"es":"Gnojno","en":"Gnojno"}},{"name":"Górno","state_code":"26","latitude":"50.84774000","longitude":"20.82501000","population":1500,"timezone":"Europe/Warsaw","type":"adm3","translations":{"es":"Górno","en":"Górno"}},{"name":"Gowarczów","state_code":"26","latitude":"51.27845000","longitude":"20.43835000","population":1345,"timezone":"Europe/Warsaw","type":"adm3","translations":{"es":"Gowarczów","en":"Gowarczów"}},{"name":"Grzybowa Góra","state_code":"26","latitude":"51.13326000","longitude":"20.96174000","population":857,"timezone":"Europe/Warsaw","type":"city","translations":{"es":"Grzybowa Góra","en":"Grzybowa Góra"}},{"name":"Imielno","state_code":"26","latitude":"50.58569000","longitude":"20.44813000","population":300,"timezone":"Europe/Warsaw","type":"adm3","translations":{"es":"Imielno","en":"Imielno"}},{"name":"Iwaniska","state_code":"26","latitude":"50.73146000","longitude":"21.28060000","population":1236,"timezone":"Europe/Warsaw","type":"adm3","translations":{"es":"Iwaniska","en":"Iwaniska"}},{"name":"Jędrzejów","state_code":"26","latitude":"50.63945000","longitude":"20.30454000","population":16792,"timezone":"Europe/Warsaw","type":"adm2","translations":{"es":"Jędrzejów","en":"Jędrzejów"}},{"name":"Kaniów","state_code":"26","latitude":"50.98577000","longitude":"20.66391000","population":1257,"timezone":"Europe/Warsaw","type":"city","translations":{"es":"Kaniów","en":"Kaniów"}},{"name":"Kazimierza Wielka","state_code":"26","latitude":"50.26564000","longitude":"20.49358000","population":5212,"timezone":"Europe/Warsaw","type":"adm2","translations":{"es":"Kazimierza Wielka","en":"Kazimierza Wielka"}},{"name":"Kielce","state_code":"26","latitude":"50.87033000","longitude":"20.62752000","population":186894,"timezone":"Europe/Warsaw","type":"adm1","translations":{"es":"Kielce","en":"Kielce"}},{"name":"Kije","state_code":"26","latitude":"50.60721000","longitude":"20.57121000","population":452,"timezone":"Europe/Warsaw","type":"adm3","translations":{"es":"Kije","en":"Kije"}},{"name":"Klimontów","state_code":"26","latitude":"50.65588000","longitude":"21.45587000","population":2000,"timezone":"Europe/Warsaw","type":"adm3","translations":{"es":"Klimontów","en":"Klimontów"}},{"name":"Końskie","state_code":"26","latitude":"51.19166000","longitude":"20.40607000","population":18201,"timezone":"Europe/Warsaw","type":"adm2","translations":{"es":"Końskie","en":"Końskie"}},{"name":"Koprzywnica","state_code":"26","latitude":"50.59340000","longitude":"21.58380000","population":2389,"timezone":"Europe/Warsaw","type":"adm3","translations":{"es":"Koprzywnica","en":"Koprzywnica"}},{"name":"Kostomłoty Drugie","state_code":"26","latitude":"50.92684000","longitude":"20.56529000","population":1691,"timezone":"Europe/Warsaw","type":"city","translations":{"es":"Drogadicto disfrazado","en":"Kostomłoty Drugie"}},{"name":"Kostomłoty Pierwsze","state_code":"26","latitude":"50.92322000","longitude":"20.59490000","population":1963,"timezone":"Europe/Warsaw","type":"section","translations":{"es":"Kostomłoty Pierwsze","en":"Kostomłoty Pierwsze"}},{"name":"Krasocin","state_code":"26","latitude":"50.88874000","longitude":"20.11863000","population":1123,"timezone":"Europe/Warsaw","type":"city","translations":{"es":"Krasocin","en":"Krasocin"}},{"name":"Kunów","state_code":"26","latitude":"50.96156000","longitude":"21.28058000","population":2782,"timezone":"Europe/Warsaw","type":"adm3","translations":{"es":"Kunów","en":"Kunów"}},{"name":"Lipnik","state_code":"26","latitude":"50.72977000","longitude":"21.49389000","population":400,"timezone":"Europe/Warsaw","type":"adm3","translations":{"es":"Lipnik","en":"Lipnik"}},{"name":"Łączna","state_code":"26","latitude":"51.00231000","longitude":"20.79712000","population":780,"timezone":"Europe/Warsaw","type":"adm3","translations":{"es":"Laczna","en":"Łączna"}},{"name":"Łagów","state_code":"26","latitude":"50.77517000","longitude":"21.08431000","population":1630,"timezone":"Europe/Warsaw","type":"adm3","translations":{"es":"Lagów","en":"Łagów"}},{"name":"Łoniów","state_code":"26","latitude":"50.56443000","longitude":"21.52599000","population":450,"timezone":"Europe/Warsaw","type":"adm3","translations":{"es":"Loniów","en":"Łoniów"}},{"name":"Łopuszno","state_code":"26","latitude":"50.94864000","longitude":"20.25081000","population":1395,"timezone":"Europe/Warsaw","type":"adm3","translations":{"es":"Lopuszno","en":"Łopuszno"}},{"name":"Łubnice","state_code":"26","latitude":"50.41164000","longitude":"21.15014000","population":310,"timezone":"Europe/Warsaw","type":"adm3","translations":{"es":"Łubnice","en":"Łubnice"}},{"name":"Małogoszcz","state_code":"26","latitude":"50.81214000","longitude":"20.26407000","population":3519,"timezone":"Europe/Warsaw","type":"adm3","translations":{"es":"Małogoszcz","en":"Małogoszcz"}},{"name":"Masłów","state_code":"26","latitude":"50.90065000","longitude":"20.72322000","population":1528,"timezone":"Europe/Warsaw","type":"adm3","translations":{"es":"Maslów","en":"Masłów"}},{"name":"Michałów","state_code":"26","latitude":"50.49541000","longitude":"20.46178000","population":1133,"timezone":"Europe/Warsaw","type":"adm3","translations":{"es":"Miguel","en":"Michałów"}},{"name":"Miedziana Góra","state_code":"26","latitude":"50.93680000","longitude":"20.55096000","population":2317,"timezone":"Europe/Warsaw","type":"adm3","translations":{"es":"Miedziana Góra","en":"Miedziana Góra"}},{"name":"Mirzec","state_code":"26","latitude":"51.13466000","longitude":"21.05710000","population":2100,"timezone":"Europe/Warsaw","type":"adm3","translations":{"es":"Mirzec","en":"Mirzec"}},{"name":"Mniów","state_code":"26","latitude":"51.01224000","longitude":"20.48427000","population":1837,"timezone":"Europe/Warsaw","type":"adm3","translations":{"es":"Mniów","en":"Mniów"}},{"name":"Morawica","state_code":"26","latitude":"50.74678000","longitude":"20.61756000","population":1723,"timezone":"Europe/Warsaw","type":"adm3","translations":{"es":"Morawica","en":"Morawica"}},{"name":"Nagłowice","state_code":"26","latitude":"50.67835000","longitude":"20.10661000","population":950,"timezone":"Europe/Warsaw","type":"adm3","translations":{"es":"Nagłowice","en":"Nagłowice"}},{"name":"Nowa Słupia","state_code":"26","latitude":"50.86432000","longitude":"21.09049000","population":1346,"timezone":"Europe/Warsaw","type":"adm3","translations":{"es":"Nueva Eslovaquia","en":"Nowa Słupia"}},{"name":"Nowy Korczyn","state_code":"26","latitude":"50.30124000","longitude":"20.80759000","population":903,"timezone":"Europe/Warsaw","type":"adm3","translations":{"es":"Nowy Korczyn","en":"Nowy Korczyn"}},{"name":"Obrazów","state_code":"26","latitude":"50.69276000","longitude":"21.65045000","population":437,"timezone":"Europe/Warsaw","type":"adm3","translations":{"es":"Obrazów","en":"Obrazów"}},{"name":"Oksa","state_code":"26","latitude":"50.72874000","longitude":"20.10086000","population":779,"timezone":"Europe/Warsaw","type":"adm3","translations":{"es":"Oksa","en":"Oksa"}},{"name":"Oleśnica","state_code":"26","latitude":"50.45357000","longitude":"21.06457000","population":1800,"timezone":"Europe/Warsaw","type":"adm3","translations":{"es":"Oleśnica","en":"Oleśnica"}},{"name":"Opatów","state_code":"26","latitude":"50.80058000","longitude":"21.42538000","population":6799,"timezone":"Europe/Warsaw","type":"adm2","translations":{"es":"Opatów","en":"Opatów"}},{"name":"Opatowiec","state_code":"26","latitude":"50.24314000","longitude":"20.72348000","population":410,"timezone":"Europe/Warsaw","type":"adm3","translations":{"es":"Opatowiec","en":"Opatowiec"}},{"name":"Osiedle-Nowiny","state_code":"26","latitude":"50.81770000","longitude":"20.54117000","population":2492,"timezone":"Europe/Warsaw","type":"adm3","translations":{"es":"Osiedle-Nowiny","en":"Osiedle-Nowiny"}},{"name":"Osiek","state_code":"26","latitude":"50.51996000","longitude":"21.44192000","population":2031,"timezone":"Europe/Warsaw","type":"adm3","translations":{"es":"Osiek","en":"Osiek"}},{"name":"Ostrowiec Świętokrzyski","state_code":"26","latitude":"50.92936000","longitude":"21.38525000","population":64796,"timezone":"Europe/Warsaw","type":"adm2","translations":{"es":"Ostrowiec Świętokrzyski","en":"Ostrowiec Świętokrzyski"}},{"name":"Ożarów","state_code":"26","latitude":"50.88798000","longitude":"21.66658000","population":4689,"timezone":"Europe/Warsaw","type":"adm3","translations":{"es":"Ożarów","en":"Ożarów"}},{"name":"Pacanów","state_code":"26","latitude":"50.40031000","longitude":"21.04148000","population":1074,"timezone":"Europe/Warsaw","type":"adm3","translations":{"es":"Pacanów","en":"Pacanów"}},{"name":"Pawłów","state_code":"26","latitude":"50.96216000","longitude":"21.12062000","population":1100,"timezone":"Europe/Warsaw","type":"adm3","translations":{"es":"Pawlów","en":"Pawłów"}},{"name":"Piekoszów","state_code":"26","latitude":"50.88035000","longitude":"20.46418000","population":2671,"timezone":"Europe/Warsaw","type":"adm3","translations":{"es":"Piekoszów","en":"Piekoszów"}},{"name":"Pierzchnica","state_code":"26","latitude":"50.69754000","longitude":"20.75489000","population":1261,"timezone":"Europe/Warsaw","type":"adm3","translations":{"es":"Pierzchnica","en":"Pierzchnica"}},{"name":"Pińczów","state_code":"26","latitude":"50.52052000","longitude":"20.52649000","population":10078,"timezone":"Europe/Warsaw","type":"adm2","translations":{"es":"Pinczów","en":"Pińczów"}},{"name":"Połaniec","state_code":"26","latitude":"50.43324000","longitude":"21.28120000","population":7702,"timezone":"Europe/Warsaw","type":"adm3","translations":{"es":"Polonia","en":"Połaniec"}},{"name":"Radoszyce","state_code":"26","latitude":"51.07392000","longitude":"20.25836000","population":2959,"timezone":"Europe/Warsaw","type":"adm3","translations":{"es":"Radoszyce","en":"Radoszyce"}},{"name":"Raków","state_code":"26","latitude":"50.67427000","longitude":"21.04517000","population":1010,"timezone":"Europe/Warsaw","type":"adm3","translations":{"es":"Raków","en":"Raków"}},{"name":"Rogów","state_code":"26","latitude":"51.20414000","longitude":"20.43483000","population":1300,"timezone":"Europe/Warsaw","type":"city","translations":{"es":"Rogów","en":"Rogów"}},{"name":"Ruda Maleniecka","state_code":"26","latitude":"51.14592000","longitude":"20.22377000","population":490,"timezone":"Europe/Warsaw","type":"adm3","translations":{"es":"Ruda Maleniecka","en":"Ruda Maleniecka"}},{"name":"Rytwiany","state_code":"26","latitude":"50.52920000","longitude":"21.20636000","population":1821,"timezone":"Europe/Warsaw","type":"adm3","translations":{"es":"Rytwiany","en":"Rytwiany"}},{"name":"Sadowie","state_code":"26","latitude":"50.85261000","longitude":"21.36884000","population":600,"timezone":"Europe/Warsaw","type":"adm3","translations":{"es":"Sadowie","en":"Sadowie"}},{"name":"Samborzec","state_code":"26","latitude":"50.64663000","longitude":"21.64822000","population":406,"timezone":"Europe/Warsaw","type":"adm3","translations":{"es":"Samborzec","en":"Samborzec"}},{"name":"Sandomierz","state_code":"26","latitude":"50.68265000","longitude":"21.74898000","population":22189,"timezone":"Europe/Warsaw","type":"adm2","translations":{"es":"Sandomierz","en":"Sandomierz"}},{"name":"Secemin","state_code":"26","latitude":"50.76676000","longitude":"19.83599000","population":1600,"timezone":"Europe/Warsaw","type":"city","translations":{"es":"Secemin","en":"Secemin"}},{"name":"Sędziszów","state_code":"26","latitude":"50.56590000","longitude":"20.05563000","population":6305,"timezone":"Europe/Warsaw","type":"adm3","translations":{"es":"Sędziszów","en":"Sędziszów"}},{"name":"Skalbmierz","state_code":"26","latitude":"50.31993000","longitude":"20.39929000","population":1219,"timezone":"Europe/Warsaw","type":"adm3","translations":{"es":"Skalbmierz","en":"Skalbmierz"}},{"name":"Skarżysko Kościelne","state_code":"26","latitude":"51.13822000","longitude":"20.91196000","population":2700,"timezone":"Europe/Warsaw","type":"adm3","translations":{"es":"Skarżysko Kościelne","en":"Skarżysko Kościelne"}},{"name":"Skarżysko-Kamienna","state_code":"26","latitude":"51.11311000","longitude":"20.87162000","population":43067,"timezone":"Europe/Warsaw","type":"adm2","translations":{"es":"Skarżysko-Kamienna","en":"Skarżysko-Kamienna"}},{"name":"Słupia","state_code":"26","latitude":"50.60073000","longitude":"19.97435000","population":937,"timezone":"Europe/Warsaw","type":"adm3","translations":{"es":"Słupia","en":"Słupia"}},{"name":"Smyków","state_code":"26","latitude":"51.04442000","longitude":"20.40032000","population":290,"timezone":"Europe/Warsaw","type":"adm3","translations":{"es":"Smyków","en":"Smyków"}},{"name":"Sobków","state_code":"26","latitude":"50.69999000","longitude":"20.45062000","population":870,"timezone":"Europe/Warsaw","type":"adm3","translations":{"es":"Sobków","en":"Sobków"}},{"name":"Solec-Zdrój","state_code":"26","latitude":"50.36594000","longitude":"20.88956000","population":825,"timezone":"Europe/Warsaw","type":"adm3","translations":{"es":"Solec-Zdrój","en":"Solec-Zdrój"}},{"name":"Stąporków","state_code":"26","latitude":"51.13762000","longitude":"20.57173000","population":5274,"timezone":"Europe/Warsaw","type":"adm3","translations":{"es":"Stąporków","en":"Stąporków"}},{"name":"Starachowice","state_code":"26","latitude":"51.03740000","longitude":"21.07126000","population":46270,"timezone":"Europe/Warsaw","type":"adm2","translations":{"es":"Starachowice","en":"Starachowice"}},{"name":"Staszów","state_code":"26","latitude":"50.56307000","longitude":"21.16593000","population":14158,"timezone":"Europe/Warsaw","type":"adm2","translations":{"es":"Staszów","en":"Staszów"}},{"name":"Stopnica","state_code":"26","latitude":"50.44018000","longitude":"20.93780000","population":1545,"timezone":"Europe/Warsaw","type":"adm3","translations":{"es":"Stopnica","en":"Stopnica"}},{"name":"Strawczyn","state_code":"26","latitude":"50.94177000","longitude":"20.42135000","population":1239,"timezone":"Europe/Warsaw","type":"adm3","translations":{"es":"Strawczyn","en":"Strawczyn"}},{"name":"Suchedniów","state_code":"26","latitude":"51.04776000","longitude":"20.82922000","population":7820,"timezone":"Europe/Warsaw","type":"adm3","translations":{"es":"Suchedniów","en":"Suchedniów"}},{"name":"Szydłów","state_code":"26","latitude":"50.59114000","longitude":"21.00680000","population":1097,"timezone":"Europe/Warsaw","type":"adm3","translations":{"es":"Szydłów","en":"Szydłów"}},{"name":"Tarłów","state_code":"26","latitude":"51.00160000","longitude":"21.71474000","population":863,"timezone":"Europe/Warsaw","type":"adm3","translations":{"es":"Tarlów","en":"Tarłów"}},{"name":"Tuczępy","state_code":"26","latitude":"50.51676000","longitude":"20.99187000","population":637,"timezone":"Europe/Warsaw","type":"adm3","translations":{"es":"Tuczępy","en":"Tuczępy"}},{"name":"Wąchock","state_code":"26","latitude":"51.07391000","longitude":"21.01243000","population":2568,"timezone":"Europe/Warsaw","type":"adm3","translations":{"es":"Wąchock","en":"Wąchock"}},{"name":"Waśniów","state_code":"26","latitude":"50.89914000","longitude":"21.22301000","population":420,"timezone":"Europe/Warsaw","type":"adm3","translations":{"es":"Waśniów","en":"Waśniów"}},{"name":"Wielka Wieś","state_code":"26","latitude":"51.07107000","longitude":"20.96655000","population":1425,"timezone":"Europe/Warsaw","type":"city","translations":{"es":"Wielka Wieś","en":"Wielka Wieś"}},{"name":"Wilczyce","state_code":"26","latitude":"50.74694000","longitude":"21.65783000","population":722,"timezone":"Europe/Warsaw","type":"adm3","translations":{"es":"Wilczyce","en":"Wilczyce"}},{"name":"Wiślica","state_code":"26","latitude":"50.34891000","longitude":"20.67438000","population":780,"timezone":"Europe/Warsaw","type":"adm3","translations":{"es":"Wiślica","en":"Wiślica"}},{"name":"Włoszczowa","state_code":"26","latitude":"50.85256000","longitude":"19.96593000","population":9750,"timezone":"Europe/Warsaw","type":"adm3","translations":{"es":"Wloszczowa","en":"Włoszczowa"}},{"name":"Wodzisław","state_code":"26","latitude":"50.52047000","longitude":"20.19150000","population":971,"timezone":"Europe/Warsaw","type":"adm3","translations":{"es":"Wodzislaw","en":"Wodzisław"}},{"name":"Wojciechowice","state_code":"26","latitude":"50.84226000","longitude":"21.58942000","population":324,"timezone":"Europe/Warsaw","type":"adm3","translations":{"es":"Wojciechowice","en":"Wojciechowice"}},{"name":"Wola Jachowa","state_code":"26","latitude":"50.84524000","longitude":"20.85814000","population":1439,"timezone":"Europe/Warsaw","type":"city","translations":{"es":"Wola Jachowa","en":"Wola Jachowa"}},{"name":"Zagnańsk","state_code":"26","latitude":"50.98037000","longitude":"20.66314000","population":1726,"timezone":"Europe/Warsaw","type":"adm3","translations":{"es":"Zagnańsk","en":"Zagnańsk"}},{"name":"Zawichost","state_code":"26","latitude":"50.80743000","longitude":"21.85408000","population":1648,"timezone":"Europe/Warsaw","type":"adm3","translations":{"es":"Zawichost","en":"Zawichost"}},{"name":"Złota","state_code":"26","latitude":"50.38160000","longitude":"20.59361000","population":1200,"timezone":"Europe/Warsaw","type":"adm3","translations":{"es":"Zlota","en":"Złota"}},{"name":"Aleksandrów Kujawski","state_code":"04","latitude":"52.87659000","longitude":"18.69345000","population":11910,"timezone":"Europe/Warsaw","type":"city","translations":{"es":"Aleksandrów Kujawski","en":"Aleksandrów Kujawski"}},{"name":"Barcin","state_code":"04","latitude":"52.86607000","longitude":"17.94625000","population":7179,"timezone":"Europe/Warsaw","type":"adm3","translations":{"es":"Barcin","en":"Barcin"}},{"name":"Bartniczka","state_code":"04","latitude":"53.24776000","longitude":"19.60433000","population":550,"timezone":"Europe/Warsaw","type":"adm3","translations":{"es":"Bartniczka","en":"Bartniczka"}},{"name":"Baruchowo","state_code":"04","latitude":"52.49412000","longitude":"19.26496000","population":434,"timezone":"Europe/Warsaw","type":"adm3","translations":{"es":"Baruchowo","en":"Baruchowo"}},{"name":"Białe Błota","state_code":"04","latitude":"53.09516000","longitude":"17.91621000","population":5989,"timezone":"Europe/Warsaw","type":"city","translations":{"es":"Białe Błota","en":"Białe Błota"}},{"name":"Bobrowniki","state_code":"04","latitude":"52.78086000","longitude":"18.96026000","population":980,"timezone":"Europe/Warsaw","type":"adm3","translations":{"es":"Bobrowniki","en":"Bobrowniki"}},{"name":"Bobrowo","state_code":"04","latitude":"53.28549000","longitude":"19.27053000","population":441,"timezone":"Europe/Warsaw","type":"adm3","translations":{"es":"Bobrowo","en":"Bobrowo"}},{"name":"Boniewo","state_code":"04","latitude":"52.46532000","longitude":"18.89116000","population":700,"timezone":"Europe/Warsaw","type":"adm3","translations":{"es":"Boniewo","en":"Boniewo"}},{"name":"Brodnica","state_code":"04","latitude":"53.25967000","longitude":"19.39653000","population":27341,"timezone":"Europe/Warsaw","type":"city","translations":{"es":"Brodnica","en":"Brodnica"}},{"name":"Brześć Kujawski","state_code":"04","latitude":"52.60532000","longitude":"18.90173000","population":4562,"timezone":"Europe/Warsaw","type":"adm3","translations":{"es":"Brześć Kujawski","en":"Brześć Kujawski"}},{"name":"Brzozie","state_code":"04","latitude":"53.32554000","longitude":"19.60485000","population":1578,"timezone":"Europe/Warsaw","type":"city","translations":{"es":"Brzozie","en":"Brzozie"}},{"name":"Brzuze","state_code":"04","latitude":"53.05458000","longitude":"19.26195000","population":449,"timezone":"Europe/Warsaw","type":"adm3","translations":{"es":"Brzuze","en":"Brzuze"}},{"name":"Bukowiec","state_code":"04","latitude":"53.43383000","longitude":"18.24048000","population":1210,"timezone":"Europe/Warsaw","type":"city","translations":{"es":"Bukowiec","en":"Bukowiec"}},{"name":"Bydgoszcz","state_code":"04","latitude":"53.12350000","longitude":"18.00762000","population":324984,"timezone":"Europe/Warsaw","type":"adm1","translations":{"es":"Bydgoszcz","en":"Bydgoszcz"}},{"name":"Bytoń","state_code":"04","latitude":"52.55757000","longitude":"18.59522000","population":482,"timezone":"Europe/Warsaw","type":"adm3","translations":{"es":"Byton","en":"Bytoń"}},{"name":"Cekcyn","state_code":"04","latitude":"53.57294000","longitude":"18.01123000","population":1710,"timezone":"Europe/Warsaw","type":"adm3","translations":{"es":"Cekcyn","en":"Cekcyn"}},{"name":"Chełmno","state_code":"04","latitude":"53.34855000","longitude":"18.42510000","population":18837,"timezone":"Europe/Warsaw","type":"city","translations":{"es":"Chelmno","en":"Chełmno"}},{"name":"Chełmża","state_code":"04","latitude":"53.18463000","longitude":"18.60466000","population":14045,"timezone":"Europe/Warsaw","type":"adm3","translations":{"es":"Chełmża","en":"Chełmża"}},{"name":"Choceń","state_code":"04","latitude":"52.48618000","longitude":"19.01339000","population":980,"timezone":"Europe/Warsaw","type":"adm3","translations":{"es":"Elección","en":"Choceń"}},{"name":"Chodecz","state_code":"04","latitude":"52.40513000","longitude":"19.02759000","population":1796,"timezone":"Europe/Warsaw","type":"adm3","translations":{"es":"Chodecz","en":"Chodecz"}},{"name":"Chrostkowo","state_code":"04","latitude":"52.94378000","longitude":"19.25328000","population":314,"timezone":"Europe/Warsaw","type":"adm3","translations":{"es":"Chrostkowo","en":"Chrostkowo"}},{"name":"Ciechocin","state_code":"04","latitude":"53.05581000","longitude":"18.92635000","population":776,"timezone":"Europe/Warsaw","type":"adm3","translations":{"es":"Ciechocin","en":"Ciechocin"}},{"name":"Ciechocinek","state_code":"04","latitude":"52.87908000","longitude":"18.79505000","population":10415,"timezone":"Europe/Warsaw","type":"adm3","translations":{"es":"Ciechocinek","en":"Ciechocinek"}},{"name":"Czerniewice","state_code":"04","latitude":"52.51157000","longitude":"19.08694000","population":1003,"timezone":"Europe/Warsaw","type":"city","translations":{"es":"Czerniewice","en":"Czerniewice"}},{"name":"Czernikowo","state_code":"04","latitude":"52.94688000","longitude":"18.93803000","population":2752,"timezone":"Europe/Warsaw","type":"adm3","translations":{"es":"Czernikowo","en":"Czernikowo"}},{"name":"Dąbrowa","state_code":"04","latitude":"52.74668000","longitude":"17.94342000","population":1101,"timezone":"Europe/Warsaw","type":"adm3","translations":{"es":"Dąbrowa","en":"Dąbrowa"}},{"name":"Dąbrowa Chełmińska","state_code":"04","latitude":"53.17518000","longitude":"18.30537000","population":1400,"timezone":"Europe/Warsaw","type":"city","translations":{"es":"Dąbrowa Chełmińska","en":"Dąbrowa Chełmińska"}},{"name":"Dębowa Łąka","state_code":"04","latitude":"53.25541000","longitude":"19.09595000","population":668,"timezone":"Europe/Warsaw","type":"adm3","translations":{"es":"Dębowa Łąka","en":"Dębowa Łąka"}},{"name":"Dobre","state_code":"04","latitude":"52.68398000","longitude":"18.57762000","population":2500,"timezone":"Europe/Warsaw","type":"adm3","translations":{"es":"Dobre","en":"Dobre"}},{"name":"Dobrzyń nad Wisłą","state_code":"04","latitude":"52.63814000","longitude":"19.31875000","population":2043,"timezone":"Europe/Warsaw","type":"adm3","translations":{"es":"Dobrzyń nad Wisłą","en":"Dobrzyń nad Wisłą"}},{"name":"Drzycim","state_code":"04","latitude":"53.50520000","longitude":"18.30940000","population":1247,"timezone":"Europe/Warsaw","type":"city","translations":{"es":"Drzycim","en":"Drzycim"}},{"name":"Fabianki","state_code":"04","latitude":"52.71929000","longitude":"19.10943000","population":660,"timezone":"Europe/Warsaw","type":"adm3","translations":{"es":"Fabianki","en":"Fabianki"}},{"name":"Fordon","state_code":"04","latitude":"53.14821000","longitude":"18.17036000","population":70000,"timezone":"Europe/Warsaw","type":"city","translations":{"es":"Fordón","en":"Fordon"}},{"name":"Gąsawa","state_code":"04","latitude":"52.76757000","longitude":"17.75579000","population":1402,"timezone":"Europe/Warsaw","type":"adm3","translations":{"es":"Gasawa","en":"Gąsawa"}},{"name":"Gniewkowo","state_code":"04","latitude":"52.89461000","longitude":"18.40785000","population":6879,"timezone":"Europe/Warsaw","type":"adm3","translations":{"es":"Gniewkowo","en":"Gniewkowo"}},{"name":"Golub-Dobrzyń","state_code":"04","latitude":"53.11087000","longitude":"19.05381000","population":11722,"timezone":"Europe/Warsaw","type":"adm3","translations":{"es":"Golub-Dobrzyń","en":"Golub-Dobrzyń"}},{"name":"Górzno","state_code":"04","latitude":"53.19779000","longitude":"19.64317000","population":1405,"timezone":"Europe/Warsaw","type":"city","translations":{"es":"Górzno","en":"Górzno"}},{"name":"Gostycyn","state_code":"04","latitude":"53.49014000","longitude":"17.80978000","population":1800,"timezone":"Europe/Warsaw","type":"adm3","translations":{"es":"Gostycyn","en":"Gostycyn"}},{"name":"Grudziądz","state_code":"04","latitude":"53.48411000","longitude":"18.75366000","population":90890,"timezone":"Europe/Warsaw","type":"city","translations":{"es":"Grudziądz","en":"Grudziądz"}},{"name":"Gruta","state_code":"04","latitude":"53.45315000","longitude":"18.95700000","population":1600,"timezone":"Europe/Warsaw","type":"adm3","translations":{"es":"Gruta","en":"Gruta"}},{"name":"Inowrocław","state_code":"04","latitude":"52.79886000","longitude":"18.26387000","population":69576,"timezone":"Europe/Warsaw","type":"adm3","translations":{"es":"Inowroclaw","en":"Inowrocław"}},{"name":"Izbica Kujawska","state_code":"04","latitude":"52.42073000","longitude":"18.76270000","population":2526,"timezone":"Europe/Warsaw","type":"adm3","translations":{"es":"Izbica Kujawska","en":"Izbica Kujawska"}},{"name":"Jabłonowo Pomorskie","state_code":"04","latitude":"53.39137000","longitude":"19.15509000","population":3693,"timezone":"Europe/Warsaw","type":"adm3","translations":{"es":"Jabłonowo Pomorskie","en":"Jabłonowo Pomorskie"}},{"name":"Janikowo","state_code":"04","latitude":"52.75328000","longitude":"18.11328000","population":8354,"timezone":"Europe/Warsaw","type":"adm3","translations":{"es":"Janikowo","en":"Janikowo"}},{"name":"Janowiec Wielkopolski","state_code":"04","latitude":"52.75583000","longitude":"17.48981000","population":5110,"timezone":"Europe/Warsaw","type":"adm3","translations":{"es":"Janowiec Wielkopolski","en":"Janowiec Wielkopolski"}},{"name":"Jeżewo","state_code":"04","latitude":"53.51061000","longitude":"18.49437000","population":1753,"timezone":"Europe/Warsaw","type":"city","translations":{"es":"Jeżewo","en":"Jeżewo"}},{"name":"Jeziora Wielkie","state_code":"04","latitude":"52.53043000","longitude":"18.26803000","population":560,"timezone":"Europe/Warsaw","type":"adm3","translations":{"es":"Lago Wielkie","en":"Jeziora Wielkie"}},{"name":"Kamień Krajeński","state_code":"04","latitude":"53.53352000","longitude":"17.52019000","population":2358,"timezone":"Europe/Warsaw","type":"adm3","translations":{"es":"Kamień Krajeński","en":"Kamień Krajeński"}},{"name":"Kcynia","state_code":"04","latitude":"52.99192000","longitude":"17.48830000","population":4252,"timezone":"Europe/Warsaw","type":"adm3","translations":{"es":"Kcynia","en":"Kcynia"}},{"name":"Kęsowo","state_code":"04","latitude":"53.55872000","longitude":"17.71580000","population":790,"timezone":"Europe/Warsaw","type":"adm3","translations":{"es":"Kęsowo","en":"Kęsowo"}},{"name":"Kikół","state_code":"04","latitude":"52.90994000","longitude":"19.12016000","population":1500,"timezone":"Europe/Warsaw","type":"adm3","translations":{"es":"Kikół","en":"Kikół"}},{"name":"Koronowo","state_code":"04","latitude":"53.31370000","longitude":"17.93698000","population":10974,"timezone":"Europe/Warsaw","type":"city","translations":{"es":"Koronowo","en":"Koronowo"}},{"name":"Kowal","state_code":"04","latitude":"52.53019000","longitude":"19.14767000","population":3386,"timezone":"Europe/Warsaw","type":"adm3","translations":{"es":"Kowal","en":"Kowal"}},{"name":"Kowalewo Pomorskie","state_code":"04","latitude":"53.15432000","longitude":"18.89868000","population":4109,"timezone":"Europe/Warsaw","type":"city","translations":{"es":"Kowalewo Pomorskie","en":"Kowalewo Pomorskie"}},{"name":"Kruszwica","state_code":"04","latitude":"52.67562000","longitude":"18.33131000","population":9288,"timezone":"Europe/Warsaw","type":"adm3","translations":{"es":"Kruszwica","en":"Kruszwica"}},{"name":"Lipno","state_code":"04","latitude":"52.84436000","longitude":"19.17852000","population":14821,"timezone":"Europe/Warsaw","type":"adm3","translations":{"es":"Lipno","en":"Lipno"}},{"name":"Lisewo","state_code":"04","latitude":"53.29580000","longitude":"18.68714000","population":1700,"timezone":"Europe/Warsaw","type":"city","translations":{"es":"Lisewo","en":"Lisewo"}},{"name":"Lniano","state_code":"04","latitude":"53.52801000","longitude":"18.21267000","population":1200,"timezone":"Europe/Warsaw","type":"city","translations":{"es":"Lniano","en":"Lniano"}},{"name":"Lubanie","state_code":"04","latitude":"52.74689000","longitude":"18.91940000","population":799,"timezone":"Europe/Warsaw","type":"adm3","translations":{"es":"Lubanie","en":"Lubanie"}},{"name":"Lubicz Dolny","state_code":"04","latitude":"53.03151000","longitude":"18.74559000","population":3186,"timezone":"Europe/Warsaw","type":"city","translations":{"es":"Lubicz Dolny","en":"Lubicz Dolny"}},{"name":"Lubicz Górny","state_code":"04","latitude":"53.02686000","longitude":"18.77100000","population":3581,"timezone":"Europe/Warsaw","type":"city","translations":{"es":"Lubicz Górny","en":"Lubicz Górny"}},{"name":"Lubień Kujawski","state_code":"04","latitude":"52.40574000","longitude":"19.16440000","population":1360,"timezone":"Europe/Warsaw","type":"adm3","translations":{"es":"Lubień Kujawski","en":"Lubień Kujawski"}},{"name":"Lubiewo","state_code":"04","latitude":"53.46542000","longitude":"18.02994000","population":1012,"timezone":"Europe/Warsaw","type":"adm3","translations":{"es":"Lubiewo","en":"Lubiewo"}},{"name":"Lubraniec","state_code":"04","latitude":"52.54178000","longitude":"18.83254000","population":2825,"timezone":"Europe/Warsaw","type":"adm3","translations":{"es":"Lubraniec","en":"Lubraniec"}},{"name":"Łabiszyn","state_code":"04","latitude":"52.95210000","longitude":"17.91971000","population":4494,"timezone":"Europe/Warsaw","type":"adm3","translations":{"es":"Łabiszyn","en":"Łabiszyn"}},{"name":"Łasin","state_code":"04","latitude":"53.51794000","longitude":"19.08832000","population":3145,"timezone":"Europe/Warsaw","type":"adm3","translations":{"es":"Lasin","en":"Łasin"}},{"name":"Łubianka","state_code":"04","latitude":"53.13864000","longitude":"18.48115000","population":953,"timezone":"Europe/Warsaw","type":"adm3","translations":{"es":"Łubianka","en":"Łubianka"}},{"name":"Łysomice","state_code":"04","latitude":"53.08629000","longitude":"18.62002000","population":1100,"timezone":"Europe/Warsaw","type":"adm3","translations":{"es":"Łysomice","en":"Łysomice"}},{"name":"Mogilno","state_code":"04","latitude":"52.65806000","longitude":"17.95578000","population":11453,"timezone":"Europe/Warsaw","type":"adm3","translations":{"es":"Mogilno","en":"Mogilno"}},{"name":"Mrocza","state_code":"04","latitude":"53.24313000","longitude":"17.60405000","population":4168,"timezone":"Europe/Warsaw","type":"adm3","translations":{"es":"Mrocza","en":"Mrocza"}},{"name":"Nakło nad Notecią","state_code":"04","latitude":"53.14214000","longitude":"17.60181000","population":17620,"timezone":"Europe/Warsaw","type":"adm3","translations":{"es":"Nakło nad Notecią","en":"Nakło nad Notecią"}},{"name":"Nieszawa","state_code":"04","latitude":"52.83452000","longitude":"18.89921000","population":1770,"timezone":"Europe/Warsaw","type":"adm3","translations":{"es":"Nieszawa","en":"Nieszawa"}},{"name":"Nowa Wieś Wielka","state_code":"04","latitude":"52.97159000","longitude":"18.09036000","population":2207,"timezone":"Europe/Warsaw","type":"city","translations":{"es":"Nowa Wieś Wielka","en":"Nowa Wieś Wielka"}},{"name":"Nowe","state_code":"04","latitude":"53.64906000","longitude":"18.72716000","population":5579,"timezone":"Europe/Warsaw","type":"city","translations":{"es":"Ahora","en":"Nowe"}},{"name":"Obrowo","state_code":"04","latitude":"52.97149000","longitude":"18.87863000","population":1410,"timezone":"Europe/Warsaw","type":"adm3","translations":{"es":"Obrowo","en":"Obrowo"}},{"name":"Osie","state_code":"04","latitude":"53.59918000","longitude":"18.34373000","population":2520,"timezone":"Europe/Warsaw","type":"city","translations":{"es":"Osie","en":"Osie"}},{"name":"Osięciny","state_code":"04","latitude":"52.62926000","longitude":"18.72208000","population":2769,"timezone":"Europe/Warsaw","type":"adm3","translations":{"es":"Osięciny","en":"Osięciny"}},{"name":"Osiek","state_code":"04","latitude":"52.92629000","longitude":"18.80765000","population":1064,"timezone":"Europe/Warsaw","type":"city","translations":{"es":"Osiek","en":"Osiek"}},{"name":"Osielsko","state_code":"04","latitude":"53.18505000","longitude":"18.08418000","population":3930,"timezone":"Europe/Warsaw","type":"city","translations":{"es":"Osielsko","en":"Osielsko"}},{"name":"Ostrowite","state_code":"04","latitude":"53.06917000","longitude":"19.29337000","population":1300,"timezone":"Europe/Warsaw","type":"city","translations":{"es":"Ostrowita","en":"Ostrowite"}},{"name":"Pakość","state_code":"04","latitude":"52.80178000","longitude":"18.08530000","population":5329,"timezone":"Europe/Warsaw","type":"adm3","translations":{"es":"Pakość","en":"Pakość"}},{"name":"Piotrków Kujawski","state_code":"04","latitude":"52.55111000","longitude":"18.49905000","population":4290,"timezone":"Europe/Warsaw","type":"adm3","translations":{"es":"Piotrków Kujawski","en":"Piotrków Kujawski"}},{"name":"Płużnica","state_code":"04","latitude":"53.29672000","longitude":"18.77692000","population":635,"timezone":"Europe/Warsaw","type":"adm3","translations":{"es":"Płużnica","en":"Płużnica"}},{"name":"Pruszcz","state_code":"04","latitude":"53.33021000","longitude":"18.19894000","population":2798,"timezone":"Europe/Warsaw","type":"city","translations":{"es":"Pruszcz","en":"Pruszcz"}},{"name":"Raciążek","state_code":"04","latitude":"52.85650000","longitude":"18.81334000","population":1719,"timezone":"Europe/Warsaw","type":"city","translations":{"es":"Raciążek","en":"Raciążek"}},{"name":"Radomin","state_code":"04","latitude":"53.08670000","longitude":"19.19415000","population":956,"timezone":"Europe/Warsaw","type":"adm3","translations":{"es":"Radomin","en":"Radomin"}},{"name":"Radziejów","state_code":"04","latitude":"52.62481000","longitude":"18.52771000","population":5253,"timezone":"Europe/Warsaw","type":"adm2","translations":{"es":"Radziejów","en":"Radziejów"}},{"name":"Radzyń Chełmiński","state_code":"04","latitude":"53.38509000","longitude":"18.93725000","population":1825,"timezone":"Europe/Warsaw","type":"city","translations":{"es":"Radzyń Chełmiński","en":"Radzyń Chełmiński"}},{"name":"Rogowo","state_code":"04","latitude":"52.72449000","longitude":"17.65117000","population":2127,"timezone":"Europe/Warsaw","type":"adm3","translations":{"es":"Rogowo","en":"Rogowo"}},{"name":"Rogóźno","state_code":"04","latitude":"53.53587000","longitude":"18.92859000","population":984,"timezone":"Europe/Warsaw","type":"adm3","translations":{"es":"Rogóźno","en":"Rogóźno"}},{"name":"Rypin","state_code":"04","latitude":"53.06603000","longitude":"19.40941000","population":15832,"timezone":"Europe/Warsaw","type":"adm2","translations":{"es":"Rypin","en":"Rypin"}},{"name":"Sadki","state_code":"04","latitude":"53.16036000","longitude":"17.44912000","population":2000,"timezone":"Europe/Warsaw","type":"adm3","translations":{"es":"Sadki","en":"Sadki"}},{"name":"Sępólno Krajeńskie","state_code":"04","latitude":"53.45198000","longitude":"17.53169000","population":8914,"timezone":"Europe/Warsaw","type":"adm3","translations":{"es":"Sępólno Krajeńskie","en":"Sępólno Krajeńskie"}},{"name":"Sicienko","state_code":"04","latitude":"53.20387000","longitude":"17.80051000","population":971,"timezone":"Europe/Warsaw","type":"adm3","translations":{"es":"Sicienko","en":"Sicienko"}},{"name":"Skępe","state_code":"04","latitude":"52.86798000","longitude":"19.35604000","population":3509,"timezone":"Europe/Warsaw","type":"adm3","translations":{"es":"Skępe","en":"Skępe"}},{"name":"Skrwilno","state_code":"04","latitude":"53.01607000","longitude":"19.62364000","population":1425,"timezone":"Europe/Warsaw","type":"adm3","translations":{"es":"Skrwilno","en":"Skrwilno"}},{"name":"Ślesin","state_code":"04","latitude":"53.16514000","longitude":"17.70258000","population":1500,"timezone":"Europe/Warsaw","type":"city","translations":{"es":"Ślesin","en":"Ślesin"}},{"name":"Śliwice","state_code":"04","latitude":"53.70875000","longitude":"18.17370000","population":4600,"timezone":"Europe/Warsaw","type":"adm3","translations":{"es":"Śliwice","en":"Śliwice"}},{"name":"Solec Kujawski","state_code":"04","latitude":"53.08371000","longitude":"18.22572000","population":15458,"timezone":"Europe/Warsaw","type":"city","translations":{"es":"Solec Kujawski","en":"Solec Kujawski"}},{"name":"Sośno","state_code":"04","latitude":"53.38922000","longitude":"17.68713000","population":980,"timezone":"Europe/Warsaw","type":"adm3","translations":{"es":"Sośno","en":"Sośno"}},{"name":"Strzelno","state_code":"04","latitude":"52.62789000","longitude":"18.17246000","population":5951,"timezone":"Europe/Warsaw","type":"adm3","translations":{"es":"Strzelno","en":"Strzelno"}},{"name":"Świecie","state_code":"04","latitude":"53.40953000","longitude":"18.44742000","population":25843,"timezone":"Europe/Warsaw","type":"city","translations":{"es":"Świecie","en":"Świecie"}},{"name":"Świecie nad Osą","state_code":"04","latitude":"53.44400000","longitude":"19.10171000","population":870,"timezone":"Europe/Warsaw","type":"adm3","translations":{"es":"Świecie nad Osą","en":"Świecie nad Osą"}},{"name":"Świedziebnia","state_code":"04","latitude":"53.15207000","longitude":"19.55463000","population":958,"timezone":"Europe/Warsaw","type":"adm3","translations":{"es":"Świedziebnia","en":"Świedziebnia"}},{"name":"Świekatowo","state_code":"04","latitude":"53.41864000","longitude":"18.09731000","population":1077,"timezone":"Europe/Warsaw","type":"city","translations":{"es":"Świekatowo","en":"Świekatowo"}},{"name":"Sypniewo","state_code":"04","latitude":"53.36981000","longitude":"17.32690000","population":1199,"timezone":"Europe/Warsaw","type":"city","translations":{"es":"Sypniewo","en":"Sypniewo"}},{"name":"Szubin","state_code":"04","latitude":"53.00967000","longitude":"17.74000000","population":9563,"timezone":"Europe/Warsaw","type":"adm3","translations":{"es":"Szubin","en":"Szubin"}},{"name":"Tłuchowo","state_code":"04","latitude":"52.74715000","longitude":"19.46563000","population":1188,"timezone":"Europe/Warsaw","type":"adm3","translations":{"es":"Tłuchowo","en":"Tłuchowo"}},{"name":"Topólka","state_code":"04","latitude":"52.50327000","longitude":"18.71246000","population":447,"timezone":"Europe/Warsaw","type":"adm3","translations":{"es":"Topólka","en":"Topólka"}},{"name":"Toruń","state_code":"04","latitude":"53.01375000","longitude":"18.59814000","population":196935,"timezone":"Europe/Warsaw","type":"city","translations":{"es":"Torun","en":"Toruń"}},{"name":"Tuchola","state_code":"04","latitude":"53.58792000","longitude":"17.85905000","population":13408,"timezone":"Europe/Warsaw","type":"adm2","translations":{"es":"Tuchola","en":"Tuchola"}},{"name":"Unisław","state_code":"04","latitude":"53.21241000","longitude":"18.38622000","population":3490,"timezone":"Europe/Warsaw","type":"city","translations":{"es":"Unislaw","en":"Unisław"}},{"name":"Wąbrzeźno","state_code":"04","latitude":"53.27989000","longitude":"18.94773000","population":13317,"timezone":"Europe/Warsaw","type":"adm2","translations":{"es":"Wąbrzeźno","en":"Wąbrzeźno"}},{"name":"Waganiec","state_code":"04","latitude":"52.80120000","longitude":"18.87589000","population":1300,"timezone":"Europe/Warsaw","type":"city","translations":{"es":"Waganiec","en":"Waganiec"}},{"name":"Wąpielsk","state_code":"04","latitude":"53.13761000","longitude":"19.27792000","population":715,"timezone":"Europe/Warsaw","type":"adm3","translations":{"es":"Wąpielsk","en":"Wąpielsk"}},{"name":"Warlubie","state_code":"04","latitude":"53.58751000","longitude":"18.63444000","population":2043,"timezone":"Europe/Warsaw","type":"city","translations":{"es":"Warlubie","en":"Warlubie"}},{"name":"Więcbork","state_code":"04","latitude":"53.35384000","longitude":"17.49064000","population":5799,"timezone":"Europe/Warsaw","type":"adm3","translations":{"es":"Więcbork","en":"Więcbork"}},{"name":"Wielgie","state_code":"04","latitude":"52.74076000","longitude":"19.26350000","population":1081,"timezone":"Europe/Warsaw","type":"adm3","translations":{"es":"Wielgie","en":"Wielgie"}},{"name":"Wielka Nieszawka","state_code":"04","latitude":"52.99619000","longitude":"18.50973000","population":460,"timezone":"Europe/Warsaw","type":"adm3","translations":{"es":"Wielka Nieszawka","en":"Wielka Nieszawka"}},{"name":"Wierzchosławice","state_code":"04","latitude":"52.86923000","longitude":"18.35609000","population":1400,"timezone":"Europe/Warsaw","type":"city","translations":{"es":"Wierzchosławice","en":"Wierzchosławice"}},{"name":"Włocławek","state_code":"04","latitude":"52.64817000","longitude":"19.06780000","population":104705,"timezone":"Europe/Warsaw","type":"adm2","translations":{"es":"Włocławek","en":"Włocławek"}},{"name":"Zbójno","state_code":"04","latitude":"53.00848000","longitude":"19.15750000","population":857,"timezone":"Europe/Warsaw","type":"adm3","translations":{"es":"Zbójno","en":"Zbójno"}},{"name":"Zławieś Wielka","state_code":"04","latitude":"53.09562000","longitude":"18.32897000","population":682,"timezone":"Europe/Warsaw","type":"adm3","translations":{"es":"Zławieś Wielka","en":"Zławieś Wielka"}},{"name":"Złotniki Kujawskie","state_code":"04","latitude":"52.89943000","longitude":"18.14564000","population":2400,"timezone":"Europe/Warsaw","type":"city","translations":{"es":"Złotniki Kujawskie","en":"Złotniki Kujawskie"}},{"name":"Żnin","state_code":"04","latitude":"52.84958000","longitude":"17.71992000","population":13268,"timezone":"Europe/Warsaw","type":"adm2","translations":{"es":"Żnin","en":"Żnin"}},{"name":"Alwernia","state_code":"12","latitude":"50.06056000","longitude":"19.53953000","population":3306,"timezone":"Europe/Warsaw","type":"adm3","translations":{"es":"Alwernia","en":"Alwernia"}},{"name":"Andrychów","state_code":"12","latitude":"49.85497000","longitude":"19.33834000","population":18655,"timezone":"Europe/Warsaw","type":"adm3","translations":{"es":"Andrychów","en":"Andrychów"}},{"name":"Babice","state_code":"12","latitude":"50.05565000","longitude":"19.19955000","population":1582,"timezone":"Europe/Warsaw","type":"city","translations":{"es":"Babice","en":"Babice"}},{"name":"Bachowice","state_code":"12","latitude":"49.95812000","longitude":"19.49369000","population":2334,"timezone":"Europe/Warsaw","type":"city","translations":{"es":"Bachowice","en":"Bachowice"}},{"name":"Balice","state_code":"12","latitude":"50.08799000","longitude":"19.79462000","population":1487,"timezone":"Europe/Warsaw","type":"city","translations":{"es":"Balice","en":"Balice"}},{"name":"Balin","state_code":"12","latitude":"50.16799000","longitude":"19.38340000","population":3353,"timezone":"Europe/Warsaw","type":"section","translations":{"es":"Balín","en":"Balin"}},{"name":"Barwałd Górny","state_code":"12","latitude":"49.86211000","longitude":"19.61746000","population":1411,"timezone":"Europe/Warsaw","type":"section","translations":{"es":"Barwałd Górny","en":"Barwałd Górny"}},{"name":"Barwałd Średni","state_code":"12","latitude":"49.86632000","longitude":"19.59360000","population":1387,"timezone":"Europe/Warsaw","type":"section","translations":{"es":"Barwałd Średni","en":"Barwałd Średni"}},{"name":"Bębło","state_code":"12","latitude":"50.18053000","longitude":"19.78741000","population":1092,"timezone":"Europe/Warsaw","type":"city","translations":{"es":"Bębło","en":"Bębło"}},{"name":"Bęczarka","state_code":"12","latitude":"49.87793000","longitude":"19.86723000","population":1154,"timezone":"Europe/Warsaw","type":"city","translations":{"es":"Bęczarka","en":"Bęczarka"}},{"name":"Białka","state_code":"12","latitude":"49.69306000","longitude":"19.67033000","population":2617,"timezone":"Europe/Warsaw","type":"city","translations":{"es":"Białka","en":"Białka"}},{"name":"Białka Tatrzańska","state_code":"12","latitude":"49.38975000","longitude":"20.10507000","population":2318,"timezone":"Europe/Warsaw","type":"city","translations":{"es":"Białka Tatrzańska","en":"Białka Tatrzańska"}},{"name":"Biały Dunajec","state_code":"12","latitude":"49.37380000","longitude":"20.00898000","population":5180,"timezone":"Europe/Warsaw","type":"adm3","translations":{"es":"Biały Dunajec","en":"Biały Dunajec"}},{"name":"Biecz","state_code":"12","latitude":"49.73596000","longitude":"21.26301000","population":4445,"timezone":"Europe/Warsaw","type":"city","translations":{"es":"Biecz","en":"Biecz"}},{"name":"Bieńkówka","state_code":"12","latitude":"49.77600000","longitude":"19.77179000","population":2254,"timezone":"Europe/Warsaw","type":"city","translations":{"es":"Bieńkówka","en":"Bieńkówka"}},{"name":"Binarowa","state_code":"12","latitude":"49.75621000","longitude":"21.22816000","population":1578,"timezone":"Europe/Warsaw","type":"city","translations":{"es":"Binarowa","en":"Binarowa"}},{"name":"Biskupice Radłowskie","state_code":"12","latitude":"50.12069000","longitude":"20.85943000","population":1019,"timezone":"Europe/Warsaw","type":"city","translations":{"es":"Biskupice Radłowskie","en":"Biskupice Radłowskie"}},{"name":"Bobowa","state_code":"12","latitude":"49.70866000","longitude":"20.94767000","population":3094,"timezone":"Europe/Warsaw","type":"city","translations":{"es":"Bobowa","en":"Bobowa"}},{"name":"Bochnia","state_code":"12","latitude":"49.96905000","longitude":"20.43028000","population":28692,"timezone":"Europe/Warsaw","type":"adm2","translations":{"es":"Bochnia","en":"Bochnia"}},{"name":"Bolechowice","state_code":"12","latitude":"50.14831000","longitude":"19.79273000","population":1515,"timezone":"Europe/Warsaw","type":"city","translations":{"es":"Bolechowice","en":"Bolechowice"}},{"name":"Bolęcin","state_code":"12","latitude":"50.11750000","longitude":"19.48116000","population":1956,"timezone":"Europe/Warsaw","type":"city","translations":{"es":"Bolęcin","en":"Bolęcin"}},{"name":"Bolesław","state_code":"12","latitude":"50.29729000","longitude":"19.48073000","population":2500,"timezone":"Europe/Warsaw","type":"adm3","translations":{"es":"Bolesław","en":"Bolesław"}},{"name":"Borek","state_code":"12","latitude":"50.01778000","longitude":"20.53087000","population":1383,"timezone":"Europe/Warsaw","type":"city","translations":{"es":"Borek","en":"Borek"}},{"name":"Borzęcin","state_code":"12","latitude":"50.06540000","longitude":"20.71103000","population":3865,"timezone":"Europe/Warsaw","type":"adm3","translations":{"es":"Borzęcin","en":"Borzęcin"}},{"name":"Borzęta","state_code":"12","latitude":"49.86228000","longitude":"19.97924000","population":1269,"timezone":"Europe/Warsaw","type":"city","translations":{"es":"Borzęta","en":"Borzęta"}},{"name":"Brodła","state_code":"12","latitude":"50.04331000","longitude":"19.58879000","population":1016,"timezone":"Europe/Warsaw","type":"city","translations":{"es":"Brodła","en":"Brodła"}},{"name":"Brody","state_code":"12","latitude":"49.86742000","longitude":"19.69746000","population":2577,"timezone":"Europe/Warsaw","type":"city","translations":{"es":"Brody","en":"Brody"}},{"name":"Brzączowice","state_code":"12","latitude":"49.87478000","longitude":"20.03709000","population":1230,"timezone":"Europe/Warsaw","type":"city","translations":{"es":"Brzączowice","en":"Brzączowice"}},{"name":"Brzesko","state_code":"12","latitude":"49.96911000","longitude":"20.60606000","population":16193,"timezone":"Europe/Warsaw","type":"adm2","translations":{"es":"Brzesko","en":"Brzesko"}},{"name":"Brzeszcze","state_code":"12","latitude":"49.98203000","longitude":"19.15157000","population":11049,"timezone":"Europe/Warsaw","type":"city","translations":{"es":"Brzeszcze","en":"Brzeszcze"}},{"name":"Brzezinka","state_code":"12","latitude":"50.04237000","longitude":"19.19020000","population":2296,"timezone":"Europe/Warsaw","type":"city","translations":{"es":"Brzezinka","en":"Brzezinka"}},{"name":"Brzeźnica","state_code":"12","latitude":"49.96497000","longitude":"19.61952000","population":1281,"timezone":"Europe/Warsaw","type":"city","translations":{"es":"Brzeźnica","en":"Brzeźnica"}},{"name":"Budzów","state_code":"12","latitude":"49.77622000","longitude":"19.67274000","population":2858,"timezone":"Europe/Warsaw","type":"adm3","translations":{"es":"Budzów","en":"Budzów"}},