[{"name":"Adjuntas","state_code":"001","latitude":"18.16348480","longitude":"-66.72315800","population":5080,"timezone":"America/Puerto_Rico","type":"adm1","translations":{"es":"Adjuntas","en":"Adjuntas"}},{"name":"Aguada","state_code":"003","latitude":"18.38015790","longitude":"-67.18870400","population":4040,"timezone":"America/Puerto_Rico","type":"adm1","translations":{"es":"Aguada","en":"Aguada"}},{"name":"Aguadilla","state_code":"005","latitude":"18.42744540","longitude":"-67.15406980","population":16073,"timezone":"America/Puerto_Rico","type":"adm1","translations":{"es":"Aguadilla","en":"Aguadilla"}},{"name":"Aguas Buenas","state_code":"007","latitude":"18.25689890","longitude":"-66.10294420","population":4576,"timezone":"America/Puerto_Rico","type":"adm1","translations":{"es":"Aguas Buenas","en":"Aguas Buenas"}},{"name":"Aibonito","state_code":"009","latitude":"18.13995940","longitude":"-66.26600160","population":8947,"timezone":"America/Puerto_Rico","type":"adm1","translations":{"es":"Aibonito","en":"Aibonito"}},{"name":"Añasco","state_code":"011","latitude":"18.28544760","longitude":"-67.14029350","population":6136,"timezone":"America/Puerto_Rico","type":"adm1","translations":{"es":"Añasco","en":"Añasco"}},{"name":"Arecibo","state_code":"AR","latitude":"18.47051370","longitude":"-66.72184720","population":null,"timezone":"America/Puerto_Rico","type":"adm1","translations":{"es":"Arecibo","en":"Arecibo"}},{"name":"Arroyo","state_code":"015","latitude":"17.99642200","longitude":"-66.09248790","population":null,"timezone":"America/Puerto_Rico","type":"city","translations":{"es":"Cauce seco de un río","en":"Arroyo"}},{"name":"Barceloneta","state_code":"017","latitude":"41.38010610","longitude":"2.18969570","population":null,"timezone":"America/Puerto_Rico","type":"city","translations":{"es":"Barceloneta","en":"Barceloneta"}},{"name":"Barranquitas","state_code":"019","latitude":"18.18662420","longitude":"-66.30628020","population":3021,"timezone":"America/Puerto_Rico","type":"adm1","translations":{"es":"Barranquitas","en":"Barranquitas"}},{"name":"Bayamón","state_code":"BY","latitude":"18.38939600","longitude":"-66.16532240","population":null,"timezone":"America/Puerto_Rico","type":"adm1","translations":{"es":"Bayamón","en":"Bayamón"}},{"name":"Cabo Rojo","state_code":"023","latitude":"18.08662650","longitude":"-67.14573470","population":10839,"timezone":"America/Puerto_Rico","type":"adm1","translations":{"es":"Cabo Rojo","en":"Cabo Rojo"}},{"name":"Caguas","state_code":"CG","latitude":"18.23879950","longitude":"-66.03524900","population":null,"timezone":"America/Puerto_Rico","type":"adm1","translations":{"es":"Caguas","en":"Caguas"}},{"name":"Camuy","state_code":"027","latitude":"18.48383300","longitude":"-66.84489940","population":4240,"timezone":"America/Puerto_Rico","type":"adm1","translations":{"es":"Camuy","en":"Camuy"}},{"name":"Canóvanas","state_code":"029","latitude":"18.37487480","longitude":"-65.89975330","population":8437,"timezone":"America/Puerto_Rico","type":"adm1","translations":{"es":"Canóvanas","en":"Canóvanas"}},{"name":"Carolina","state_code":"CL","latitude":"18.36808770","longitude":"-66.04247340","population":null,"timezone":"America/Puerto_Rico","type":"adm1","translations":{"es":"Carolina","en":"Carolina"}},{"name":"Cataño","state_code":"033","latitude":"18.44653550","longitude":"-66.13557750","population":null,"timezone":"America/Puerto_Rico","type":"adm1","translations":{"es":"Cataño","en":"Cataño"}},{"name":"Cayey","state_code":"035","latitude":"18.11190510","longitude":"-66.16600000","population":18494,"timezone":"America/Puerto_Rico","type":"adm1","translations":{"es":"Cayey","en":"Cayey"}},{"name":"Ceiba","state_code":"037","latitude":"18.24751770","longitude":"-65.90849530","population":null,"timezone":"America/Puerto_Rico","type":"city","translations":{"es":"Ceiba","en":"Ceiba"}},{"name":"Ciales","state_code":"039","latitude":"18.33606220","longitude":"-66.46878230","population":3256,"timezone":"America/Puerto_Rico","type":"adm1","translations":{"es":"Ciales","en":"Ciales"}},{"name":"Cidra","state_code":"041","latitude":"18.17579140","longitude":"-66.16127790","population":5067,"timezone":"America/Puerto_Rico","type":"adm1","translations":{"es":"Cidra","en":"Cidra"}},{"name":"Coamo","state_code":"043","latitude":"18.07996160","longitude":"-66.35794730","population":11940,"timezone":"America/Puerto_Rico","type":"adm1","translations":{"es":"Coamo","en":"Coamo"}},{"name":"Comerío","state_code":"045","latitude":"18.21920010","longitude":"-66.22560220","population":4649,"timezone":"America/Puerto_Rico","type":"adm1","translations":{"es":"Comerío","en":"Comerío"}},{"name":"Corozal","state_code":"047","latitude":"18.40308020","longitude":"-88.39675360","population":null,"timezone":"America/Puerto_Rico","type":"city","translations":{"es":"Corozal","en":"Corozal"}},{"name":"Culebra","state_code":"049","latitude":"18.31039400","longitude":"-65.30307050","population":1486,"timezone":"America/Puerto_Rico","type":"adm1","translations":{"es":"Culebra","en":"Culebra"}},{"name":"Dorado","state_code":"051","latitude":"43.14805560","longitude":"-77.57722220","population":null,"timezone":"America/Puerto_Rico","type":"city","translations":{"es":"Dorado","en":"Dorado"}},{"name":"Fajardo","state_code":"053","latitude":"18.32521480","longitude":"-65.65393560","population":32124,"timezone":"America/Puerto_Rico","type":"adm1","translations":{"es":"Fajardo","en":"Fajardo"}},{"name":"Florida","state_code":"054","latitude":"27.66482740","longitude":"-81.51575350","population":null,"timezone":"America/Puerto_Rico","type":"city","translations":{"es":"Florida","en":"Florida"}},{"name":"Guánica","state_code":"055","latitude":"17.97251450","longitude":"-66.90862640","population":9224,"timezone":"America/Puerto_Rico","type":"adm1","translations":{"es":"Guánica","en":"Guánica"}},{"name":"Guayama","state_code":"057","latitude":"17.98413280","longitude":"-66.11377670","population":21575,"timezone":"America/Puerto_Rico","type":"adm1","translations":{"es":"Guayama","en":"Guayama"}},{"name":"Guayanilla","state_code":"059","latitude":"18.01913140","longitude":"-66.79184200","population":5213,"timezone":"America/Puerto_Rico","type":"adm1","translations":{"es":"Guayanilla","en":"Guayanilla"}},{"name":"Guaynabo","state_code":"GN","latitude":"18.36129540","longitude":"-66.11029570","population":81360,"timezone":"America/Puerto_Rico","type":"adm1","translations":{"es":"Guaynabo","en":"Guaynabo"}},{"name":"Gurabo","state_code":"063","latitude":"18.25439870","longitude":"-65.97294210","population":8973,"timezone":"America/Puerto_Rico","type":"adm1","translations":{"es":"gurabo","en":"Gurabo"}},{"name":"Hatillo","state_code":"065","latitude":"18.42846420","longitude":"-66.78753210","population":2325,"timezone":"America/Puerto_Rico","type":"city","translations":{"es":"Hatillo","en":"Hatillo"}},{"name":"Hormigueros","state_code":"067","latitude":"18.13346380","longitude":"-67.11281230","population":null,"timezone":"America/Puerto_Rico","type":"adm1","translations":{"es":"Hormigueros","en":"Hormigueros"}},{"name":"Humacao","state_code":"069","latitude":"18.15157360","longitude":"-65.82485290","population":20387,"timezone":"America/Puerto_Rico","type":"adm1","translations":{"es":"Humacao","en":"Humacao"}},{"name":"Isabela","state_code":"071","latitude":"16.97537580","longitude":"121.81070790","population":null,"timezone":"America/Puerto_Rico","type":"city","translations":{"es":"Isabela","en":"Isabela"}},{"name":"Jayuya","state_code":"073","latitude":"18.21856740","longitude":"-66.59156170","population":3587,"timezone":"America/Puerto_Rico","type":"adm1","translations":{"es":"Jayuya","en":"Jayuya"}},{"name":"Juana Díaz","state_code":"075","latitude":"18.05343720","longitude":"-66.50750790","population":9427,"timezone":"America/Puerto_Rico","type":"adm1","translations":{"es":"Juana Díaz","en":"Juana Díaz"}},{"name":"Juncos","state_code":"077","latitude":"18.22745580","longitude":"-65.92099700","population":8905,"timezone":"America/Puerto_Rico","type":"adm1","translations":{"es":"Juncos","en":"Juncos"}},{"name":"Lajas","state_code":"079","latitude":"18.04996200","longitude":"-67.05934490","population":5255,"timezone":"America/Puerto_Rico","type":"adm1","translations":{"es":"Lajas","en":"Lajas"}},{"name":"Lares","state_code":"081","latitude":"34.02508020","longitude":"-118.45945930","population":null,"timezone":"America/Puerto_Rico","type":"city","translations":{"es":"Lares","en":"Lares"}},{"name":"Las Marías","state_code":"083","latitude":"35.83822380","longitude":"-78.61035660","population":null,"timezone":"America/Puerto_Rico","type":"city","translations":{"es":"Las Marías","en":"Las Marías"}},{"name":"Las Piedras","state_code":"085","latitude":"18.18557530","longitude":"-65.87362450","population":null,"timezone":"America/Puerto_Rico","type":"adm1","translations":{"es":"Las Piedras","en":"Las Piedras"}},{"name":"Loíza","state_code":"087","latitude":"18.43299040","longitude":"-65.87836000","population":4311,"timezone":"America/Puerto_Rico","type":"adm1","translations":{"es":"Loíza","en":"Loíza"}},{"name":"Luquillo","state_code":"089","latitude":"18.37245070","longitude":"-65.71655110","population":8326,"timezone":"America/Puerto_Rico","type":"adm1","translations":{"es":"Luquillo","en":"Luquillo"}},{"name":"Manatí","state_code":"091","latitude":"18.41812150","longitude":"-66.52627830","population":null,"timezone":"America/Puerto_Rico","type":"city","translations":{"es":"Manatí","en":"Manatí"}},{"name":"Maricao","state_code":"093","latitude":"18.18079020","longitude":"-66.97990010","population":1172,"timezone":"America/Puerto_Rico","type":"adm1","translations":{"es":"Maricao","en":"Maricao"}},{"name":"Maunabo","state_code":"095","latitude":"18.00718850","longitude":"-65.89932890","population":2154,"timezone":"America/Puerto_Rico","type":"adm1","translations":{"es":"Maunabo","en":"Maunabo"}},{"name":"Mayagüez","state_code":"MG","latitude":"18.20134520","longitude":"-67.14515490","population":null,"timezone":"America/Puerto_Rico","type":"adm1","translations":{"es":"Mayagüez","en":"Mayagüez"}},{"name":"Moca","state_code":"099","latitude":"18.39679290","longitude":"-67.14790350","population":null,"timezone":"America/Puerto_Rico","type":"adm1","translations":{"es":"Moca","en":"Moca"}},{"name":"Morovis","state_code":"101","latitude":"18.32578500","longitude":"-66.40655920","population":2414,"timezone":"America/Puerto_Rico","type":"adm1","translations":{"es":"Morovis","en":"Morovis"}},{"name":"Naguabo","state_code":"103","latitude":"18.21162470","longitude":"-65.73488410","population":4643,"timezone":"America/Puerto_Rico","type":"adm1","translations":{"es":"Naguabo","en":"Naguabo"}},{"name":"Naranjito","state_code":"105","latitude":"18.30078610","longitude":"-66.24489040","population":2005,"timezone":"America/Puerto_Rico","type":"adm1","translations":{"es":"Naranjito","en":"Naranjito"}},{"name":"Orocovis","state_code":"107","latitude":"18.22692240","longitude":"-66.39116860","population":944,"timezone":"America/Puerto_Rico","type":"adm1","translations":{"es":"Orocovis","en":"Orocovis"}},{"name":"Patillas","state_code":"109","latitude":"18.00373810","longitude":"-66.01340590","population":4247,"timezone":"America/Puerto_Rico","type":"adm1","translations":{"es":"Patillas","en":"Patillas"}},{"name":"Peñuelas","state_code":"111","latitude":"18.06335770","longitude":"-66.72738960","population":null,"timezone":"America/Puerto_Rico","type":"adm1","translations":{"es":"Peñuelas","en":"Peñuelas"}},{"name":"Ponce","state_code":"PO","latitude":"18.01107680","longitude":"-66.61406160","population":null,"timezone":"America/Puerto_Rico","type":"adm1","translations":{"es":"Ponce","en":"Ponce"}},{"name":"Quebradillas","state_code":"115","latitude":"18.47383300","longitude":"-66.93851200","population":5620,"timezone":"America/Puerto_Rico","type":"adm1","translations":{"es":"Quebradillas","en":"Quebradillas"}},{"name":"Rincón","state_code":"117","latitude":"18.34015140","longitude":"-67.24994590","population":1499,"timezone":"America/Puerto_Rico","type":"adm1","translations":{"es":"Rincón","en":"Rincón"}},{"name":"Río Grande","state_code":"119","latitude":"28.81063826","longitude":"-101.83538780","population":null,"timezone":"America/Puerto_Rico","type":"city","translations":{"es":"Río Grande","en":"Río Grande"}},{"name":"Sabana Grande","state_code":"121","latitude":"18.07773920","longitude":"-66.96045490","population":8961,"timezone":"America/Puerto_Rico","type":"adm1","translations":{"es":"Sabana Grande","en":"Sabana Grande"}},{"name":"Salinas","state_code":"123","latitude":"36.67773720","longitude":"-121.65550130","population":null,"timezone":"America/Puerto_Rico","type":"city","translations":{"es":"Salinas","en":"Salinas"}},{"name":"San Germán","state_code":"125","latitude":"18.08070820","longitude":"-67.04110960","population":12055,"timezone":"America/Puerto_Rico","type":"adm1","translations":{"es":"San Germán","en":"San Germán"}},{"name":"San Juan","state_code":"SJ","latitude":"18.46320300","longitude":"-66.11475710","population":null,"timezone":"America/Puerto_Rico","type":"capital","translations":{"es":"San Juan","en":"San Juan"}},{"name":"San Lorenzo","state_code":"129","latitude":"18.18869120","longitude":"-65.97658620","population":null,"timezone":"America/Puerto_Rico","type":"adm1","translations":{"es":"San Lorenzo","en":"San Lorenzo"}},{"name":"San Sebastián","state_code":"131","latitude":"43.31833400","longitude":"-1.98123130","population":null,"timezone":"America/Puerto_Rico","type":"city","translations":{"es":"San Sebastián","en":"San Sebastián"}},{"name":"Santa Isabel","state_code":"133","latitude":"17.96607750","longitude":"-66.40489200","population":7260,"timezone":"America/Puerto_Rico","type":"adm1","translations":{"es":"Santa Isabel","en":"Santa Isabel"}},{"name":"Toa Alta","state_code":"135","latitude":"18.38828230","longitude":"-66.24822370","population":4483,"timezone":"America/Puerto_Rico","type":"adm1","translations":{"es":"Toa Alta","en":"Toa Alta"}},{"name":"Toa Baja","state_code":"TB","latitude":"18.44447090","longitude":"-66.25432930","population":2705,"timezone":"America/Puerto_Rico","type":"city","translations":{"es":"Toa Baja","en":"Toa Baja"}},{"name":"Trujillo Alto","state_code":"TA","latitude":"18.35467190","longitude":"-66.00738760","population":75243,"timezone":"America/Puerto_Rico","type":"adm1","translations":{"es":"Trujillo Alto","en":"Trujillo Alto"}},{"name":"Utuado","state_code":"141","latitude":"18.26550950","longitude":"-66.70045190","population":9844,"timezone":"America/Puerto_Rico","type":"adm1","translations":{"es":"Utuado","en":"Utuado"}},{"name":"Vega Alta","state_code":"143","latitude":"18.41217030","longitude":"-66.33128050","population":12036,"timezone":"America/Puerto_Rico","type":"adm1","translations":{"es":"Vega Alta","en":"Vega Alta"}},{"name":"Vega Baja","state_code":"145","latitude":"18.44614590","longitude":"-66.40419670","population":null,"timezone":"America/Puerto_Rico","type":"adm1","translations":{"es":"Vega Baja","en":"Vega Baja"}},{"name":"Vieques","state_code":"147","latitude":"18.12628540","longitude":"-65.44009850","population":null,"timezone":"America/Puerto_Rico","type":"city","translations":{"es":"Vieques","en":"Vieques"}},{"name":"Villalba","state_code":"149","latitude":"18.12175540","longitude":"-66.49857870","population":2377,"timezone":"America/Puerto_Rico","type":"city","translations":{"es":"Villalba","en":"Villalba"}},{"name":"Yabucoa","state_code":"151","latitude":"18.05052010","longitude":"-65.87932880","population":6952,"timezone":"America/Puerto_Rico","type":"adm1","translations":{"es":"Yabucoa","en":"Yabucoa"}},{"name":"Yauco","state_code":"153","latitude":"18.03496400","longitude":"-66.84989830","population":20295,"timezone":"America/Puerto_Rico","type":"adm1","translations":{"es":"Yauco","en":"Yauco"}}]