[{"name":"Capitán Pablo Lagerenza","state_code":"16","latitude":"-19.91667000","longitude":"-60.78333000","population":1200,"timezone":"America/Asuncion","type":"city","translations":{"es":"Capitán Pablo Lagerenza","en":"Capitán Pablo Lagerenza"}},{"name":"Fuerte Olimpo","state_code":"16","latitude":"-21.04153000","longitude":"-57.87377000","population":2475,"timezone":"America/Asuncion","type":"adm1","translations":{"es":"Fuerte Olimpo","en":"Fuerte Olimpo"}},{"name":"Cedrales","state_code":"10","latitude":"-25.65668000","longitude":"-54.72272000","population":null,"timezone":"America/Asuncion","type":"city","translations":{"es":"Cedrales","en":"Cedrales"}},{"name":"Ciudad del Este","state_code":"10","latitude":"-25.50972000","longitude":"-54.61111000","population":54292,"timezone":"America/Asuncion","type":"city","translations":{"es":"Ciudad del Este","en":"Ciudad del Este"}},{"name":"Colonia Minga Porá","state_code":"10","latitude":"-24.86667000","longitude":"-54.90000000","population":1770,"timezone":"America/Asuncion","type":"city","translations":{"es":"Colonia Minga Porá","en":"Colonia Minga Porá"}},{"name":"Doctor Juan León Mallorquín","state_code":"10","latitude":"-25.43053000","longitude":"-55.25412000","population":7481,"timezone":"America/Asuncion","type":"city","translations":{"es":"Doctor Juan León Mallorquín","en":"Doctor Juan León Mallorquín"}},{"name":"Itakyry","state_code":"10","latitude":"-24.98611000","longitude":"-55.14963000","population":3038,"timezone":"America/Asuncion","type":"city","translations":{"es":"Itakyry","en":"Itakyry"}},{"name":"Naranjal","state_code":"10","latitude":"-25.96667000","longitude":"-55.18333000","population":2151,"timezone":"America/Asuncion","type":"city","translations":{"es":"Naranjal","en":"Naranjal"}},{"name":"Presidente Franco","state_code":"10","latitude":"-25.56384000","longitude":"-54.61097000","population":54292,"timezone":"America/Asuncion","type":"city","translations":{"es":"Presidente Franco","en":"Presidente Franco"}},{"name":"San Alberto","state_code":"10","latitude":"-24.96667000","longitude":"-54.90000000","population":4989,"timezone":"America/Asuncion","type":"adm2","translations":{"es":"San Alberto","en":"San Alberto"}},{"name":"Santa Rita","state_code":"10","latitude":"-25.78333000","longitude":"-55.06667000","population":null,"timezone":"America/Asuncion","type":"city","translations":{"es":"Santa Rita","en":"Santa Rita"}},{"name":"Yguazú","state_code":"10","latitude":"-25.46187000","longitude":"-55.00007000","population":null,"timezone":"America/Asuncion","type":"city","translations":{"es":"Yguazú","en":"Yguazú"}},{"name":"Bella Vista","state_code":"13","latitude":"-22.13333000","longitude":"-56.51667000","population":5653,"timezone":"America/Asuncion","type":"city","translations":{"es":"Bella Vista","en":"Bella Vista"}},{"name":"Capitán Bado","state_code":"13","latitude":"-23.26667000","longitude":"-55.53333000","population":9114,"timezone":"America/Asuncion","type":"city","translations":{"es":"Capitán Bado","en":"Capitán Bado"}},{"name":"Pedro Juan Caballero","state_code":"13","latitude":"-22.54722000","longitude":"-55.73333000","population":127437,"timezone":"America/Asuncion","type":"adm1","translations":{"es":"Pedro Juan Caballero","en":"Pedro Juan Caballero"}},{"name":"Colonia Menno","state_code":"19","latitude":"-22.36667000","longitude":"-59.81667000","population":5615,"timezone":"America/Asuncion","type":"city","translations":{"es":"Colonia Menno","en":"Colonia Menno"}},{"name":"Colonia Neuland","state_code":"19","latitude":"-22.66667000","longitude":"-60.11667000","population":2816,"timezone":"America/Asuncion","type":"city","translations":{"es":"Colonia Neuland","en":"Colonia Neuland"}},{"name":"Filadelfia","state_code":"19","latitude":"-22.33936000","longitude":"-60.03157000","population":18210,"timezone":"America/Asuncion","type":"adm1","translations":{"es":"Filadelfia","en":"Filadelfia"}},{"name":"Caaguazú","state_code":"5","latitude":"-25.47104000","longitude":"-56.01603000","population":54808,"timezone":"America/Asuncion","type":"city","translations":{"es":"Caaguazú","en":"Caaguazú"}},{"name":"Carayaó","state_code":"5","latitude":"-25.19750000","longitude":"-56.39878000","population":2473,"timezone":"America/Asuncion","type":"city","translations":{"es":"Carayaó","en":"Carayaó"}},{"name":"Cecilio Baez","state_code":"5","latitude":"-25.07158000","longitude":"-56.24386000","population":1977,"timezone":"America/Asuncion","type":"city","translations":{"es":"Cecilio Báez","en":"Cecilio Baez"}},{"name":"Colonia General Alfredo Stroessner","state_code":"5","latitude":"-25.36395000","longitude":"-55.70690000","population":11558,"timezone":"America/Asuncion","type":"locality","translations":{"es":"Colonia General Alfredo Stroessner","en":"Colonia General Alfredo Stroessner"}},{"name":"Coronel Oviedo","state_code":"5","latitude":"-25.44444000","longitude":"-56.44028000","population":51286,"timezone":"America/Asuncion","type":"adm1","translations":{"es":"Coronel Oviedo","en":"Coronel Oviedo"}},{"name":"Doctor Juan Manuel Frutos","state_code":"5","latitude":"-25.38380000","longitude":"-55.83215000","population":4797,"timezone":"America/Asuncion","type":"city","translations":{"es":"Doctor Juan Manuel Frutos","en":"Doctor Juan Manuel Frutos"}},{"name":"Mbutuý","state_code":"5","latitude":"-24.97518000","longitude":"-56.30927000","population":1466,"timezone":"America/Asuncion","type":"city","translations":{"es":"Mbutuý","en":"Mbutuý"}},{"name":"Repatriación","state_code":"5","latitude":"-25.53333000","longitude":"-55.95000000","population":7085,"timezone":"America/Asuncion","type":"city","translations":{"es":"Repatriación","en":"Repatriación"}},{"name":"San Joaquín","state_code":"5","latitude":"-25.02853000","longitude":"-56.04280000","population":1745,"timezone":"America/Asuncion","type":"adm2","translations":{"es":"San Joaquín","en":"San Joaquín"}},{"name":"San José","state_code":"5","latitude":"-25.53333000","longitude":"-56.73333000","population":null,"timezone":"America/Asuncion","type":"city","translations":{"es":"San José","en":"San José"}},{"name":"Yhú","state_code":"5","latitude":"-25.05784000","longitude":"-55.92267000","population":2092,"timezone":"America/Asuncion","type":"adm2","translations":{"es":"Yhú","en":"Yhú"}},{"name":"Abaí","state_code":"6","latitude":"-26.03333000","longitude":"-55.93333000","population":32538,"timezone":"America/Asuncion","type":"city","translations":{"es":"Abaí","en":"Abaí"}},{"name":"Buena Vista","state_code":"6","latitude":"-26.18387000","longitude":"-56.08171000","population":1580,"timezone":"America/Asuncion","type":"city","translations":{"es":"Buena Vista","en":"Buena Vista"}},{"name":"Caazapá","state_code":"6","latitude":"-26.19583000","longitude":"-56.36806000","population":23996,"timezone":"America/Asuncion","type":"adm1","translations":{"es":"Caazapá","en":"Caazapá"}},{"name":"General Higinio Morínigo","state_code":"6","latitude":"-25.95000000","longitude":"-55.91667000","population":1399,"timezone":"America/Asuncion","type":"city","translations":{"es":"General Higinio Morínigo","en":"General Higinio Morínigo"}},{"name":"San Juan Nepomuceno","state_code":"6","latitude":"-26.11229000","longitude":"-55.93861000","population":7893,"timezone":"America/Asuncion","type":"city","translations":{"es":"San Juan Nepomuceno","en":"San Juan Nepomuceno"}},{"name":"Yegros","state_code":"6","latitude":"-26.45000000","longitude":"-56.40000000","population":1140,"timezone":"America/Asuncion","type":"city","translations":{"es":"Yegros","en":"Yegros"}},{"name":"Yuty","state_code":"6","latitude":"-26.61471000","longitude":"-56.24607000","population":4774,"timezone":"America/Asuncion","type":"city","translations":{"es":"Yuty","en":"Yuty"}},{"name":"Colonia Catuete","state_code":"14","latitude":"-24.13333000","longitude":"-54.61667000","population":4070,"timezone":"America/Asuncion","type":"city","translations":{"es":"Colonia Catuete","en":"Colonia Catuete"}},{"name":"Corpus Christi","state_code":"14","latitude":"-24.08040000","longitude":"-54.93933000","population":1387,"timezone":"America/Asuncion","type":"city","translations":{"es":"Corpus Cristi","en":"Corpus Christi"}},{"name":"La Paloma","state_code":"14","latitude":"-24.12957000","longitude":"-54.61376000","population":null,"timezone":"America/Asuncion","type":"city","translations":{"es":"La Paloma","en":"La Paloma"}},{"name":"Nueva Esperanza","state_code":"14","latitude":"-24.50760000","longitude":"-54.85510000","population":12717,"timezone":"America/Asuncion","type":"city","translations":{"es":"Nueva Esperanza","en":"Nueva Esperanza"}},{"name":"Salto del Guairá","state_code":"14","latitude":"-24.06250000","longitude":"-54.30694000","population":7385,"timezone":"America/Asuncion","type":"adm1","translations":{"es":"Salto del Guairá","en":"Salto del Guairá"}},{"name":"San Isidro de Curuguaty","state_code":"14","latitude":"-24.47184000","longitude":"-55.69227000","population":11095,"timezone":"America/Asuncion","type":"city","translations":{"es":"San Isidro de Curuguaty","en":"San Isidro de Curuguaty"}},{"name":"Ygatimi","state_code":"14","latitude":"-24.12371000","longitude":"-55.64418000","population":2809,"timezone":"America/Asuncion","type":"city","translations":{"es":"Ygatimi","en":"Ygatimi"}},{"name":"Areguá","state_code":"11","latitude":"-25.31250000","longitude":"-57.38472000","population":11222,"timezone":"America/Asuncion","type":"adm1","translations":{"es":"Areguá","en":"Areguá"}},{"name":"Capiatá","state_code":"11","latitude":"-25.35520000","longitude":"-57.44545000","population":236999,"timezone":"America/Asuncion","type":"city","translations":{"es":"Capiatá","en":"Capiatá"}},{"name":"Fernando de la Mora","state_code":"11","latitude":"-25.33860000","longitude":"-57.52167000","population":110255,"timezone":"America/Asuncion","type":"city","translations":{"es":"Fernando de la Mora","en":"Fernando de la Mora"}},{"name":"Guarambaré","state_code":"11","latitude":"-25.49096000","longitude":"-57.45567000","population":9065,"timezone":"America/Asuncion","type":"city","translations":{"es":"Guarambaré","en":"Guarambaré"}},{"name":"Itá","state_code":"11","latitude":"-25.50054000","longitude":"-57.36717000","population":18459,"timezone":"America/Asuncion","type":"city","translations":{"es":"Itá","en":"Itá"}},{"name":"Itauguá","state_code":"11","latitude":"-25.39258000","longitude":"-57.35421000","population":64997,"timezone":"America/Asuncion","type":"city","translations":{"es":"Itauguá","en":"Itauguá"}},{"name":"Julián Augusto Saldívar","state_code":"11","latitude":"-25.44390000","longitude":"-57.44304610","population":null,"timezone":"America/Asuncion","type":"city","translations":{"es":"Julián Augusto Saldívar","en":"Julián Augusto Saldívar"}},{"name":"Lambaré","state_code":"11","latitude":"-25.34682000","longitude":"-57.60647000","population":127150,"timezone":"America/Asuncion","type":"city","translations":{"es":"Lambaré","en":"Lambaré"}},{"name":"Limpio","state_code":"11","latitude":"-25.16611000","longitude":"-57.48562000","population":96143,"timezone":"America/Asuncion","type":"city","translations":{"es":"Limpio","en":"Limpio"}},{"name":"Luque","state_code":"11","latitude":"-25.26654170","longitude":"-57.49269280","population":259705,"timezone":"America/Asuncion","type":"city","translations":{"es":"Luque","en":"Luque"}},{"name":"Mariano Roque Alonso","state_code":"11","latitude":"-25.20791000","longitude":"-57.53202000","population":72008,"timezone":"America/Asuncion","type":"city","translations":{"es":"Mariano Roque Alonso","en":"Mariano Roque Alonso"}},{"name":"Nemby","state_code":"11","latitude":"-25.39490000","longitude":"-57.53574000","population":94641,"timezone":"America/Asuncion","type":"city","translations":{"es":"Ñemby","en":"Nemby"}},{"name":"Nueva Italia","state_code":"11","latitude":"-25.61080000","longitude":"-57.46563000","population":2841,"timezone":"America/Asuncion","type":"city","translations":{"es":"Nueva Italia","en":"Nueva Italia"}},{"name":"San Antonio","state_code":"11","latitude":"-25.42126000","longitude":"-57.54725000","population":55754,"timezone":"America/Asuncion","type":"city","translations":{"es":"San Antonio","en":"San Antonio"}},{"name":"San Lorenzo","state_code":"11","latitude":"-25.33968000","longitude":"-57.50879000","population":225395,"timezone":"America/Asuncion","type":"city","translations":{"es":"San Lorenzo","en":"San Lorenzo"}},{"name":"Villa Elisa","state_code":"11","latitude":"-25.36760000","longitude":"-57.59274000","population":64099,"timezone":"America/Asuncion","type":"city","translations":{"es":"Villa Elisa","en":"Villa Elisa"}},{"name":"Villeta","state_code":"11","latitude":"-25.50451920","longitude":"-57.56937890","population":35941,"timezone":"America/Asuncion","type":"city","translations":{"es":"Villeta","en":"Villeta"}},{"name":"Ypacarai","state_code":"11","latitude":"-25.40777000","longitude":"-57.28889000","population":9655,"timezone":"America/Asuncion","type":"city","translations":{"es":"Ypacaraí","en":"Ypacarai"}},{"name":"Ypané","state_code":"11","latitude":"-25.45735190","longitude":"-57.50925750","population":null,"timezone":"America/Asuncion","type":"city","translations":{"es":"Ypané","en":"Ypané"}},{"name":"Belén","state_code":"1","latitude":"-23.46611000","longitude":"-57.26194000","population":1621,"timezone":"America/Asuncion","type":"city","translations":{"es":"Belén","en":"Belén"}},{"name":"Concepción","state_code":"1","latitude":"-23.39985000","longitude":"-57.43236000","population":45068,"timezone":"America/Asuncion","type":"adm1","translations":{"es":"Concepción","en":"Concepción"}},{"name":"Horqueta","state_code":"1","latitude":"-23.34278000","longitude":"-57.05972000","population":10531,"timezone":"America/Asuncion","type":"city","translations":{"es":"Horqueta","en":"Horqueta"}},{"name":"Altos","state_code":"3","latitude":"-25.26263000","longitude":"-57.25443000","population":4763,"timezone":"America/Asuncion","type":"city","translations":{"es":"Altos","en":"Altos"}},{"name":"Arroyos y Esteros","state_code":"3","latitude":"-25.05478000","longitude":"-57.09873000","population":2455,"timezone":"America/Asuncion","type":"city","translations":{"es":"Arroyos y Esteros","en":"Arroyos y Esteros"}},{"name":"Atyrá","state_code":"3","latitude":"-25.27876000","longitude":"-57.17192000","population":4768,"timezone":"America/Asuncion","type":"city","translations":{"es":"Atyrá","en":"Atyrá"}},{"name":"Caacupé","state_code":"3","latitude":"-25.38575000","longitude":"-57.14217000","population":56864,"timezone":"America/Asuncion","type":"adm1","translations":{"es":"Caacupé","en":"Caacupé"}},{"name":"Caraguatay","state_code":"3","latitude":"-25.23844000","longitude":"-56.82693000","population":1637,"timezone":"America/Asuncion","type":"city","translations":{"es":"Caraguatay","en":"Caraguatay"}},{"name":"Emboscada","state_code":"3","latitude":"-25.15000000","longitude":"-57.35000000","population":5911,"timezone":"America/Asuncion","type":"city","translations":{"es":"Emboscada","en":"Emboscada"}},{"name":"Eusebio Ayala","state_code":"3","latitude":"-25.38276000","longitude":"-56.96088000","population":8253,"timezone":"America/Asuncion","type":"city","translations":{"es":"Eusebio Ayala","en":"Eusebio Ayala"}},{"name":"Isla Pucú","state_code":"3","latitude":"-25.30853000","longitude":"-56.89986000","population":1529,"timezone":"America/Asuncion","type":"city","translations":{"es":"Isla Pucú","en":"Isla Pucú"}},{"name":"Itacurubí de la Cordillera","state_code":"3","latitude":"-25.46158000","longitude":"-56.85333000","population":3576,"timezone":"America/Asuncion","type":"city","translations":{"es":"Itacurubí de la Cordillera","en":"Itacurubí de la Cordillera"}},{"name":"Piribebuy","state_code":"3","latitude":"-25.46498000","longitude":"-57.04183000","population":10337,"timezone":"America/Asuncion","type":"city","translations":{"es":"Piribebuy","en":"Piribebuy"}},{"name":"San Bernardino","state_code":"3","latitude":"-25.31067000","longitude":"-57.29628000","population":4651,"timezone":"America/Asuncion","type":"city","translations":{"es":"San Bernardino","en":"San Bernardino"}},{"name":"Santa Elena","state_code":"3","latitude":"-25.41327000","longitude":"-56.79708000","population":1137,"timezone":"America/Asuncion","type":"city","translations":{"es":"Santa Elena","en":"Santa Elena"}},{"name":"Tobatí","state_code":"3","latitude":"-25.26111000","longitude":"-57.08329000","population":9952,"timezone":"America/Asuncion","type":"city","translations":{"es":"Tobatí","en":"Tobatí"}},{"name":"Colonia Mauricio José Troche","state_code":"4","latitude":"-25.56667000","longitude":"-56.28333000","population":2368,"timezone":"America/Asuncion","type":"city","translations":{"es":"Colonia Mauricio José Troche","en":"Colonia Mauricio José Troche"}},{"name":"Coronel Martínez","state_code":"4","latitude":"-25.75862000","longitude":"-56.61677000","population":1359,"timezone":"America/Asuncion","type":"city","translations":{"es":"Coronel Martínez","en":"Coronel Martínez"}},{"name":"Independencia","state_code":"4","latitude":"-25.69100000","longitude":"-56.26781000","population":1575,"timezone":"America/Asuncion","type":"city","translations":{"es":"Independencia","en":"Independencia"}},{"name":"Itapé","state_code":"4","latitude":"-25.85172000","longitude":"-56.61385000","population":1641,"timezone":"America/Asuncion","type":"city","translations":{"es":"Itapé","en":"Itapé"}},{"name":"Iturbe","state_code":"4","latitude":"-26.05508000","longitude":"-56.48463000","population":4475,"timezone":"America/Asuncion","type":"city","translations":{"es":"Iturbe","en":"Iturbe"}},{"name":"Mbocayaty","state_code":"4","latitude":"-25.71938000","longitude":"-56.42179000","population":2296,"timezone":"America/Asuncion","type":"city","translations":{"es":"Mbocayaty","en":"Mbocayaty"}},{"name":"Natalicio Talavera","state_code":"4","latitude":"-25.63333000","longitude":"-56.30000000","population":1809,"timezone":"America/Asuncion","type":"city","translations":{"es":"Natalicio Talavera","en":"Natalicio Talavera"}},{"name":"Villarrica","state_code":"4","latitude":"-25.74946000","longitude":"-56.43518000","population":41157,"timezone":"America/Asuncion","type":"adm1","translations":{"es":"Villarrica","en":"Villarrica"}},{"name":"Arquitecto Tomás Romero Pereira","state_code":"7","latitude":"-26.48333000","longitude":"-55.25000000","population":null,"timezone":"America/Asuncion","type":"city","translations":{"es":"Arquitecto Tomás Romero Pereira","en":"Arquitecto Tomás Romero Pereira"}},{"name":"Bella Vista","state_code":"7","latitude":"-27.05000000","longitude":"-55.55000000","population":5653,"timezone":"America/Asuncion","type":"city","translations":{"es":"Bella Vista","en":"Bella Vista"}},{"name":"Capitán Miranda","state_code":"7","latitude":"-27.20000000","longitude":"-55.80000000","population":2498,"timezone":"America/Asuncion","type":"city","translations":{"es":"Capitán Miranda","en":"Capitán Miranda"}},{"name":"Carmen del Paraná","state_code":"7","latitude":"-27.22232000","longitude":"-56.15243000","population":4196,"timezone":"America/Asuncion","type":"city","translations":{"es":"Carmen del Paraná","en":"Carmen del Paraná"}},{"name":"Colonia Carlos Antonio López","state_code":"7","latitude":"-26.39853000","longitude":"-54.75690000","population":1496,"timezone":"America/Asuncion","type":"city","translations":{"es":"Colonia Carlos Antonio López","en":"Colonia Carlos Antonio López"}},{"name":"Colonia San Lorenzo","state_code":"7","latitude":"-26.49324000","longitude":"-54.79989000","population":2000,"timezone":"America/Asuncion","type":"city","translations":{"es":"Colonia San Lorenzo","en":"Colonia San Lorenzo"}},{"name":"Edelira","state_code":"7","latitude":"-26.76734000","longitude":"-55.27872000","population":1698,"timezone":"America/Asuncion","type":"city","translations":{"es":"Edelira","en":"Edelira"}},{"name":"Encarnación","state_code":"7","latitude":"-27.33056000","longitude":"-55.86667000","population":74983,"timezone":"America/Asuncion","type":"adm1","translations":{"es":"Encarnación","en":"Encarnación"}},{"name":"Fram","state_code":"7","latitude":"-26.98333000","longitude":"-55.88333000","population":3916,"timezone":"America/Asuncion","type":"city","translations":{"es":"Marco","en":"Fram"}},{"name":"General Artigas","state_code":"7","latitude":"-26.93522000","longitude":"-56.22168000","population":4073,"timezone":"America/Asuncion","type":"city","translations":{"es":"General Artigas","en":"General Artigas"}},{"name":"General Delgado","state_code":"7","latitude":"-27.09046000","longitude":"-56.52474000","population":1544,"timezone":"America/Asuncion","type":"city","translations":{"es":"General Delgado","en":"General Delgado"}},{"name":"Hohenau","state_code":"7","latitude":"-27.07315000","longitude":"-55.64247000","population":5306,"timezone":"America/Asuncion","type":"adm2","translations":{"es":"Hohenau","en":"Hohenau"}},{"name":"Jesús","state_code":"7","latitude":"-27.05598000","longitude":"-55.74130000","population":2530,"timezone":"America/Asuncion","type":"city","translations":{"es":"Jesús","en":"Jesús"}},{"name":"Natalio","state_code":"7","latitude":"-26.75702000","longitude":"-55.13777000","population":2252,"timezone":"America/Asuncion","type":"city","translations":{"es":"Natalio","en":"Natalio"}},{"name":"Obligado","state_code":"7","latitude":"-27.03333000","longitude":"-55.63333000","population":6350,"timezone":"America/Asuncion","type":"city","translations":{"es":"Obligado","en":"Obligado"}},{"name":"Pirapó","state_code":"7","latitude":"-26.86012000","longitude":"-55.54357000","population":1756,"timezone":"America/Asuncion","type":"city","translations":{"es":"Pirapó","en":"Pirapó"}},{"name":"Puerto Mayor Otaño","state_code":"7","latitude":"-26.40000000","longitude":"-54.70000000","population":4701,"timezone":"America/Asuncion","type":"city","translations":{"es":"Puerto Mayor Otaño","en":"Puerto Mayor Otaño"}},{"name":"San Cosme y Damián","state_code":"7","latitude":"-27.31741000","longitude":"-56.33087000","population":2223,"timezone":"America/Asuncion","type":"city","translations":{"es":"San Cosme y Damián","en":"San Cosme y Damián"}},{"name":"San Juan del Paraná","state_code":"7","latitude":"-27.30168000","longitude":"-55.96509000","population":1492,"timezone":"America/Asuncion","type":"city","translations":{"es":"San Juan del Paraná","en":"San Juan del Paraná"}},{"name":"San Pedro del Paraná","state_code":"7","latitude":"-26.83268000","longitude":"-56.20575000","population":5722,"timezone":"America/Asuncion","type":"city","translations":{"es":"San Pedro del Paraná","en":"San Pedro del Paraná"}},{"name":"Trinidad","state_code":"7","latitude":"-27.11667000","longitude":"-55.78333000","population":2837,"timezone":"America/Asuncion","type":"city","translations":{"es":"Trinidad","en":"Trinidad"}},{"name":"Juan de Ayolas","state_code":"8","latitude":"-27.38662000","longitude":"-56.84724000","population":null,"timezone":"America/Asuncion","type":"city","translations":{"es":"Juan de Ayolas","en":"Juan de Ayolas"}},{"name":"San Juan Bautista","state_code":"8","latitude":"-26.66944000","longitude":"-57.14583000","population":16593,"timezone":"America/Asuncion","type":"adm1","translations":{"es":"San Juan Bautista","en":"San Juan Bautista"}},{"name":"San Miguel","state_code":"8","latitude":"-26.50000000","longitude":"-57.05000000","population":null,"timezone":"America/Asuncion","type":"city","translations":{"es":"San Miguel","en":"San Miguel"}},{"name":"San Patricio","state_code":"8","latitude":"-26.96667000","longitude":"-56.81667000","population":1525,"timezone":"America/Asuncion","type":"city","translations":{"es":"San Patricio","en":"San Patricio"}},{"name":"Santa María","state_code":"8","latitude":"-26.78333000","longitude":"-56.93333000","population":2095,"timezone":"America/Asuncion","type":"city","translations":{"es":"Santa María","en":"Santa María"}},{"name":"Santa Rosa Misiones","state_code":"8","latitude":"-26.88730000","longitude":"-56.84905000","population":null,"timezone":"America/Asuncion","type":"city","translations":{"es":"Santa Rosa Misiones","en":"Santa Rosa Misiones"}},{"name":"Santiago","state_code":"8","latitude":"-27.14310000","longitude":"-56.76803000","population":2144,"timezone":"America/Asuncion","type":"city","translations":{"es":"Santiago","en":"Santiago"}},{"name":"Villa Florida","state_code":"8","latitude":"-26.38333000","longitude":"-57.15000000","population":2305,"timezone":"America/Asuncion","type":"city","translations":{"es":"Villa Florida","en":"Villa Florida"}},{"name":"Cerrito","state_code":"12","latitude":"-27.34215000","longitude":"-57.64119000","population":1036,"timezone":"America/Asuncion","type":"city","translations":{"es":"Cerrito","en":"Cerrito"}},{"name":"General José Eduvigis Díaz","state_code":"12","latitude":"-27.20136000","longitude":"-58.36740000","population":1345,"timezone":"America/Asuncion","type":"city","translations":{"es":"General José Eduvigis Díaz","en":"General José Eduvigis Díaz"}},{"name":"Pilar","state_code":"12","latitude":"-26.85874000","longitude":"-58.30639000","population":32810,"timezone":"America/Asuncion","type":"adm1","translations":{"es":"Pilar","en":"Pilar"}},{"name":"Acahay","state_code":"9","latitude":"-25.91667000","longitude":"-57.15000000","population":3205,"timezone":"America/Asuncion","type":"adm1","translations":{"es":"Acahay","en":"Acahay"}},{"name":"Caapucú","state_code":"9","latitude":"-26.23523000","longitude":"-57.18212000","population":2284,"timezone":"America/Asuncion","type":"city","translations":{"es":"Caapucú","en":"Caapucú"}},{"name":"Carapeguá","state_code":"9","latitude":"-25.80000000","longitude":"-57.23333000","population":5784,"timezone":"America/Asuncion","type":"city","translations":{"es":"Carapeguá","en":"Carapeguá"}},{"name":"La Colmena","state_code":"9","latitude":"-25.88627000","longitude":"-56.84084000","population":2551,"timezone":"America/Asuncion","type":"city","translations":{"es":"La Colmena","en":"La Colmena"}},{"name":"Mbuyapey","state_code":"9","latitude":"-26.21921000","longitude":"-56.75777000","population":2201,"timezone":"America/Asuncion","type":"city","translations":{"es":"Mbuyapey","en":"Mbuyapey"}},{"name":"Paraguarí","state_code":"9","latitude":"-25.62083000","longitude":"-57.14722000","population":10079,"timezone":"America/Asuncion","type":"adm1","translations":{"es":"Paraguarí","en":"Paraguarí"}},{"name":"Pirayú","state_code":"9","latitude":"-25.48406000","longitude":"-57.23490000","population":4000,"timezone":"America/Asuncion","type":"city","translations":{"es":"Pirayú","en":"Pirayú"}},{"name":"Quiindy","state_code":"9","latitude":"-25.97606000","longitude":"-57.23353000","population":5137,"timezone":"America/Asuncion","type":"city","translations":{"es":"Quiindy","en":"Quiindy"}},{"name":"Sapucaí","state_code":"9","latitude":"-25.66652000","longitude":"-56.95215000","population":1932,"timezone":"America/Asuncion","type":"adm2","translations":{"es":"Sapucaí","en":"Sapucaí"}},{"name":"Yaguarón","state_code":"9","latitude":"-25.56139000","longitude":"-57.28343000","population":7181,"timezone":"America/Asuncion","type":"city","translations":{"es":"Yaguarón","en":"Yaguarón"}},{"name":"Ybycuí","state_code":"9","latitude":"-26.01667000","longitude":"-57.05000000","population":4629,"timezone":"America/Asuncion","type":"city","translations":{"es":"Ybycuí","en":"Ybycuí"}},{"name":"Benjamín Aceval","state_code":"15","latitude":"-24.96667000","longitude":"-57.56667000","population":7751,"timezone":"America/Asuncion","type":"city","translations":{"es":"Benjamín Aceval","en":"Benjamín Aceval"}},{"name":"Nanawua","state_code":"15","latitude":"-25.27930000","longitude":"-57.70307000","population":5587,"timezone":"America/Asuncion","type":"city","translations":{"es":"Nanawua","en":"Nanawua"}},{"name":"Villa Hayes","state_code":"15","latitude":"-25.09306000","longitude":"-57.52361000","population":49328,"timezone":"America/Asuncion","type":"adm1","translations":{"es":"Villa Hayes","en":"Villa Hayes"}},{"name":"Antequera","state_code":"2","latitude":"-24.08526000","longitude":"-57.20221000","population":2701,"timezone":"America/Asuncion","type":"city","translations":{"es":"Antequera","en":"Antequera"}},{"name":"Capiíbary","state_code":"2","latitude":"-24.80000000","longitude":"-56.03333000","population":3537,"timezone":"America/Asuncion","type":"city","translations":{"es":"Capiíbary","en":"Capiíbary"}},{"name":"Colonia Nueva Germania","state_code":"2","latitude":"-23.91137000","longitude":"-56.70091000","population":1206,"timezone":"America/Asuncion","type":"adm2","translations":{"es":"Colonia Nueva Germania","en":"Colonia Nueva Germania"}},{"name":"General Elizardo Aquino","state_code":"2","latitude":"-24.44417000","longitude":"-56.90061000","population":2983,"timezone":"America/Asuncion","type":"city","translations":{"es":"General Elizardo Aquino","en":"General Elizardo Aquino"}},{"name":"Guayaybi","state_code":"2","latitude":"-24.53333000","longitude":"-56.43333000","population":null,"timezone":"America/Asuncion","type":"city","translations":{"es":"Guayaybí","en":"Guayaybi"}},{"name":"Itacurubí del Rosario","state_code":"2","latitude":"-24.53541000","longitude":"-56.82352000","population":3887,"timezone":"America/Asuncion","type":"city","translations":{"es":"Itacurubí del Rosario","en":"Itacurubí del Rosario"}},{"name":"Lima","state_code":"2","latitude":"-23.88327000","longitude":"-56.48217000","population":10367,"timezone":"America/Asuncion","type":"city","translations":{"es":"Lima","en":"Lima"}},{"name":"Puerto Rosario","state_code":"2","latitude":"-24.44127000","longitude":"-57.14272000","population":5123,"timezone":"America/Asuncion","type":"city","translations":{"es":"Puerto Rosario","en":"Puerto Rosario"}},{"name":"San Pedro de Ycuamandiyú","state_code":"2","latitude":"-24.08534000","longitude":"-57.08745000","population":11548,"timezone":"America/Asuncion","type":"adm1","translations":{"es":"San Pedro de Ycuamandiyú","en":"San Pedro de Ycuamandiyú"}},{"name":"Tacuatí","state_code":"2","latitude":"-23.45000000","longitude":"-56.58333000","population":2405,"timezone":"America/Asuncion","type":"city","translations":{"es":"Tacuatí","en":"Tacuatí"}},{"name":"Unión","state_code":"2","latitude":"-24.80790000","longitude":"-56.52148000","population":1653,"timezone":"America/Asuncion","type":"city","translations":{"es":"Unión","en":"Unión"}},{"name":"Yataity del Norte","state_code":"2","latitude":"-24.83333000","longitude":"-56.35000000","population":1392,"timezone":"America/Asuncion","type":"city","translations":{"es":"Yataity del Norte","en":"Yataity del Norte"}}]