[{"name":"Abrud","state_code":"AB","latitude":"46.27406000","longitude":"23.06339000","population":6122,"timezone":"Europe/Bucharest","type":"adm2","translations":{"es":"Abrud","en":"Abrud"}},{"name":"Abrud-Sat","state_code":"AB","latitude":"46.28166000","longitude":"23.06098000","population":1355,"timezone":"Europe/Bucharest","type":"section","translations":{"es":"Abrud-Sáb","en":"Abrud-Sat"}},{"name":"Aiud","state_code":"AB","latitude":"46.31006000","longitude":"23.72128000","population":28341,"timezone":"Europe/Bucharest","type":"adm2","translations":{"es":"Ayuda","en":"Aiud"}},{"name":"Aiudul de Sus","state_code":"AB","latitude":"46.31653000","longitude":"23.69053000","population":2046,"timezone":"Europe/Bucharest","type":"city","translations":{"es":"Aiudul de Sus","en":"Aiudul de Sus"}},{"name":"Alba Iulia","state_code":"AB","latitude":"46.06667000","longitude":"23.58333000","population":64227,"timezone":"Europe/Bucharest","type":"adm1","translations":{"es":"Alba Julia","en":"Alba Iulia"}},{"name":"Albac","state_code":"AB","latitude":"46.45246000","longitude":"22.95164000","population":1846,"timezone":"Europe/Bucharest","type":"adm2","translations":{"es":"Albac","en":"Albac"}},{"name":"Almaşu Mare","state_code":"AB","latitude":"46.11014000","longitude":"23.11721000","population":1649,"timezone":"Europe/Bucharest","type":"adm2","translations":{"es":"Almaşu Mare","en":"Almaşu Mare"}},{"name":"Arieşeni","state_code":"AB","latitude":"46.47641000","longitude":"22.75741000","population":1876,"timezone":"Europe/Bucharest","type":"adm2","translations":{"es":"Arieşeni","en":"Arieşeni"}},{"name":"Avram Iancu","state_code":"AB","latitude":"46.35816430","longitude":"22.82572250","population":1271,"timezone":"Europe/Bucharest","type":"section","translations":{"es":"Avram Iancu","en":"Avram Iancu"}},{"name":"Baia de Arieş","state_code":"AB","latitude":"46.38045000","longitude":"23.28115000","population":4566,"timezone":"Europe/Bucharest","type":"adm2","translations":{"es":"Bahía de Arieş","en":"Baia de Arieş"}},{"name":"Bălcaciu","state_code":"AB","latitude":"46.19122000","longitude":"24.06139000","population":1299,"timezone":"Europe/Bucharest","type":"city","translations":{"es":"Balcaciu","en":"Bălcaciu"}},{"name":"Bărăbanț","state_code":"AB","latitude":"46.09930000","longitude":"23.58487000","population":2604,"timezone":"Europe/Bucharest","type":"city","translations":{"es":"Bărăbanț","en":"Bărăbanț"}},{"name":"Berghin","state_code":"AB","latitude":"46.07782000","longitude":"23.73742000","population":2125,"timezone":"Europe/Bucharest","type":"adm2","translations":{"es":"Berghin","en":"Berghin"}},{"name":"Biia","state_code":"AB","latitude":"46.23097000","longitude":"24.00461000","population":1414,"timezone":"Europe/Bucharest","type":"city","translations":{"es":"Biia","en":"Biia"}},{"name":"Bistra","state_code":"AB","latitude":"46.37820000","longitude":"23.10081000","population":4942,"timezone":"Europe/Bucharest","type":"adm2","translations":{"es":"Bistra","en":"Bistra"}},{"name":"Blaj","state_code":"AB","latitude":"46.17508000","longitude":"23.91578000","population":17816,"timezone":"Europe/Bucharest","type":"adm2","translations":{"es":"Blaj","en":"Blaj"}},{"name":"Blândiana","state_code":"AB","latitude":"45.97943000","longitude":"23.38543000","population":1157,"timezone":"Europe/Bucharest","type":"adm2","translations":{"es":"Blândiana","en":"Blândiana"}},{"name":"Blideşti","state_code":"AB","latitude":"46.30000000","longitude":"23.13333000","population":3776,"timezone":"Europe/Bucharest","type":"city","translations":{"es":"Blideşti","en":"Blideşti"}},{"name":"Bucerdea-Grânoasă","state_code":"AB","latitude":"46.20000000","longitude":"23.83333000","population":0,"timezone":"Europe/Bucharest","type":"adm2","translations":{"es":"Bucerdea-Grânoasă","en":"Bucerdea-Grânoasă"}},{"name":"Bucium","state_code":"AB","latitude":"46.26402000","longitude":"23.17910000","population":119,"timezone":"Europe/Bucharest","type":"adm2","translations":{"es":"Bucio","en":"Bucium"}},{"name":"Câlnic","state_code":"AB","latitude":"45.88333000","longitude":"23.66667000","population":2959,"timezone":"Europe/Bucharest","type":"adm2","translations":{"es":"Cálnico","en":"Câlnic"}},{"name":"Câmpeni","state_code":"AB","latitude":"46.36667000","longitude":"23.05000000","population":7932,"timezone":"Europe/Bucharest","type":"adm2","translations":{"es":"Campeni","en":"Câmpeni"}},{"name":"Cenade","state_code":"AB","latitude":"46.05000000","longitude":"24.01667000","population":1031,"timezone":"Europe/Bucharest","type":"adm2","translations":{"es":"Cenade","en":"Cenade"}},{"name":"Cergău Mare","state_code":"AB","latitude":"46.09869000","longitude":"23.92284000","population":1032,"timezone":"Europe/Bucharest","type":"city","translations":{"es":"Cergău Mare","en":"Cergău Mare"}},{"name":"Cergău Mic","state_code":"AB","latitude":"46.08333000","longitude":"23.93333000","population":266,"timezone":"Europe/Bucharest","type":"city","translations":{"es":"Cergău Mic","en":"Cergău Mic"}},{"name":"Ceru-Băcăinţi","state_code":"AB","latitude":"45.98333000","longitude":"23.25000000","population":367,"timezone":"Europe/Bucharest","type":"adm2","translations":{"es":"Ceru-Băcăinţi","en":"Ceru-Băcăinţi"}},{"name":"Cetatea de Baltă","state_code":"AB","latitude":"46.24794000","longitude":"24.17244000","population":2031,"timezone":"Europe/Bucharest","type":"adm2","translations":{"es":"Cetatea de Baltă","en":"Cetatea de Baltă"}},{"name":"Ciugud","state_code":"AB","latitude":"46.05000000","longitude":"23.61667000","population":2613,"timezone":"Europe/Bucharest","type":"adm2","translations":{"es":"Ciugud","en":"Ciugud"}},{"name":"Ciumbrud","state_code":"AB","latitude":"46.30810000","longitude":"23.76222000","population":1504,"timezone":"Europe/Bucharest","type":"city","translations":{"es":"Ciumbrud","en":"Ciumbrud"}},{"name":"Ciuruleasa","state_code":"AB","latitude":"46.25000000","longitude":"23.03333000","population":1110,"timezone":"Europe/Bucharest","type":"adm2","translations":{"es":"Ciuruleasa","en":"Ciuruleasa"}},{"name":"Comuna Albac","state_code":"AB","latitude":"46.45246000","longitude":"22.95027000","population":2168,"timezone":"Europe/Bucharest","type":"adm2","translations":{"es":"Comuna Albac","en":"Comuna Albac"}},{"name":"Comuna Almaşu Mare","state_code":"AB","latitude":"46.10877000","longitude":"23.12038000","population":null,"timezone":"Europe/Bucharest","type":"adm2","translations":{"es":"Comuna Almaşu Mare","en":"Comuna Almaşu Mare"}},{"name":"Comuna Arieşeni","state_code":"AB","latitude":"46.47659000","longitude":"22.75535000","population":null,"timezone":"Europe/Bucharest","type":"adm2","translations":{"es":"Comuna Arieşeni","en":"Comuna Arieşeni"}},{"name":"Comuna Berghin","state_code":"AB","latitude":"46.07484000","longitude":"23.73768000","population":2125,"timezone":"Europe/Bucharest","type":"adm2","translations":{"es":"Comuna Berghin","en":"Comuna Berghin"}},{"name":"Comuna Bistra","state_code":"AB","latitude":"46.37856000","longitude":"23.10150000","population":4942,"timezone":"Europe/Bucharest","type":"adm2","translations":{"es":"Comuna Bistra","en":"Comuna Bistra"}},{"name":"Comuna Blândiana","state_code":"AB","latitude":"45.98146000","longitude":"23.38543000","population":1157,"timezone":"Europe/Bucharest","type":"adm2","translations":{"es":"Comuna Blândiana","en":"Comuna Blândiana"}},{"name":"Comuna Bucerdea-Grânoasă","state_code":"AB","latitude":"46.20878000","longitude":"23.85614000","population":null,"timezone":"Europe/Bucharest","type":"city","translations":{"es":"Comuna Bucerdea-Grânoasă","en":"Comuna Bucerdea-Grânoasă"}},{"name":"Comuna Bucium","state_code":"AB","latitude":"46.26131000","longitude":"23.15742000","population":null,"timezone":"Europe/Bucharest","type":"city","translations":{"es":"Comuna Bucium","en":"Comuna Bucium"}},{"name":"Comuna Câlnic","state_code":"AB","latitude":"45.87305000","longitude":"23.64329000","population":null,"timezone":"Europe/Bucharest","type":"city","translations":{"es":"Comuna Câlnic","en":"Comuna Câlnic"}},{"name":"Comuna Cenade","state_code":"AB","latitude":"46.08045000","longitude":"24.01382000","population":null,"timezone":"Europe/Bucharest","type":"adm2","translations":{"es":"Comuna Cenade","en":"Comuna Cenade"}},{"name":"Comuna Cergău","state_code":"AB","latitude":"46.09314000","longitude":"23.94597000","population":null,"timezone":"Europe/Bucharest","type":"city","translations":{"es":"Comuna Cergău","en":"Comuna Cergău"}},{"name":"Comuna Ceru-Băcăinţi","state_code":"AB","latitude":"46.00117000","longitude":"23.26983000","population":null,"timezone":"Europe/Bucharest","type":"city","translations":{"es":"Comuna Ceru-Băcăinţi","en":"Comuna Ceru-Băcăinţi"}},{"name":"Comuna Cetatea de Baltă","state_code":"AB","latitude":"46.21619000","longitude":"24.16716000","population":785,"timezone":"Europe/Bucharest","type":"city","translations":{"es":"Comuna Cetatea de Baltă","en":"Comuna Cetatea de Baltă"}},{"name":"Comuna Ciugud","state_code":"AB","latitude":"46.06526000","longitude":"23.62794000","population":null,"timezone":"Europe/Bucharest","type":"adm2","translations":{"es":"Comuna Ciugud","en":"Comuna Ciugud"}},{"name":"Comuna Ciuruleasa","state_code":"AB","latitude":"46.24481000","longitude":"23.01644000","population":null,"timezone":"Europe/Bucharest","type":"adm2","translations":{"es":"Comuna Ciuruleasa","en":"Comuna Ciuruleasa"}},{"name":"Comuna Crăciunelu de Jos","state_code":"AB","latitude":"46.17285000","longitude":"23.83585000","population":null,"timezone":"Europe/Bucharest","type":"adm2","translations":{"es":"Comuna Crăciunelu de Jos","en":"Comuna Crăciunelu de Jos"}},{"name":"Comuna Cricău","state_code":"AB","latitude":"46.18689000","longitude":"23.55309000","population":null,"timezone":"Europe/Bucharest","type":"adm2","translations":{"es":"Comuna Cricău","en":"Comuna Cricău"}},{"name":"Comuna Daia Română","state_code":"AB","latitude":"46.00709000","longitude":"23.66816000","population":3057,"timezone":"Europe/Bucharest","type":"adm2","translations":{"es":"Comuna Daia Română","en":"Comuna Daia Română"}},{"name":"Comuna Doştat","state_code":"AB","latitude":"45.96143000","longitude":"23.83313000","population":null,"timezone":"Europe/Bucharest","type":"adm2","translations":{"es":"Comuna Doştat","en":"Comuna Doştat"}},{"name":"Comuna Fărău","state_code":"AB","latitude":"46.32999000","longitude":"24.04335000","population":null,"timezone":"Europe/Bucharest","type":"adm2","translations":{"es":"Comuna Fărău","en":"Comuna Fărău"}},{"name":"Comuna Galda de Jos","state_code":"AB","latitude":"46.21776000","longitude":"23.56918000","population":null,"timezone":"Europe/Bucharest","type":"city","translations":{"es":"Comuna Galda de Jos","en":"Comuna Galda de Jos"}},{"name":"Comuna Gârbova","state_code":"AB","latitude":"45.85277000","longitude":"23.68693000","population":null,"timezone":"Europe/Bucharest","type":"adm2","translations":{"es":"Comuna Gârbova","en":"Comuna Gârbova"}},{"name":"Comuna Gârda de Sus","state_code":"AB","latitude":"46.46719000","longitude":"22.81519000","population":1822,"timezone":"Europe/Bucharest","type":"adm2","translations":{"es":"Comuna Gârda de Sus","en":"Comuna Gârda de Sus"}},{"name":"Comuna Hopârta","state_code":"AB","latitude":"46.33134000","longitude":"23.90340000","population":null,"timezone":"Europe/Bucharest","type":"adm2","translations":{"es":"Comuna Hopârta","en":"Comuna Hopârta"}},{"name":"Comuna Horea","state_code":"AB","latitude":"46.50058000","longitude":"22.94915000","population":293,"timezone":"Europe/Bucharest","type":"adm2","translations":{"es":"Comuna Horea","en":"Comuna Horea"}},{"name":"Comuna Ighiu","state_code":"AB","latitude":"46.14854000","longitude":"23.51232000","population":null,"timezone":"Europe/Bucharest","type":"adm2","translations":{"es":"Comuna Ighiu","en":"Comuna Ighiu"}},{"name":"Comuna Întregalde","state_code":"AB","latitude":"46.24908000","longitude":"23.39213000","population":null,"timezone":"Europe/Bucharest","type":"adm2","translations":{"es":"Comuna Întregalde","en":"Comuna Întregalde"}},{"name":"Comuna Jidvei","state_code":"AB","latitude":"46.23083000","longitude":"24.11475000","population":null,"timezone":"Europe/Bucharest","type":"adm2","translations":{"es":"Comuna Jidvei","en":"Comuna Jidvei"}},{"name":"Comuna Livezile","state_code":"AB","latitude":"46.37559000","longitude":"23.58563000","population":null,"timezone":"Europe/Bucharest","type":"adm2","translations":{"es":"Comuna Livezile","en":"Comuna Livezile"}},{"name":"Comuna Lopadea Nouă","state_code":"AB","latitude":"46.27782000","longitude":"23.84975000","population":null,"timezone":"Europe/Bucharest","type":"city","translations":{"es":"Comuna Lopadea Nouă","en":"Comuna Lopadea Nouă"}},{"name":"Comuna Lunca Mureşului","state_code":"AB","latitude":"46.42943000","longitude":"23.93272000","population":1992,"timezone":"Europe/Bucharest","type":"adm2","translations":{"es":"Comuna Lunca Mureşului","en":"Comuna Lunca Mureşului"}},{"name":"Comuna Lupşa","state_code":"AB","latitude":"46.34891000","longitude":"23.20455000","population":null,"timezone":"Europe/Bucharest","type":"adm2","translations":{"es":"Comuna Lupşa","en":"Comuna Lupşa"}},{"name":"Comuna Meteş","state_code":"AB","latitude":"46.10543000","longitude":"23.41707000","population":3114,"timezone":"Europe/Bucharest","type":"adm2","translations":{"es":"Comuna Meteş","en":"Comuna Meteş"}},{"name":"Comuna Mihalţ","state_code":"AB","latitude":"46.17641000","longitude":"23.73841000","population":null,"timezone":"Europe/Bucharest","type":"adm2","translations":{"es":"Comuna Mihalţ","en":"Comuna Mihalţ"}},{"name":"Comuna Mirăslău","state_code":"AB","latitude":"46.38660000","longitude":"23.69329000","population":null,"timezone":"Europe/Bucharest","type":"city","translations":{"es":"Comuna Mirăslău","en":"Comuna Mirăslău"}},{"name":"Comuna Mogoş","state_code":"AB","latitude":"46.28356000","longitude":"23.31873000","population":null,"timezone":"Europe/Bucharest","type":"adm2","translations":{"es":"Comuna Mogoş","en":"Comuna Mogoş"}},{"name":"Comuna Noşlac","state_code":"AB","latitude":"46.41300000","longitude":"23.97668000","population":532,"timezone":"Europe/Bucharest","type":"city","translations":{"es":"Comuna Noşlac","en":"Comuna Noşlac"}},{"name":"Comuna Ocoliş","state_code":"AB","latitude":"46.49636000","longitude":"23.46581000","population":832,"timezone":"Europe/Bucharest","type":"adm2","translations":{"es":"Comuna Ocoliş","en":"Comuna Ocoliş"}},{"name":"Comuna Ohaba","state_code":"AB","latitude":"46.08263000","longitude":"23.80106000","population":null,"timezone":"Europe/Bucharest","type":"adm2","translations":{"es":"Comuna Ohaba","en":"Comuna Ohaba"}},{"name":"Comuna Pianu","state_code":"AB","latitude":"45.87127000","longitude":"23.49549000","population":null,"timezone":"Europe/Bucharest","type":"city","translations":{"es":"Comuna Pianu","en":"Comuna Pianu"}},{"name":"Comuna Poiana Vadului","state_code":"AB","latitude":"46.40457000","longitude":"22.87080000","population":null,"timezone":"Europe/Bucharest","type":"adm2","translations":{"es":"Comuna Poiana Vadului","en":"Comuna Poiana Vadului"}},{"name":"Comuna Ponor","state_code":"AB","latitude":"46.32065000","longitude":"23.40376000","population":null,"timezone":"Europe/Bucharest","type":"adm2","translations":{"es":"Comuna Ponor","en":"Comuna Ponor"}},{"name":"Comuna Poşaga","state_code":"AB","latitude":"46.45354000","longitude":"23.36115000","population":null,"timezone":"Europe/Bucharest","type":"city","translations":{"es":"Comuna Poşaga","en":"Comuna Poşaga"}},{"name":"Comuna Rădeşti","state_code":"AB","latitude":"46.24931000","longitude":"23.74444000","population":null,"timezone":"Europe/Bucharest","type":"city","translations":{"es":"Comuna Rădeşti","en":"Comuna Rădeşti"}},{"name":"Comuna Râmeţ","state_code":"AB","latitude":"46.31564000","longitude":"23.52602000","population":null,"timezone":"Europe/Bucharest","type":"adm2","translations":{"es":"Comuna Râmeţ","en":"Comuna Râmeţ"}},{"name":"Comuna Râmetea","state_code":"AB","latitude":"46.43815000","longitude":"23.56579000","population":1191,"timezone":"Europe/Bucharest","type":"adm2","translations":{"es":"Comuna Râmetea","en":"Comuna Râmetea"}},{"name":"Comuna Roşia de Secaş","state_code":"AB","latitude":"46.04807000","longitude":"23.85329000","population":null,"timezone":"Europe/Bucharest","type":"city","translations":{"es":"Comuna Roşia de Secaş","en":"Comuna Roşia de Secaş"}},{"name":"Comuna Roşia Montană","state_code":"AB","latitude":"46.30991000","longitude":"23.08697000","population":null,"timezone":"Europe/Bucharest","type":"adm2","translations":{"es":"Comuna Roşia Montană","en":"Comuna Roşia Montană"}},{"name":"Comuna Sălciua","state_code":"AB","latitude":"46.38261000","longitude":"23.41526000","population":null,"timezone":"Europe/Bucharest","type":"city","translations":{"es":"Comuna Sălciua","en":"Comuna Sălciua"}},{"name":"Comuna Sãliştea","state_code":"AB","latitude":"45.91425000","longitude":"23.41294000","population":null,"timezone":"Europe/Bucharest","type":"city","translations":{"es":"Comuna Sãliştea","en":"Comuna Sãliştea"}},{"name":"Comuna Sâncel","state_code":"AB","latitude":"46.21176000","longitude":"23.94791000","population":null,"timezone":"Europe/Bucharest","type":"adm2","translations":{"es":"Comuna Sâncel","en":"Comuna Sâncel"}},{"name":"Comuna Sântimbru","state_code":"AB","latitude":"46.12974000","longitude":"23.66899000","population":null,"timezone":"Europe/Bucharest","type":"adm2","translations":{"es":"Comuna de Sântimbru","en":"Comuna Sântimbru"}},{"name":"Comuna Săsciori","state_code":"AB","latitude":"45.85629000","longitude":"23.56898000","population":null,"timezone":"Europe/Bucharest","type":"adm2","translations":{"es":"Comuna Săsciori","en":"Comuna Săsciori"}},{"name":"Comuna Scărişoara","state_code":"AB","latitude":"46.46072000","longitude":"22.88166000","population":null,"timezone":"Europe/Bucharest","type":"city","translations":{"es":"Comuna Scărişoara","en":"Comuna Scărişoara"}},{"name":"Comuna Şibot","state_code":"AB","latitude":"45.94093000","longitude":"23.32226000","population":null,"timezone":"Europe/Bucharest","type":"adm2","translations":{"es":"Comuna Şibot","en":"Comuna Şibot"}},{"name":"Comuna Sohodol","state_code":"AB","latitude":"46.32748000","longitude":"22.99414000","population":null,"timezone":"Europe/Bucharest","type":"city","translations":{"es":"Comuna Sohodol","en":"Comuna Sohodol"}},{"name":"Comuna Şona","state_code":"AB","latitude":"46.25089000","longitude":"24.00259000","population":null,"timezone":"Europe/Bucharest","type":"adm2","translations":{"es":"Comuna Şona","en":"Comuna Şona"}},{"name":"Comuna Şpring","state_code":"AB","latitude":"45.96833000","longitude":"23.73449000","population":null,"timezone":"Europe/Bucharest","type":"city","translations":{"es":"Comuna Şspring","en":"Comuna Şpring"}},{"name":"Comuna Stremţ","state_code":"AB","latitude":"46.25606000","longitude":"23.59340000","population":null,"timezone":"Europe/Bucharest","type":"city","translations":{"es":"Comuna Stremţ","en":"Comuna Stremţ"}},{"name":"Comuna Şugag","state_code":"AB","latitude":"45.74780000","longitude":"23.59957000","population":null,"timezone":"Europe/Bucharest","type":"adm2","translations":{"es":"Comuna Şugag","en":"Comuna Şugag"}},{"name":"Comuna Unirea","state_code":"AB","latitude":"46.41948000","longitude":"23.76260000","population":727,"timezone":"Europe/Bucharest","type":"city","translations":{"es":"Comuna Unirea","en":"Comuna Unirea"}},{"name":"Comuna Vadu Moţilor","state_code":"AB","latitude":"46.40910000","longitude":"22.95532000","population":null,"timezone":"Europe/Bucharest","type":"adm2","translations":{"es":"Comuna Vadu Moţilor","en":"Comuna Vadu Moţilor"}},{"name":"Comuna Valea Lungă","state_code":"AB","latitude":"46.13355000","longitude":"24.08280000","population":null,"timezone":"Europe/Bucharest","type":"city","translations":{"es":"Comuna Valea Lungă","en":"Comuna Valea Lungă"}},{"name":"Comuna Vidra","state_code":"AB","latitude":"46.37067000","longitude":"22.92726000","population":null,"timezone":"Europe/Bucharest","type":"city","translations":{"es":"Comuna Vidra","en":"Comuna Vidra"}},{"name":"Comuna Vinţu de Jos","state_code":"AB","latitude":"46.02229000","longitude":"23.45647000","population":null,"timezone":"Europe/Bucharest","type":"city","translations":{"es":"Comuna Vinţu de Jos","en":"Comuna Vinţu de Jos"}},{"name":"Crăciunelu de Jos","state_code":"AB","latitude":"46.18333000","longitude":"23.83333000","population":4297,"timezone":"Europe/Bucharest","type":"adm2","translations":{"es":"Crăciunelu de Jos","en":"Crăciunelu de Jos"}},{"name":"Cricău","state_code":"AB","latitude":"46.18333000","longitude":"23.56667000","population":1879,"timezone":"Europe/Bucharest","type":"adm2","translations":{"es":"Cricău","en":"Cricău"}},{"name":"Cugir","state_code":"AB","latitude":"45.83651000","longitude":"23.36998000","population":24734,"timezone":"Europe/Bucharest","type":"adm2","translations":{"es":"Cugir","en":"Cugir"}},{"name":"Cut","state_code":"AB","latitude":"45.93972450","longitude":"23.66719340","population":1391,"timezone":"Europe/Bucharest","type":"adm2","translations":{"es":"Cortar","en":"Cut"}},{"name":"Daia Română","state_code":"AB","latitude":"46.01667000","longitude":"23.66667000","population":3051,"timezone":"Europe/Bucharest","type":"adm2","translations":{"es":"Daia Română","en":"Daia Română"}},{"name":"Dobra","state_code":"AB","latitude":"45.76913000","longitude":"23.64218000","population":1096,"timezone":"Europe/Bucharest","type":"city","translations":{"es":"Dobra","en":"Dobra"}},{"name":"Doştat","state_code":"AB","latitude":"45.96667000","longitude":"23.85000000","population":980,"timezone":"Europe/Bucharest","type":"adm2","translations":{"es":"Doştat","en":"Doştat"}},{"name":"Fărău","state_code":"AB","latitude":"46.33333000","longitude":"24.01667000","population":1866,"timezone":"Europe/Bucharest","type":"adm2","translations":{"es":"Farau","en":"Fărău"}},{"name":"Feisa","state_code":"AB","latitude":"46.22608000","longitude":"24.14492000","population":1026,"timezone":"Europe/Bucharest","type":"city","translations":{"es":"Feisa","en":"Feisa"}},{"name":"Feneș","state_code":"AB","latitude":"46.10431000","longitude":"23.29511000","population":1163,"timezone":"Europe/Bucharest","type":"city","translations":{"es":"Feneș","en":"Feneș"}},{"name":"Galda de Jos","state_code":"AB","latitude":"46.18333000","longitude":"23.61667000","population":4373,"timezone":"Europe/Bucharest","type":"adm2","translations":{"es":"Galda de José","en":"Galda de Jos"}},{"name":"Gârbova","state_code":"AB","latitude":"45.86667000","longitude":"23.73333000","population":1867,"timezone":"Europe/Bucharest","type":"adm2","translations":{"es":"Gârbova","en":"Gârbova"}},{"name":"Gârda de Sus","state_code":"AB","latitude":"46.45000000","longitude":"22.81667000","population":1822,"timezone":"Europe/Bucharest","type":"adm2","translations":{"es":"Guardia de Sus","en":"Gârda de Sus"}},{"name":"Hopârta","state_code":"AB","latitude":"46.32134000","longitude":"23.87244000","population":407,"timezone":"Europe/Bucharest","type":"adm2","translations":{"es":"Hopârta","en":"Hopârta"}},{"name":"Horea","state_code":"AB","latitude":"46.50246000","longitude":"22.95034000","population":293,"timezone":"Europe/Bucharest","type":"adm2","translations":{"es":"Horea","en":"Horea"}},{"name":"Ighiel","state_code":"AB","latitude":"46.14680000","longitude":"23.47968000","population":883,"timezone":"Europe/Bucharest","type":"city","translations":{"es":"Ighiel","en":"Ighiel"}},{"name":"Ighiu","state_code":"AB","latitude":"46.15000000","longitude":"23.51667000","population":6543,"timezone":"Europe/Bucharest","type":"adm2","translations":{"es":"Ighiu","en":"Ighiu"}},{"name":"Intregalde","state_code":"AB","latitude":"46.25000000","longitude":"23.41667000","population":860,"timezone":"Europe/Bucharest","type":"adm2","translations":{"es":"Intregalde","en":"Intregalde"}},{"name":"Izvoarele","state_code":"AB","latitude":"46.17011000","longitude":"23.90377000","population":2078,"timezone":"Europe/Bucharest","type":"city","translations":{"es":"Izvoarele","en":"Izvoarele"}},{"name":"Jidvei","state_code":"AB","latitude":"46.21667000","longitude":"24.10000000","population":1113,"timezone":"Europe/Bucharest","type":"adm2","translations":{"es":"Jidvei","en":"Jidvei"}},{"name":"Lancrăm","state_code":"AB","latitude":"45.98708000","longitude":"23.55665000","population":1530,"timezone":"Europe/Bucharest","type":"city","translations":{"es":"Lancrăm","en":"Lancrăm"}},{"name":"Livezile","state_code":"AB","latitude":"46.35000000","longitude":"23.63333000","population":1491,"timezone":"Europe/Bucharest","type":"adm2","translations":{"es":"Livezile","en":"Livezile"}},{"name":"Lopadea Nouă","state_code":"AB","latitude":"46.29090000","longitude":"23.81901000","population":1132,"timezone":"Europe/Bucharest","type":"adm2","translations":{"es":"Lopadea Nueva","en":"Lopadea Nouă"}},{"name":"Lunca Mureşului","state_code":"AB","latitude":"46.43333000","longitude":"23.90000000","population":2617,"timezone":"Europe/Bucharest","type":"adm2","translations":{"es":"Lunca Mureşului","en":"Lunca Mureşului"}},{"name":"Lupşa","state_code":"AB","latitude":"46.36667000","longitude":"23.20000000","population":3766,"timezone":"Europe/Bucharest","type":"adm2","translations":{"es":"Lupşa","en":"Lupşa"}},{"name":"Meteş","state_code":"AB","latitude":"46.10000000","longitude":"23.41667000","population":2564,"timezone":"Europe/Bucharest","type":"adm2","translations":{"es":"Meteş","en":"Meteş"}},{"name":"Micești","state_code":"AB","latitude":"46.10141000","longitude":"23.55573000","population":1420,"timezone":"Europe/Bucharest","type":"city","translations":{"es":"Micești","en":"Micești"}},{"name":"Mihalţ","state_code":"AB","latitude":"46.15000000","longitude":"23.73333000","population":3096,"timezone":"Europe/Bucharest","type":"adm2","translations":{"es":"Mihalţ","en":"Mihalţ"}},{"name":"Mirăslău","state_code":"AB","latitude":"46.36667000","longitude":"23.71667000","population":2298,"timezone":"Europe/Bucharest","type":"adm2","translations":{"es":"Miraslau","en":"Mirăslău"}},{"name":"Mogoș","state_code":"AB","latitude":"46.27554000","longitude":"23.28038000","population":158,"timezone":"Europe/Bucharest","type":"adm2","translations":{"es":"Mogoș","en":"Mogoș"}},{"name":"Municipiul Aiud","state_code":"AB","latitude":"46.30440000","longitude":"23.69751000","population":null,"timezone":"Europe/Bucharest","type":"city","translations":{"es":"Municipio de Ayuda","en":"Municipiul Aiud"}},{"name":"Municipiul Alba Iulia","state_code":"AB","latitude":"46.06346000","longitude":"23.57494000","population":null,"timezone":"Europe/Bucharest","type":"adm1","translations":{"es":"Municipio de Alba Iulia","en":"Municipiul Alba Iulia"}},{"name":"Municipiul Blaj","state_code":"AB","latitude":"46.15084000","longitude":"23.91041000","population":null,"timezone":"Europe/Bucharest","type":"section","translations":{"es":"Municipio Blaj","en":"Municipiul Blaj"}},{"name":"Municipiul Sebeş","state_code":"AB","latitude":"45.94237000","longitude":"23.57681000","population":null,"timezone":"Europe/Bucharest","type":"adm2","translations":{"es":"Municipio de Sebeş","en":"Municipiul Sebeş"}},{"name":"Noşlac","state_code":"AB","latitude":"46.40000000","longitude":"23.93333000","population":1625,"timezone":"Europe/Bucharest","type":"adm2","translations":{"es":"Noşlac","en":"Noşlac"}},{"name":"Oarda","state_code":"AB","latitude":"46.03333000","longitude":"23.56667000","population":2357,"timezone":"Europe/Bucharest","type":"city","translations":{"es":"Oarda","en":"Oarda"}},{"name":"Ocna Mureş","state_code":"AB","latitude":"46.38333000","longitude":"23.85000000","population":12480,"timezone":"Europe/Bucharest","type":"adm2","translations":{"es":"Ocna Mureş","en":"Ocna Mureş"}},{"name":"Ocoliş","state_code":"AB","latitude":"46.48333000","longitude":"23.46667000","population":832,"timezone":"Europe/Bucharest","type":"adm2","translations":{"es":"Ocoliş","en":"Ocoliş"}},{"name":"Ohaba","state_code":"AB","latitude":"46.06667000","longitude":"23.78333000","population":916,"timezone":"Europe/Bucharest","type":"adm2","translations":{"es":"Ohaba","en":"Ohaba"}},{"name":"Oraş abrud","state_code":"AB","latitude":"46.27409000","longitude":"23.06129000","population":1355,"timezone":"Europe/Bucharest","type":"section","translations":{"es":"Oraş abrud","en":"Oraş abrud"}},{"name":"Oraş Baia de Arieş","state_code":"AB","latitude":"46.37933000","longitude":"23.29903000","population":null,"timezone":"Europe/Bucharest","type":"city","translations":{"es":"Oraş Baia de Arieş","en":"Oraş Baia de Arieş"}},{"name":"Oraş Câmpeni","state_code":"AB","latitude":"46.38493000","longitude":"23.04553000","population":null,"timezone":"Europe/Bucharest","type":"adm2","translations":{"es":"Oraş Câmpeni","en":"Oraş Câmpeni"}},{"name":"Oraş Cugir","state_code":"AB","latitude":"45.81371000","longitude":"23.40740000","population":null,"timezone":"Europe/Bucharest","type":"adm2","translations":{"es":"Oraş Cugir","en":"Oraş Cugir"}},{"name":"Oraş Ocna Mureş","state_code":"AB","latitude":"46.38475000","longitude":"23.84070000","population":null,"timezone":"Europe/Bucharest","type":"adm2","translations":{"es":"Oraş Ocna Mureş","en":"Oraş Ocna Mureş"}},{"name":"Oraş Teiuş","state_code":"AB","latitude":"46.20959000","longitude":"23.70812000","population":null,"timezone":"Europe/Bucharest","type":"city","translations":{"es":"Oraş Teiuş","en":"Oraş Teiuş"}},{"name":"Oraş Zlatna","state_code":"AB","latitude":"46.13753000","longitude":"23.20215000","population":null,"timezone":"Europe/Bucharest","type":"adm2","translations":{"es":"Oraş Zlatna","en":"Oraş Zlatna"}},{"name":"Petrești","state_code":"AB","latitude":"45.92102000","longitude":"23.56083000","population":5085,"timezone":"Europe/Bucharest","type":"city","translations":{"es":"Petrești","en":"Petrești"}},{"name":"Pianu de Jos","state_code":"AB","latitude":"45.93528000","longitude":"23.48912000","population":1227,"timezone":"Europe/Bucharest","type":"city","translations":{"es":"Pianu de Jos","en":"Pianu de Jos"}},{"name":"Pianu de Sus","state_code":"AB","latitude":"45.90000000","longitude":"23.48333000","population":3308,"timezone":"Europe/Bucharest","type":"city","translations":{"es":"Pianu de Sus","en":"Pianu de Sus"}},{"name":"Poiana Vadului","state_code":"AB","latitude":"46.40000000","longitude":"22.88333000","population":1276,"timezone":"Europe/Bucharest","type":"adm2","translations":{"es":"Poiana Vadului","en":"Poiana Vadului"}},{"name":"Poienile-Mogoş","state_code":"AB","latitude":"46.28333000","longitude":"23.28333000","population":1087,"timezone":"Europe/Bucharest","type":"city","translations":{"es":"Poienile-Mogoş","en":"Poienile-Mogoş"}},{"name":"Ponor","state_code":"AB","latitude":"46.33333000","longitude":"23.41667000","population":702,"timezone":"Europe/Bucharest","type":"adm2","translations":{"es":"Ponor","en":"Ponor"}},{"name":"Poşaga de Sus","state_code":"AB","latitude":"46.46667000","longitude":"23.38333000","population":1366,"timezone":"Europe/Bucharest","type":"city","translations":{"es":"Posaga de Sus","en":"Poşaga de Sus"}},{"name":"Rădeşti","state_code":"AB","latitude":"46.26667000","longitude":"23.71667000","population":1400,"timezone":"Europe/Bucharest","type":"adm2","translations":{"es":"Rădeşti","en":"Rădeşti"}},{"name":"Războieni-Cetate","state_code":"AB","latitude":"46.41335000","longitude":"23.87158000","population":1508,"timezone":"Europe/Bucharest","type":"city","translations":{"es":"Cetate de Războieni","en":"Războieni-Cetate"}},{"name":"Rimetea","state_code":"AB","latitude":"46.45000000","longitude":"23.56667000","population":1015,"timezone":"Europe/Bucharest","type":"adm2","translations":{"es":"Rimetea","en":"Rimetea"}},{"name":"Roşia de Secaş","state_code":"AB","latitude":"46.05000000","longitude":"23.88333000","population":1405,"timezone":"Europe/Bucharest","type":"adm2","translations":{"es":"Rosa de Secaş","en":"Roşia de Secaş"}},{"name":"Roșia Montană","state_code":"AB","latitude":"46.30669000","longitude":"23.13373000","population":1556,"timezone":"Europe/Bucharest","type":"adm2","translations":{"es":"Roșia Montană","en":"Roșia Montană"}},{"name":"Sălciua de Sus","state_code":"AB","latitude":"46.40000000","longitude":"23.41667000","population":1747,"timezone":"Europe/Bucharest","type":"city","translations":{"es":"Salciua de Sus","en":"Sălciua de Sus"}},{"name":"Săliștea","state_code":"AB","latitude":"45.90744000","longitude":"23.39789000","population":1272,"timezone":"Europe/Bucharest","type":"city","translations":{"es":"Saliștea","en":"Săliștea"}},{"name":"Săliştea-Deal","state_code":"AB","latitude":"45.90000000","longitude":"23.40000000","population":2328,"timezone":"Europe/Bucharest","type":"city","translations":{"es":"Oferta de Săliştea","en":"Săliştea-Deal"}},{"name":"Sâncel","state_code":"AB","latitude":"46.20000000","longitude":"23.95000000","population":2255,"timezone":"Europe/Bucharest","type":"adm2","translations":{"es":"Sancel","en":"Sâncel"}},{"name":"Sâncrai","state_code":"AB","latitude":"46.29394000","longitude":"23.75209000","population":1023,"timezone":"Europe/Bucharest","type":"city","translations":{"es":"Sancrai","en":"Sâncrai"}},{"name":"Sântimbru","state_code":"AB","latitude":"46.13333000","longitude":"23.65000000","population":2679,"timezone":"Europe/Bucharest","type":"adm2","translations":{"es":"Santimbru","en":"Sântimbru"}},{"name":"Șard","state_code":"AB","latitude":"46.12814000","longitude":"23.53520000","population":1861,"timezone":"Europe/Bucharest","type":"city","translations":{"es":"Șard","en":"Șard"}},{"name":"Săsciori","state_code":"AB","latitude":"45.86667000","longitude":"23.58333000","population":5820,"timezone":"Europe/Bucharest","type":"adm2","translations":{"es":"Sasciori","en":"Săsciori"}},{"name":"Scărişoara","state_code":"AB","latitude":"46.46667000","longitude":"22.85000000","population":1808,"timezone":"Europe/Bucharest","type":"adm2","translations":{"es":"Scărişoara","en":"Scărişoara"}},{"name":"Sebeş","state_code":"AB","latitude":"45.95646000","longitude":"23.57100000","population":26490,"timezone":"Europe/Bucharest","type":"adm2","translations":{"es":"Sebeş","en":"Sebeş"}},{"name":"Sebeșel","state_code":"AB","latitude":"45.88771000","longitude":"23.56606000","population":1277,"timezone":"Europe/Bucharest","type":"city","translations":{"es":"Sebeșel","en":"Sebeșel"}},{"name":"Şibot","state_code":"AB","latitude":"45.95000000","longitude":"23.33333000","population":2100,"timezone":"Europe/Bucharest","type":"adm2","translations":{"es":"Sibot","en":"Şibot"}},{"name":"Sohodol","state_code":"AB","latitude":"46.35581000","longitude":"23.02923000","population":2038,"timezone":"Europe/Bucharest","type":"adm2","translations":{"es":"Sohodol","en":"Sohodol"}},{"name":"Şona","state_code":"AB","latitude":"46.21667000","longitude":"24.01667000","population":3782,"timezone":"Europe/Bucharest","type":"adm2","translations":{"es":"Şona","en":"Şona"}},{"name":"Şpring","state_code":"AB","latitude":"45.96667000","longitude":"23.78333000","population":2354,"timezone":"Europe/Bucharest","type":"adm2","translations":{"es":"Primavera","en":"Şpring"}},{"name":"Stremţ","state_code":"AB","latitude":"46.21667000","longitude":"23.63333000","population":2321,"timezone":"Europe/Bucharest","type":"adm2","translations":{"es":"Stremţ","en":"Stremţ"}},{"name":"Şugag","state_code":"AB","latitude":"45.76667000","longitude":"23.63333000","population":2602,"timezone":"Europe/Bucharest","type":"adm2","translations":{"es":"Şugag","en":"Şugag"}},{"name":"Teiuş","state_code":"AB","latitude":"46.20000000","longitude":"23.68333000","population":6308,"timezone":"Europe/Bucharest","type":"adm2","translations":{"es":"Teiuş","en":"Teiuş"}},{"name":"Țelna","state_code":"AB","latitude":"46.15902000","longitude":"23.50099000","population":1222,"timezone":"Europe/Bucharest","type":"city","translations":{"es":"Țelna","en":"Țelna"}},{"name":"Tiur","state_code":"AB","latitude":"46.16009000","longitude":"23.88927000","population":1765,"timezone":"Europe/Bucharest","type":"city","translations":{"es":"Tiur","en":"Tiur"}},{"name":"Uioara de Jos","state_code":"AB","latitude":"46.37087000","longitude":"23.83863000","population":1345,"timezone":"Europe/Bucharest","type":"city","translations":{"es":"Uioara de Jos","en":"Uioara de Jos"}},{"name":"Unirea","state_code":"AB","latitude":"46.40387000","longitude":"23.81314000","population":3924,"timezone":"Europe/Bucharest","type":"adm2","translations":{"es":"Unirea","en":"Unirea"}},{"name":"Vadu Moţilor","state_code":"AB","latitude":"46.40000000","longitude":"22.96667000","population":1523,"timezone":"Europe/Bucharest","type":"adm2","translations":{"es":"Vadu Moţilor","en":"Vadu Moţilor"}},{"name":"Valea Lungă Alba Romania","state_code":"AB","latitude":"46.12592000","longitude":"24.04541000","population":1858,"timezone":"Europe/Bucharest","type":"adm2","translations":{"es":"Valea Lungă Alba Rumanía","en":"Valea Lungă Alba Romania"}},{"name":"Veseuș","state_code":"AB","latitude":"46.27456000","longitude":"24.14276000","population":1028,"timezone":"Europe/Bucharest","type":"city","translations":{"es":"Veseuș","en":"Veseuș"}},{"name":"Veza","state_code":"AB","latitude":"46.16747000","longitude":"23.92470000","population":1450,"timezone":"Europe/Bucharest","type":"section","translations":{"es":"Veza","en":"Veza"}},{"name":"Vidra","state_code":"AB","latitude":"46.36758000","longitude":"22.88811000","population":65,"timezone":"Europe/Bucharest","type":"adm2","translations":{"es":"Vidra","en":"Vidra"}},{"name":"Vinerea","state_code":"AB","latitude":"45.88632000","longitude":"23.35289000","population":2052,"timezone":"Europe/Bucharest","type":"city","translations":{"es":"Vinerea","en":"Vinerea"}},{"name":"Vințu de Jos","state_code":"AB","latitude":"45.99462000","longitude":"23.48612000","population":3113,"timezone":"Europe/Bucharest","type":"adm2","translations":{"es":"Vințu de Jos","en":"Vințu de Jos"}},{"name":"Vurpăr","state_code":"AB","latitude":"46.00000000","longitude":"23.46667000","population":5215,"timezone":"Europe/Bucharest","type":"city","translations":{"es":"Vurpăr","en":"Vurpăr"}},{"name":"Zlatna","state_code":"AB","latitude":"46.10633000","longitude":"23.23162000","population":8393,"timezone":"Europe/Bucharest","type":"adm2","translations":{"es":"Zlatna","en":"Zlatna"}},{"name":"Adea","state_code":"AR","latitude":"46.55511000","longitude":"21.58433000","population":959,"timezone":"Europe/Bucharest","type":"city","translations":{"es":"Adea","en":"Adea"}},{"name":"Agrișu Mare","state_code":"AR","latitude":"46.27243000","longitude":"21.75558000","population":1190,"timezone":"Europe/Bucharest","type":"city","translations":{"es":"Agrișu Mare","en":"Agrișu Mare"}},{"name":"Almaş","state_code":"AR","latitude":"46.28333000","longitude":"22.23333000","population":2957,"timezone":"Europe/Bucharest","type":"adm2","translations":{"es":"Almaş","en":"Almaş"}},{"name":"Andrei Șaguna","state_code":"AR","latitude":"46.28810000","longitude":"21.39175000","population":1824,"timezone":"Europe/Bucharest","type":"city","translations":{"es":"Andrei Șaguna","en":"Andrei Șaguna"}},{"name":"Apateu","state_code":"AR","latitude":"46.61667000","longitude":"21.78333000","population":3129,"timezone":"Europe/Bucharest","type":"adm2","translations":{"es":"Apateu","en":"Apateu"}},{"name":"Arad","state_code":"AR","latitude":"46.18333000","longitude":"21.31667000","population":145078,"timezone":"Europe/Bucharest","type":"adm1","translations":{"es":"Arad","en":"Arad"}},{"name":"Archiş","state_code":"AR","latitude":"46.48333000","longitude":"22.05000000","population":1667,"timezone":"Europe/Bucharest","type":"adm2","translations":{"es":"Archiş","en":"Archiş"}},{"name":"Bârsa","state_code":"AR","latitude":"46.38333000","longitude":"22.06667000","population":1901,"timezone":"Europe/Bucharest","type":"adm2","translations":{"es":"Bârsa","en":"Bârsa"}},{"name":"Bârzava","state_code":"AR","latitude":"46.11667000","longitude":"21.98333000","population":2975,"timezone":"Europe/Bucharest","type":"adm2","translations":{"es":"Bârzava","en":"Bârzava"}},{"name":"Bata","state_code":"AR","latitude":"46.01667000","longitude":"22.03333000","population":1046,"timezone":"Europe/Bucharest","type":"adm2","translations":{"es":"Bata","en":"Bata"}},{"name":"Beliu","state_code":"AR","latitude":"46.48333000","longitude":"21.98333000","population":2936,"timezone":"Europe/Bucharest","type":"adm2","translations":{"es":"Beliu","en":"Beliu"}},{"name":"Birchiş","state_code":"AR","latitude":"45.96667000","longitude":"22.16667000","population":1707,"timezone":"Europe/Bucharest","type":"adm2","translations":{"es":"Birchiş","en":"Birchiş"}},{"name":"Bocsig","state_code":"AR","latitude":"46.41667000","longitude":"21.95000000","population":3068,"timezone":"Europe/Bucharest","type":"adm2","translations":{"es":"Bocsig","en":"Bocsig"}},{"name":"Brazii","state_code":"AR","latitude":"46.23333000","longitude":"22.33333000","population":1397,"timezone":"Europe/Bucharest","type":"adm2","translations":{"es":"Brasil","en":"Brazii"}},{"name":"Buteni","state_code":"AR","latitude":"46.31667000","longitude":"22.11667000","population":3262,"timezone":"Europe/Bucharest","type":"adm2","translations":{"es":"Buteni","en":"Buteni"}},{"name":"Caporal Alexa","state_code":"AR","latitude":"46.33793000","longitude":"21.58316000","population":1296,"timezone":"Europe/Bucharest","type":"city","translations":{"es":"Cabo Alexa","en":"Caporal Alexa"}},{"name":"Cărand","state_code":"AR","latitude":"46.45000000","longitude":"22.08333000","population":1299,"timezone":"Europe/Bucharest","type":"adm2","translations":{"es":"Cărand","en":"Cărand"}},{"name":"Cermei","state_code":"AR","latitude":"46.55000000","longitude":"21.85000000","population":2537,"timezone":"Europe/Bucharest","type":"adm2","translations":{"es":"Cermei","en":"Cermei"}},{"name":"Chereluș","state_code":"AR","latitude":"46.46860000","longitude":"21.70706000","population":899,"timezone":"Europe/Bucharest","type":"city","translations":{"es":"Chereluș","en":"Chereluș"}},{"name":"Chesinț","state_code":"AR","latitude":"46.04973000","longitude":"21.57944000","population":999,"timezone":"Europe/Bucharest","type":"city","translations":{"es":"Chesinț","en":"Chesinț"}},{"name":"Chier","state_code":"AR","latitude":"46.34199000","longitude":"21.82488000","population":1095,"timezone":"Europe/Bucharest","type":"city","translations":{"es":"Chier","en":"Chier"}},{"name":"Chisindia","state_code":"AR","latitude":"46.28333000","longitude":"22.10000000","population":1550,"timezone":"Europe/Bucharest","type":"adm2","translations":{"es":"Chisindia","en":"Chisindia"}},{"name":"Chişineu-Criş","state_code":"AR","latitude":"46.52509000","longitude":"21.51844000","population":7212,"timezone":"Europe/Bucharest","type":"city","translations":{"es":"Chişineu-Criş","en":"Chişineu-Criş"}},{"name":"Cintei","state_code":"AR","latitude":"46.44434000","longitude":"21.56556000","population":1275,"timezone":"Europe/Bucharest","type":"city","translations":{"es":"Cintei","en":"Cintei"}},{"name":"Comuna Almaş","state_code":"AR","latitude":"46.28480000","longitude":"22.23173000","population":2957,"timezone":"Europe/Bucharest","type":"adm2","translations":{"es":"Comuna Almaş","en":"Comuna Almaş"}},{"name":"Comuna Apateu","state_code":"AR","latitude":"46.62598000","longitude":"21.82530000","population":null,"timezone":"Europe/Bucharest","type":"adm2","translations":{"es":"Comuna Apateu","en":"Comuna Apateu"}},{"name":"Comuna Archiş","state_code":"AR","latitude":"46.48333000","longitude":"22.09663000","population":null,"timezone":"Europe/Bucharest","type":"adm2","translations":{"es":"Comuna Archiş","en":"Comuna Archiş"}},{"name":"Comuna Bârsa","state_code":"AR","latitude":"46.38410000","longitude":"22.04459000","population":null,"timezone":"Europe/Bucharest","type":"city","translations":{"es":"Comuna Bârsa","en":"Comuna Bârsa"}},{"name":"Comuna Bârzava","state_code":"AR","latitude":"46.09910000","longitude":"22.06096000","population":null,"timezone":"Europe/Bucharest","type":"adm2","translations":{"es":"Comuna Bârzava","en":"Comuna Bârzava"}},{"name":"Comuna Bata","state_code":"AR","latitude":"45.99641000","longitude":"22.07805000","population":null,"timezone":"Europe/Bucharest","type":"adm2","translations":{"es":"Comuna Bata","en":"Comuna Bata"}},{"name":"Comuna Beliu","state_code":"AR","latitude":"46.52965000","longitude":"21.99566000","population":null,"timezone":"Europe/Bucharest","type":"locality","translations":{"es":"Comuna Beliu","en":"Comuna Beliu"}},{"name":"Comuna Birchiş","state_code":"AR","latitude":"45.96987000","longitude":"22.16845000","population":2009,"timezone":"Europe/Bucharest","type":"adm2","translations":{"es":"Comuna Birchiş","en":"Comuna Birchiş"}},{"name":"Comuna Bocsig","state_code":"AR","latitude":"46.41893000","longitude":"21.98424000","population":null,"timezone":"Europe/Bucharest","type":"city","translations":{"es":"Comuna Bocsig","en":"Comuna Bocsig"}},{"name":"Comuna Brazii","state_code":"AR","latitude":"46.22177000","longitude":"22.32613000","population":null,"timezone":"Europe/Bucharest","type":"adm2","translations":{"es":"Comuna Brasil","en":"Comuna Brazii"}},{"name":"Comuna Buteni","state_code":"AR","latitude":"46.33119000","longitude":"22.11472000","population":null,"timezone":"Europe/Bucharest","type":"adm2","translations":{"es":"Comuna Buteni","en":"Comuna Buteni"}},{"name":"Comuna Cărand","state_code":"AR","latitude":"46.45551000","longitude":"22.05755000","population":null,"timezone":"Europe/Bucharest","type":"city","translations":{"es":"Comuna Cărand","en":"Comuna Cărand"}},{"name":"Comuna Cermei","state_code":"AR","latitude":"46.55433000","longitude":"21.87084000","population":null,"timezone":"Europe/Bucharest","type":"city","translations":{"es":"Comuna Cermei","en":"Comuna Cermei"}},{"name":"Comuna Chisindia","state_code":"AR","latitude":"46.26509000","longitude":"22.08572000","population":null,"timezone":"Europe/Bucharest","type":"city","translations":{"es":"Comuna Chisindia","en":"Comuna Chisindia"}},{"name":"Comuna Conop","state_code":"AR","latitude":"46.10401000","longitude":"21.88047000","population":2296,"timezone":"Europe/Bucharest","type":"adm2","translations":{"es":"Comuna Conop","en":"Comuna Conop"}},{"name":"Comuna Covăsinţ","state_code":"AR","latitude":"46.20571000","longitude":"21.60944000","population":null,"timezone":"Europe/Bucharest","type":"adm2","translations":{"es":"Comuna Covăsinţ","en":"Comuna Covăsinţ"}},{"name":"Comuna Craiva","state_code":"AR","latitude":"46.59969000","longitude":"21.97908000","population":null,"timezone":"Europe/Bucharest","type":"adm2","translations":{"es":"Comuna Craiva","en":"Comuna Craiva"}},{"name":"Comuna Dezna","state_code":"AR","latitude":"46.40997000","longitude":"22.22726000","population":null,"timezone":"Europe/Bucharest","type":"adm2","translations":{"es":"Comuna Dezna","en":"Comuna Dezna"}},{"name":"Comuna Dieci","state_code":"AR","latitude":"46.32071000","longitude":"22.22373000","population":null,"timezone":"Europe/Bucharest","type":"adm2","translations":{"es":"Comuna Dieci","en":"Comuna Dieci"}},{"name":"Comuna Fântânele","state_code":"AR","latitude":"46.12441000","longitude":"21.38111000","population":null,"timezone":"Europe/Bucharest","type":"adm2","translations":{"es":"Comuna Fântânele","en":"Comuna Fântânele"}},{"name":"Comuna Felnac","state_code":"AR","latitude":"46.12223000","longitude":"21.16704000","population":null,"timezone":"Europe/Bucharest","type":"adm2","translations":{"es":"Comuna Felnac","en":"Comuna Felnac"}},{"name":"Comuna Frumuşeni","state_code":"AR","latitude":"46.10180000","longitude":"21.45836000","population":null,"timezone":"Europe/Bucharest","type":"adm2","translations":{"es":"Comuna Frumuşeni","en":"Comuna Frumuşeni"}},{"name":"Comuna Ghioroc","state_code":"AR","latitude":"46.15322000","longitude":"21.59651000","population":null,"timezone":"Europe/Bucharest","type":"adm2","translations":{"es":"Comuna Ghioroc","en":"Comuna Ghioroc"}},{"name":"Comuna Grăniceri","state_code":"AR","latitude":"46.50539000","longitude":"21.33672000","population":null,"timezone":"Europe/Bucharest","type":"adm2","translations":{"es":"Comuna Grăniceri","en":"Comuna Grăniceri"}},{"name":"Comuna Gurahonţ","state_code":"AR","latitude":"46.29220000","longitude":"22.33506000","population":1397,"timezone":"Europe/Bucharest","type":"adm2","translations":{"es":"Comuna Gurahonţ","en":"Comuna Gurahonţ"}},{"name":"Comuna Hălmăgel","state_code":"AR","latitude":"46.27662000","longitude":"22.63180000","population":null,"timezone":"Europe/Bucharest","type":"adm2","translations":{"es":"Comuna Hălmăgel","en":"Comuna Hălmăgel"}},{"name":"Comuna Hălmagiu","state_code":"AR","latitude":"46.27536000","longitude":"22.58183000","population":3507,"timezone":"Europe/Bucharest","type":"adm2","translations":{"es":"Comuna Hălmagiu","en":"Comuna Hălmagiu"}},{"name":"Comuna Hăşmaş","state_code":"AR","latitude":"46.52217000","longitude":"22.07003000","population":null,"timezone":"Europe/Bucharest","type":"adm2","translations":{"es":"Comuna Hăşmaş","en":"Comuna Hăşmaş"}},{"name":"Comuna Igneşti","state_code":"AR","latitude":"46.43388000","longitude":"22.18227000","population":null,"timezone":"Europe/Bucharest","type":"adm2","translations":{"es":"Comuna Igneşti","en":"Comuna Igneşti"}},{"name":"Comuna Iratoşu","state_code":"AR","latitude":"46.29414000","longitude":"21.18750000","population":null,"timezone":"Europe/Bucharest","type":"adm2","translations":{"es":"Comuna Iratoşu","en":"Comuna Iratoşu"}},{"name":"Comuna Livada","state_code":"AR","latitude":"46.21924000","longitude":"21.38746000","population":null,"timezone":"Europe/Bucharest","type":"adm2","translations":{"es":"Comuna Livada","en":"Comuna Livada"}},{"name":"Comuna Macea","state_code":"AR","latitude":"46.40094000","longitude":"21.33187000","population":null,"timezone":"Europe/Bucharest","type":"adm2","translations":{"es":"Comuna Macea","en":"Comuna Macea"}},{"name":"Comuna Mişca","state_code":"AR","latitude":"46.62016000","longitude":"21.65353000","population":null,"timezone":"Europe/Bucharest","type":"adm2","translations":{"es":"Comuna Misca","en":"Comuna Mişca"}},{"name":"Comuna Moneasa","state_code":"AR","latitude":"46.44443000","longitude":"22.25323000","population":null,"timezone":"Europe/Bucharest","type":"adm2","translations":{"es":"Comuna Moneasa","en":"Comuna Moneasa"}},{"name":"Comuna Olari","state_code":"AR","latitude":"46.38673000","longitude":"21.54522000","population":null,"timezone":"Europe/Bucharest","type":"adm2","translations":{"es":"Comuna Olari","en":"Comuna Olari"}},{"name":"Comuna Păuliş","state_code":"AR","latitude":"46.12506000","longitude":"21.60246000","population":null,"timezone":"Europe/Bucharest","type":"city","translations":{"es":"Comuna Păuliş","en":"Comuna Păuliş"}},{"name":"Comuna Peregu Mare","state_code":"AR","latitude":"46.23377000","longitude":"20.90612000","population":null,"timezone":"Europe/Bucharest","type":"adm2","translations":{"es":"Comuna Peregu Mare","en":"Comuna Peregu Mare"}},{"name":"Comuna Petriş","state_code":"AR","latitude":"46.06770000","longitude":"22.39523000","population":null,"timezone":"Europe/Bucharest","type":"adm2","translations":{"es":"Comuna Petriş","en":"Comuna Petriş"}},{"name":"Comuna Pilu","state_code":"AR","latitude":"46.59727000","longitude":"21.34711000","population":null,"timezone":"Europe/Bucharest","type":"adm2","translations":{"es":"Comuna Pilu","en":"Comuna Pilu"}},{"name":"Comuna Pleşcuţa","state_code":"AR","latitude":"46.28315000","longitude":"22.43178000","population":1471,"timezone":"Europe/Bucharest","type":"adm2","translations":{"es":"Comuna Pleşcuţa","en":"Comuna Pleşcuţa"}},{"name":"Comuna Şagu","state_code":"AR","latitude":"46.04254000","longitude":"21.34239000","population":null,"timezone":"Europe/Bucharest","type":"adm2","translations":{"es":"Comuna Şagu","en":"Comuna Şagu"}},{"name":"Comuna Săvârşin","state_code":"AR","latitude":"46.02527000","longitude":"22.26514000","population":null,"timezone":"Europe/Bucharest","type":"city","translations":{"es":"Comuna Săvârşin","en":"Comuna Săvârşin"}},{"name":"Comuna Secusigiu","state_code":"AR","latitude":"46.09260000","longitude":"21.00295000","population":null,"timezone":"Europe/Bucharest","type":"city","translations":{"es":"Comuna Secusigiu","en":"Comuna Secusigiu"}},{"name":"Comuna Şeitin","state_code":"AR","latitude":"46.10858000","longitude":"20.84464000","population":null,"timezone":"Europe/Bucharest","type":"adm2","translations":{"es":"Comuna Şeitin","en":"Comuna Şeitin"}},{"name":"Comuna Seleuş","state_code":"AR","latitude":"46.37886000","longitude":"21.74875000","population":null,"timezone":"Europe/Bucharest","type":"adm2","translations":{"es":"Comuna Seleuş","en":"Comuna Seleuş"}},{"name":"Comuna Semlac","state_code":"AR","latitude":"46.11260000","longitude":"20.93210000","population":3727,"timezone":"Europe/Bucharest","type":"adm2","translations":{"es":"Comuna Semlac","en":"Comuna Semlac"}},{"name":"Comuna Şicula","state_code":"AR","latitude":"46.45723000","longitude":"21.75137000","population":4503,"timezone":"Europe/Bucharest","type":"adm2","translations":{"es":"Comuna Şicula","en":"Comuna Şicula"}},{"name":"Comuna Şilindia","state_code":"AR","latitude":"46.33611000","longitude":"21.93488000","population":null,"timezone":"Europe/Bucharest","type":"adm2","translations":{"es":"Comuna Şilindia","en":"Comuna Şilindia"}},{"name":"Comuna Şimand","state_code":"AR","latitude":"46.42400000","longitude":"21.45145000","population":4064,"timezone":"Europe/Bucharest","type":"adm2","translations":{"es":"Comuna Şimand","en":"Comuna Şimand"}},{"name":"Comuna Sintea Mare","state_code":"AR","latitude":"46.51684000","longitude":"21.60800000","population":null,"timezone":"Europe/Bucharest","type":"adm2","translations":{"es":"Comuna Sintea Mare","en":"Comuna Sintea Mare"}},{"name":"Comuna Şiria","state_code":"AR","latitude":"46.28470000","longitude":"21.65419000","population":null,"timezone":"Europe/Bucharest","type":"city","translations":{"es":"Comuna Şiria","en":"Comuna Şiria"}},{"name":"Comuna Şiştarovăţ","state_code":"AR","latitude":"45.98649000","longitude":"21.75589000","population":null,"timezone":"Europe/Bucharest","type":"city","translations":{"es":"Comuna Şiştarovăţ","en":"Comuna Şiştarovăţ"}},{"name":"Comuna Socodor","state_code":"AR","latitude":"46.51010000","longitude":"21.44128000","population":null,"timezone":"Europe/Bucharest","type":"adm2","translations":{"es":"Comuna Socodor","en":"Comuna Socodor"}},{"name":"Comuna Şofronea","state_code":"AR","latitude":"46.26814000","longitude":"21.29059000","population":null,"timezone":"Europe/Bucharest","type":"adm2","translations":{"es":"Comuna Şofronea","en":"Comuna Şofronea"}},{"name":"Comuna Târnova","state_code":"AR","latitude":"46.29054000","longitude":"21.80388000","population":null,"timezone":"Europe/Bucharest","type":"adm2","translations":{"es":"Comuna Târnova","en":"Comuna Târnova"}},{"name":"Comuna Tauţ","state_code":"AR","latitude":"46.26383000","longitude":"21.96747000","population":null,"timezone":"Europe/Bucharest","type":"adm2","translations":{"es":"Comuna Tauţ","en":"Comuna Tauţ"}},{"name":"Comuna Ususău","state_code":"AR","latitude":"46.06781000","longitude":"21.81490000","population":533,"timezone":"Europe/Bucharest","type":"adm2","translations":{"es":"Comuna Ususău","en":"Comuna Ususău"}},{"name":"Comuna Vărădia de Mureş","state_code":"AR","latitude":"46.04619000","longitude":"22.15651000","population":null,"timezone":"Europe/Bucharest","type":"adm2","translations":{"es":"Comuna Vărădia de Mureş","en":"Comuna Vărădia de Mureş"}},{"name":"Comuna Vârfurile","state_code":"AR","latitude":"46.33689000","longitude":"22.51984000","population":null,"timezone":"Europe/Bucharest","type":"adm2","translations":{"es":"Comuna Vârfurile","en":"Comuna Vârfurile"}},{"name":"Comuna Vinga","state_code":"AR","latitude":"46.02249000","longitude":"21.15244000","population":null,"timezone":"Europe/Bucharest","type":"city","translations":{"es":"Comuna Vinga","en":"Comuna Vinga"}},{"name":"Comuna Vladimirescu","state_code":"AR","latitude":"46.16509000","longitude":"21.40411000","population":null,"timezone":"Europe/Bucharest","type":"adm2","translations":{"es":"Comuna Vladimirescu","en":"Comuna Vladimirescu"}},{"name":"Comuna Zăbrani","state_code":"AR","latitude":"46.06310000","longitude":"21.58529000","population":null,"timezone":"Europe/Bucharest","type":"adm2","translations":{"es":"Comuna Zăbrani","en":"Comuna Zăbrani"}},{"name":"Comuna Zădăreni","state_code":"AR","latitude":"46.13077000","longitude":"21.20866000","population":null,"timezone":"Europe/Bucharest","type":"adm2","translations":{"es":"Comuna Zădăreni","en":"Comuna Zădăreni"}},{"name":"Comuna Zărand","state_code":"AR","latitude":"46.43911000","longitude":"21.56909000","population":null,"timezone":"Europe/Bucharest","type":"city","translations":{"es":"Comuna Zărand","en":"Comuna Zărand"}},{"name":"Comuna Zerind","state_code":"AR","latitude":"46.63087000","longitude":"21.50777000","population":null,"timezone":"Europe/Bucharest","type":"city","translations":{"es":"Comuna Zerind","en":"Comuna Zerind"}},{"name":"Comuna Zimandu Nou","state_code":"AR","latitude":"46.27496000","longitude":"21.39162000","population":null,"timezone":"Europe/Bucharest","type":"adm2","translations":{"es":"Comuna Zimandu Nou","en":"Comuna Zimandu Nou"}},{"name":"Conop","state_code":"AR","latitude":"46.10186000","longitude":"21.87970000","population":2096,"timezone":"Europe/Bucharest","type":"adm2","translations":{"es":"Conop","en":"Conop"}},{"name":"Covăsinţ","state_code":"AR","latitude":"46.20000000","longitude":"21.60000000","population":2613,"timezone":"Europe/Bucharest","type":"adm2","translations":{"es":"Covăsinţ","en":"Covăsinţ"}},{"name":"Craiva","state_code":"AR","latitude":"46.58333000","longitude":"21.96667000","population":585,"timezone":"Europe/Bucharest","type":"adm2","translations":{"es":"Craiva","en":"Craiva"}},{"name":"Curtici","state_code":"AR","latitude":"46.35000000","longitude":"21.30000000","population":9615,"timezone":"Europe/Bucharest","type":"adm2","translations":{"es":"Curtici","en":"Curtici"}},{"name":"Cuvin","state_code":"AR","latitude":"46.17001000","longitude":"21.59360000","population":1543,"timezone":"Europe/Bucharest","type":"city","translations":{"es":"Cuvin","en":"Cuvin"}},{"name":"Dezna","state_code":"AR","latitude":"46.40000000","longitude":"22.25000000","population":1485,"timezone":"Europe/Bucharest","type":"adm2","translations":{"es":"Dezna","en":"Dezna"}},{"name":"Dieci","state_code":"AR","latitude":"46.31667000","longitude":"22.25000000","population":1388,"timezone":"Europe/Bucharest","type":"adm2","translations":{"es":"Dieci","en":"Dieci"}},{"name":"Dorgoş","state_code":"AR","latitude":"46.05000000","longitude":"21.83333000","population":1368,"timezone":"Europe/Bucharest","type":"city","translations":{"es":"Dorgoş","en":"Dorgoş"}},{"name":"Dorobanți","state_code":"AR","latitude":"46.34996460","longitude":"21.24266110","population":1509,"timezone":"Europe/Bucharest","type":"adm2","translations":{"es":"Dorobanți","en":"Dorobanți"}},{"name":"Drauț","state_code":"AR","latitude":"46.26048000","longitude":"21.80924000","population":1100,"timezone":"Europe/Bucharest","type":"city","translations":{"es":"Drauț","en":"Drauț"}},{"name":"Fântânele","state_code":"AR","latitude":"46.12370000","longitude":"21.38420000","population":5597,"timezone":"Europe/Bucharest","type":"adm2","translations":{"es":"Fântânele","en":"Fântânele"}},{"name":"Felnac","state_code":"AR","latitude":"46.11667000","longitude":"21.15000000","population":5097,"timezone":"Europe/Bucharest","type":"adm2","translations":{"es":"Felnac","en":"Felnac"}},{"name":"Frumușeni","state_code":"AR","latitude":"46.10252000","longitude":"21.46167000","population":1570,"timezone":"Europe/Bucharest","type":"adm2","translations":{"es":"Frumușeni","en":"Frumușeni"}},{"name":"Galșa","state_code":"AR","latitude":"46.28810000","longitude":"21.65137000","population":2206,"timezone":"Europe/Bucharest","type":"city","translations":{"es":"Galșa","en":"Galșa"}},{"name":"Ghioroc","state_code":"AR","latitude":"46.15000000","longitude":"21.58333000","population":3871,"timezone":"Europe/Bucharest","type":"adm2","translations":{"es":"Ghioroc","en":"Ghioroc"}},{"name":"Grăniceri","state_code":"AR","latitude":"46.51667000","longitude":"21.30000000","population":2203,"timezone":"Europe/Bucharest","type":"adm2","translations":{"es":"Graniceri","en":"Grăniceri"}},{"name":"Gurahonţ","state_code":"AR","latitude":"46.26667000","longitude":"22.35000000","population":3575,"timezone":"Europe/Bucharest","type":"adm2","translations":{"es":"Gurahonţ","en":"Gurahonţ"}},{"name":"Gurba","state_code":"AR","latitude":"46.46756000","longitude":"21.78789000","population":1350,"timezone":"Europe/Bucharest","type":"city","translations":{"es":"Gurba","en":"Gurba"}},{"name":"Hălmăgel","state_code":"AR","latitude":"46.26667000","longitude":"22.61667000","population":1629,"timezone":"Europe/Bucharest","type":"adm2","translations":{"es":"Halmagel","en":"Hălmăgel"}},{"name":"Hălmagiu","state_code":"AR","latitude":"46.26667000","longitude":"22.58333000","population":3507,"timezone":"Europe/Bucharest","type":"adm2","translations":{"es":"Halmagiu","en":"Hălmagiu"}},{"name":"Hășmaș","state_code":"AR","latitude":"46.50000000","longitude":"22.08333000","population":444,"timezone":"Europe/Bucharest","type":"adm2","translations":{"es":"Hășmaș","en":"Hășmaș"}},{"name":"Horia","state_code":"AR","latitude":"46.20847000","longitude":"21.46287000","population":2205,"timezone":"Europe/Bucharest","type":"city","translations":{"es":"Horia","en":"Horia"}},{"name":"Igneşti","state_code":"AR","latitude":"46.40000000","longitude":"22.16667000","population":809,"timezone":"Europe/Bucharest","type":"adm2","translations":{"es":"Igneşti","en":"Igneşti"}},{"name":"Ineu","state_code":"AR","latitude":"46.43372000","longitude":"21.84048000","population":10051,"timezone":"Europe/Bucharest","type":"adm2","translations":{"es":"Ineu","en":"Ineu"}},{"name":"Iratoşu","state_code":"AR","latitude":"46.31667000","longitude":"21.20000000","population":2324,"timezone":"Europe/Bucharest","type":"adm2","translations":{"es":"Iratoşu","en":"Iratoşu"}},{"name":"Lipova","state_code":"AR","latitude":"46.09085000","longitude":"21.69628000","population":10040,"timezone":"Europe/Bucharest","type":"adm2","translations":{"es":"Lipova","en":"Lipova"}},{"name":"Livada","state_code":"AR","latitude":"46.22284000","longitude":"21.38403000","population":2840,"timezone":"Europe/Bucharest","type":"adm2","translations":{"es":"Livada","en":"Livada"}},{"name":"Macea","state_code":"AR","latitude":"46.38333000","longitude":"21.30000000","population":5722,"timezone":"Europe/Bucharest","type":"adm2","translations":{"es":"Macea","en":"Macea"}},{"name":"Măderat","state_code":"AR","latitude":"46.29493000","longitude":"21.71137000","population":1332,"timezone":"Europe/Bucharest","type":"city","translations":{"es":"Măderat","en":"Măderat"}},{"name":"Mailat","state_code":"AR","latitude":"46.04189000","longitude":"21.10702000","population":1133,"timezone":"Europe/Bucharest","type":"city","translations":{"es":"Mailat","en":"Mailat"}},{"name":"Mănăștur","state_code":"AR","latitude":"46.00949000","longitude":"21.13362000","population":1097,"timezone":"Europe/Bucharest","type":"city","translations":{"es":"Mănăștur","en":"Mănăștur"}},{"name":"Mândruloc","state_code":"AR","latitude":"46.14863000","longitude":"21.46570000","population":1364,"timezone":"Europe/Bucharest","type":"city","translations":{"es":"Mândruloc","en":"Mândruloc"}},{"name":"Mâsca","state_code":"AR","latitude":"46.30000000","longitude":"21.68333000","population":832,"timezone":"Europe/Bucharest","type":"city","translations":{"es":"Máscara","en":"Mâsca"}},{"name":"Mișca","state_code":"AR","latitude":"46.60280000","longitude":"21.59998000","population":1165,"timezone":"Europe/Bucharest","type":"adm2","translations":{"es":"Mișca","en":"Mișca"}},{"name":"Moneasa","state_code":"AR","latitude":"46.45000000","longitude":"22.25000000","population":1035,"timezone":"Europe/Bucharest","type":"adm2","translations":{"es":"Moneasa","en":"Moneasa"}},{"name":"Municipiul Arad","state_code":"AR","latitude":"46.17745000","longitude":"21.31348000","population":null,"timezone":"Europe/Bucharest","type":"adm1","translations":{"es":"Municipio de Arad","en":"Municipiul Arad"}},{"name":"Nadab","state_code":"AR","latitude":"46.48195000","longitude":"21.51178000","population":1749,"timezone":"Europe/Bucharest","type":"city","translations":{"es":"Nadab","en":"Nadab"}},{"name":"Nadăș","state_code":"AR","latitude":"46.22490000","longitude":"21.95036000","population":1027,"timezone":"Europe/Bucharest","type":"city","translations":{"es":"Nadăș","en":"Nadăș"}},{"name":"Nădlac","state_code":"AR","latitude":"46.16667000","longitude":"20.75000000","population":6713,"timezone":"Europe/Bucharest","type":"adm2","translations":{"es":"Nădlac","en":"Nădlac"}},{"name":"Neudorf","state_code":"AR","latitude":"46.06960000","longitude":"21.61899000","population":864,"timezone":"Europe/Bucharest","type":"city","translations":{"es":"Neudorf","en":"Neudorf"}},{"name":"Olari","state_code":"AR","latitude":"46.38333000","longitude":"21.55000000","population":1905,"timezone":"Europe/Bucharest","type":"adm2","translations":{"es":"Olari","en":"Olari"}},{"name":"Oraş Chişineu-Criş","state_code":"AR","latitude":"46.52178000","longitude":"21.51295000","population":null,"timezone":"Europe/Bucharest","type":"city","translations":{"es":"Oraş Chişineu-Criş","en":"Oraş Chişineu-Criş"}},{"name":"Oraş Curtici","state_code":"AR","latitude":"46.34358000","longitude":"21.31051000","population":null,"timezone":"Europe/Bucharest","type":"adm2","translations":{"es":"Oraş Curtici","en":"Oraş Curtici"}},{"name":"Oraş Ineu","state_code":"AR","latitude":"46.42709000","longitude":"21.84185000","population":null,"timezone":"Europe/Bucharest","type":"city","translations":{"es":"Oraş Ineu","en":"Oraş Ineu"}},{"name":"Oraş Lipova","state_code":"AR","latitude":"46.09061000","longitude":"21.69465000","population":null,"timezone":"Europe/Bucharest","type":"adm2","translations":{"es":"Oraş Lipova","en":"Oraş Lipova"}},{"name":"Oraş Nãdlac","state_code":"AR","latitude":"46.16664000","longitude":"20.74871000","population":null,"timezone":"Europe/Bucharest","type":"adm2","translations":{"es":"Oraş Nãdlac","en":"Oraş Nãdlac"}},{"name":"Oraş Pâncota","state_code":"AR","latitude":"46.31205000","longitude":"21.70163000","population":null,"timezone":"Europe/Bucharest","type":"city","translations":{"es":"Oraş Pâncota","en":"Oraş Pâncota"}},{"name":"Oraş Sântana","state_code":"AR","latitude":"46.34622000","longitude":"21.50402000","population":null,"timezone":"Europe/Bucharest","type":"city","translations":{"es":"Oraş Sântana","en":"Oraş Sântana"}},{"name":"Oraş Sebiş","state_code":"AR","latitude":"46.38771000","longitude":"22.15480000","population":null,"timezone":"Europe/Bucharest","type":"city","translations":{"es":"Oraş Sebiş","en":"Oraş Sebiş"}},{"name":"Pâncota","state_code":"AR","latitude":"46.33333000","longitude":"21.70000000","population":6787,"timezone":"Europe/Bucharest","type":"adm2","translations":{"es":"Pâncota","en":"Pâncota"}},{"name":"Păuliş","state_code":"AR","latitude":"46.11667000","longitude":"21.58333000","population":4036,"timezone":"Europe/Bucharest","type":"adm2","translations":{"es":"Paulis","en":"Păuliş"}},{"name":"Pecica","state_code":"AR","latitude":"46.16667000","longitude":"21.06667000","population":11950,"timezone":"Europe/Bucharest","type":"adm2","translations":{"es":"Pecica","en":"Pecica"}},{"name":"Peregu Mare","state_code":"AR","latitude":"46.23333000","longitude":"20.90000000","population":1538,"timezone":"Europe/Bucharest","type":"adm2","translations":{"es":"Peregu Mare","en":"Peregu Mare"}},{"name":"Peregu Mic","state_code":"AR","latitude":"46.25021000","longitude":"20.94885000","population":1047,"timezone":"Europe/Bucharest","type":"city","translations":{"es":"Micrófono Peregu","en":"Peregu Mic"}},{"name":"Petriş","state_code":"AR","latitude":"46.05000000","longitude":"22.38333000","population":1842,"timezone":"Europe/Bucharest","type":"adm2","translations":{"es":"Petriş","en":"Petriş"}},{"name":"Pilu","state_code":"AR","latitude":"46.56667000","longitude":"21.35000000","population":1943,"timezone":"Europe/Bucharest","type":"adm2","translations":{"es":"Pilu","en":"Pilu"}},{"name":"Pleşcuţa","state_code":"AR","latitude":"46.30000000","longitude":"22.43333000","population":1471,"timezone":"Europe/Bucharest","type":"adm2","translations":{"es":"Pleşcuţa","en":"Pleşcuţa"}},{"name":"Radna","state_code":"AR","latitude":"46.09444000","longitude":"21.68732000","population":2009,"timezone":"Europe/Bucharest","type":"section","translations":{"es":"Radna","en":"Radna"}},{"name":"Şagu","state_code":"AR","latitude":"46.05000000","longitude":"21.28333000","population":3863,"timezone":"Europe/Bucharest","type":"adm2","translations":{"es":"Şagu","en":"Şagu"}},{"name":"Sâmbăteni","state_code":"AR","latitude":"46.14110000","longitude":"21.52689000","population":2083,"timezone":"Europe/Bucharest","type":"city","translations":{"es":"Sâmbăteni","en":"Sâmbăteni"}},{"name":"Sânmartin","state_code":"AR","latitude":"46.41653000","longitude":"21.34821000","population":1767,"timezone":"Europe/Bucharest","type":"city","translations":{"es":"Sanmartin","en":"Sânmartin"}},{"name":"Sânpetru German","state_code":"AR","latitude":"46.11327000","longitude":"21.04932000","population":1912,"timezone":"Europe/Bucharest","type":"city","translations":{"es":"Sânpetru Alemán","en":"Sânpetru German"}},{"name":"Sântana","state_code":"AR","latitude":"46.35000000","longitude":"21.50000000","population":12460,"timezone":"Europe/Bucharest","type":"adm2","translations":{"es":"Santana","en":"Sântana"}},{"name":"Satu Mare","state_code":"AR","latitude":"46.06628000","longitude":"20.95826000","population":1005,"timezone":"Europe/Bucharest","type":"city","translations":{"es":"Satu Mare","en":"Satu Mare"}},{"name":"Săvârşin","state_code":"AR","latitude":"46.01667000","longitude":"22.23333000","population":2990,"timezone":"Europe/Bucharest","type":"adm2","translations":{"es":"Săvârşin","en":"Săvârşin"}},{"name":"Sebiş","state_code":"AR","latitude":"46.36667000","longitude":"22.11667000","population":5410,"timezone":"Europe/Bucharest","type":"adm2","translations":{"es":"Sebiş","en":"Sebiş"}},{"name":"Secusigiu","state_code":"AR","latitude":"46.08333000","longitude":"20.98333000","population":5534,"timezone":"Europe/Bucharest","type":"adm2","translations":{"es":"Secusigiu","en":"Secusigiu"}},{"name":"Şeitin","state_code":"AR","latitude":"46.10000000","longitude":"20.85000000","population":2801,"timezone":"Europe/Bucharest","type":"adm2","translations":{"es":"Seitín","en":"Şeitin"}},{"name":"Seleuş","state_code":"AR","latitude":"46.38333000","longitude":"21.71667000","population":2997,"timezone":"Europe/Bucharest","type":"adm2","translations":{"es":"Seleuş","en":"Seleuş"}},{"name":"Semlac","state_code":"AR","latitude":"46.11667000","longitude":"20.93333000","population":3474,"timezone":"Europe/Bucharest","type":"adm2","translations":{"es":"Semlac","en":"Semlac"}},{"name":"Șepreuș","state_code":"AR","latitude":"46.57124910","longitude":"21.73417450","population":2752,"timezone":"Europe/Bucharest","type":"adm2","translations":{"es":"Șepreuș","en":"Șepreuș"}},{"name":"Șiclău","state_code":"AR","latitude":"46.49124000","longitude":"21.36834000","population":989,"timezone":"Europe/Bucharest","type":"city","translations":{"es":"Șiclău","en":"Șiclău"}},{"name":"Şicula","state_code":"AR","latitude":"46.43333000","longitude":"21.75000000","population":4002,"timezone":"Europe/Bucharest","type":"adm2","translations":{"es":"Sicula","en":"Şicula"}},{"name":"Şilindia","state_code":"AR","latitude":"46.35000000","longitude":"21.91667000","population":858,"timezone":"Europe/Bucharest","type":"adm2","translations":{"es":"Silindia","en":"Şilindia"}},{"name":"Şimand","state_code":"AR","latitude":"46.43333000","longitude":"21.45000000","population":3876,"timezone":"Europe/Bucharest","type":"adm2","translations":{"es":"Şimand","en":"Şimand"}},{"name":"Sintea Mare","state_code":"AR","latitude":"46.51667000","longitude":"21.60000000","population":3417,"timezone":"Europe/Bucharest","type":"adm2","translations":{"es":"Yegua Sintea","en":"Sintea Mare"}},{"name":"Şiria","state_code":"AR","latitude":"46.26667000","longitude":"21.63333000","population":8451,"timezone":"Europe/Bucharest","type":"adm2","translations":{"es":"Siria","en":"Şiria"}},{"name":"Şiştarovăţ","state_code":"AR","latitude":"46.01667000","longitude":"21.73333000","population":340,"timezone":"Europe/Bucharest","type":"adm2","translations":{"es":"Şiştarovăţ","en":"Şiştarovăţ"}},{"name":"Socodor","state_code":"AR","latitude":"46.51667000","longitude":"21.43333000","population":2317,"timezone":"Europe/Bucharest","type":"adm2","translations":{"es":"Socodor","en":"Socodor"}},{"name":"Şofronea","state_code":"AR","latitude":"46.26667000","longitude":"21.30000000","population":2887,"timezone":"Europe/Bucharest","type":"adm2","translations":{"es":"Şofronea","en":"Şofronea"}},{"name":"Târnova","state_code":"AR","latitude":"46.31667000","longitude":"21.80000000","population":5625,"timezone":"Europe/Bucharest","type":"adm2","translations":{"es":"Tarnova","en":"Târnova"}},{"name":"Tauţ","state_code":"AR","latitude":"46.28333000","longitude":"21.91667000","population":2139,"timezone":"Europe/Bucharest","type":"adm2","translations":{"es":"Tirante","en":"Tauţ"}},{"name":"Țipar","state_code":"AR","latitude":"46.47563000","longitude":"21.63431000","population":1271,"timezone":"Europe/Bucharest","type":"city","translations":{"es":"Sipar","en":"Țipar"}},{"name":"Turnu","state_code":"AR","latitude":"46.25764000","longitude":"21.12657000","population":1055,"timezone":"Europe/Bucharest","type":"city","translations":{"es":"Turnu","en":"Turnu"}},{"name":"Ususău","state_code":"AR","latitude":"46.07063000","longitude":"21.81371000","population":533,"timezone":"Europe/Bucharest","type":"adm2","translations":{"es":"Uso","en":"Ususău"}},{"name":"Vânători","state_code":"AR","latitude":"46.62456000","longitude":"21.67332000","population":1180,"timezone":"Europe/Bucharest","type":"city","translations":{"es":"Vânători","en":"Vânători"}},{"name":"Vărădia de Mureş","state_code":"AR","latitude":"46.01667000","longitude":"22.15000000","population":2082,"timezone":"Europe/Bucharest","type":"adm2","translations":{"es":"Vărădia de Mureş","en":"Vărădia de Mureş"}},{"name":"Vârfurile","state_code":"AR","latitude":"46.31667000","longitude":"22.51667000","population":3247,"timezone":"Europe/Bucharest","type":"adm2","translations":{"es":"Vârfurile","en":"Vârfurile"}},{"name":"Vinga","state_code":"AR","latitude":"46.01667000","longitude":"21.20000000","population":6083,"timezone":"Europe/Bucharest","type":"adm2","translations":{"es":"Vinga","en":"Vinga"}},{"name":"Vladimirescu","state_code":"AR","latitude":"46.16628000","longitude":"21.40102000","population":10451,"timezone":"Europe/Bucharest","type":"adm2","translations":{"es":"Vladimirescu","en":"Vladimirescu"}},{"name":"Zăbrani","state_code":"AR","latitude":"46.06667000","longitude":"21.55000000","population":3661,"timezone":"Europe/Bucharest","type":"adm2","translations":{"es":"Zabrani","en":"Zăbrani"}},{"name":"Zădăreni","state_code":"AR","latitude":"46.13274000","longitude":"21.21821000","population":2032,"timezone":"Europe/Bucharest","type":"adm2","translations":{"es":"Zădăreni","en":"Zădăreni"}},{"name":"Zărand","state_code":"AR","latitude":"46.40000000","longitude":"21.65000000","population":2669,"timezone":"Europe/Bucharest","type":"adm2","translations":{"es":"Zărand","en":"Zărand"}},{"name":"Zerind","state_code":"AR","latitude":"46.61667000","longitude":"21.51667000","population":1299,"timezone":"Europe/Bucharest","type":"adm2","translations":{"es":"Zerind","en":"Zerind"}},{"name":"Zimandu Nou","state_code":"AR","latitude":"46.28333000","longitude":"21.40000000","population":4663,"timezone":"Europe/Bucharest","type":"adm2","translations":{"es":"Zimandu Nou","en":"Zimandu Nou"}},{"name":"Albeşti","state_code":"AG","latitude":"45.30955000","longitude":"25.00780000","population":4503,"timezone":"Europe/Bucharest","type":"adm2","translations":{"es":"Albeşti","en":"Albeşti"}},{"name":"Albeştii Pământeni","state_code":"AG","latitude":"45.20642110","longitude":"24.66780310","population":5815,"timezone":"Europe/Bucharest","type":"city","translations":{"es":"Albeştii Pământeni","en":"Albeştii Pământeni"}},{"name":"Albeștii Ungureni","state_code":"AG","latitude":"45.22529000","longitude":"24.67254000","population":2017,"timezone":"Europe/Bucharest","type":"city","translations":{"es":"Albeștii Ungureni","en":"Albeștii Ungureni"}},{"name":"Albota","state_code":"AG","latitude":"44.78333000","longitude":"24.85000000","population":1865,"timezone":"Europe/Bucharest","type":"adm2","translations":{"es":"Albota","en":"Albota"}},{"name":"Albota de Jos","state_code":"AG","latitude":"44.76667000","longitude":"24.83333000","population":3866,"timezone":"Europe/Bucharest","type":"city","translations":{"es":"Albota de José","en":"Albota de Jos"}},{"name":"Aninoasa","state_code":"AG","latitude":"45.18333000","longitude":"24.93333000","population":3334,"timezone":"Europe/Bucharest","type":"adm2","translations":{"es":"Aninoasa","en":"Aninoasa"}},{"name":"Arefu","state_code":"AG","latitude":"45.33333000","longitude":"24.60000000","population":1300,"timezone":"Europe/Bucharest","type":"city","translations":{"es":"Arefu","en":"Arefu"}},{"name":"Argeșelu","state_code":"AG","latitude":"44.92740000","longitude":"24.87115000","population":1501,"timezone":"Europe/Bucharest","type":"city","translations":{"es":"Argeșelu","en":"Argeșelu"}},{"name":"Băbana","state_code":"AG","latitude":"44.90000000","longitude":"24.70000000","population":3210,"timezone":"Europe/Bucharest","type":"adm2","translations":{"es":"Băbana","en":"Băbana"}},{"name":"Bădești","state_code":"AG","latitude":"45.17157000","longitude":"24.86064000","population":1530,"timezone":"Europe/Bucharest","type":"city","translations":{"es":"Bădești","en":"Bădești"}},{"name":"Băiculeşti","state_code":"AG","latitude":"45.06667000","longitude":"24.70000000","population":5577,"timezone":"Europe/Bucharest","type":"adm2","translations":{"es":"Băiculeşti","en":"Băiculeşti"}},{"name":"Băjești","state_code":"AG","latitude":"45.02615000","longitude":"24.94006000","population":1260,"timezone":"Europe/Bucharest","type":"city","translations":{"es":"Băjești","en":"Băjești"}},{"name":"Bălileşti","state_code":"AG","latitude":"45.06667000","longitude":"24.93333000","population":3670,"timezone":"Europe/Bucharest","type":"adm2","translations":{"es":"Bălileşti","en":"Bălileşti"}},{"name":"Bărăști","state_code":"AG","latitude":"45.25369000","longitude":"24.59651000","population":1099,"timezone":"Europe/Bucharest","type":"city","translations":{"es":"Bărăști","en":"Bărăști"}},{"name":"Bârla","state_code":"AG","latitude":"44.42606000","longitude":"24.77743000","population":5795,"timezone":"Europe/Bucharest","type":"adm2","translations":{"es":"Barla","en":"Bârla"}},{"name":"Bârlogu","state_code":"AG","latitude":"44.62658000","longitude":"25.08066000","population":1193,"timezone":"Europe/Bucharest","type":"city","translations":{"es":"Bârlogu","en":"Bârlogu"}},{"name":"Başcov","state_code":"AG","latitude":"44.90000000","longitude":"24.81667000","population":8759,"timezone":"Europe/Bucharest","type":"adm2","translations":{"es":"Başcov","en":"Başcov"}},{"name":"Beleţi","state_code":"AG","latitude":"44.90000000","longitude":"25.08333000","population":1974,"timezone":"Europe/Bucharest","type":"city","translations":{"es":"Beleţi","en":"Beleţi"}},{"name":"Berevoeşti","state_code":"AG","latitude":"45.23333000","longitude":"24.91667000","population":3385,"timezone":"Europe/Bucharest","type":"adm2","translations":{"es":"Berevoeşti","en":"Berevoeşti"}},{"name":"Bogaţi","state_code":"AG","latitude":"44.86667000","longitude":"25.13333000","population":4038,"timezone":"Europe/Bucharest","type":"adm2","translations":{"es":"Bogati","en":"Bogaţi"}},{"name":"Boteni","state_code":"AG","latitude":"45.18333000","longitude":"25.11667000","population":2733,"timezone":"Europe/Bucharest","type":"adm2","translations":{"es":"Boteni","en":"Boteni"}},{"name":"Boţeşti","state_code":"AG","latitude":"45.01667000","longitude":"25.13333000","population":1330,"timezone":"Europe/Bucharest","type":"adm2","translations":{"es":"Boţeşti","en":"Boţeşti"}},{"name":"Bradu","state_code":"AG","latitude":"44.78013920","longitude":"24.89776120","population":629,"timezone":"Europe/Bucharest","type":"adm2","translations":{"es":"Bradu","en":"Bradu"}},{"name":"Brăduleţ","state_code":"AG","latitude":"45.28333000","longitude":"24.76667000","population":2130,"timezone":"Europe/Bucharest","type":"adm2","translations":{"es":"Brăduleţ","en":"Brăduleţ"}},{"name":"Bucșenești","state_code":"AG","latitude":"45.30096000","longitude":"24.65841000","population":1058,"timezone":"Europe/Bucharest","type":"city","translations":{"es":"Bucșenești","en":"Bucșenești"}},{"name":"Bucșenești-Lotași","state_code":"AG","latitude":"45.01307000","longitude":"24.96845000","population":1185,"timezone":"Europe/Bucharest","type":"city","translations":{"es":"Bucșenești-Lotași","en":"Bucșenești-Lotași"}},{"name":"Budeasa Mică","state_code":"AG","latitude":"44.95000000","longitude":"24.85000000","population":3789,"timezone":"Europe/Bucharest","type":"city","translations":{"es":"Budeasa Mică","en":"Budeasa Mică"}},{"name":"Bughea de Jos","state_code":"AG","latitude":"45.26667000","longitude":"25.00000000","population":2950,"timezone":"Europe/Bucharest","type":"adm2","translations":{"es":"Bughea de Jos","en":"Bughea de Jos"}},{"name":"Bughea de Sus","state_code":"AG","latitude":"45.29812320","longitude":"25.03283540","population":2966,"timezone":"Europe/Bucharest","type":"adm2","translations":{"es":"Bughea de Sus","en":"Bughea de Sus"}},{"name":"Buzoeşti","state_code":"AG","latitude":"44.58333000","longitude":"24.91667000","population":5056,"timezone":"Europe/Bucharest","type":"adm2","translations":{"es":"Buzoeşti","en":"Buzoeşti"}},{"name":"Căldăraru","state_code":"AG","latitude":"44.45000000","longitude":"24.95000000","population":2975,"timezone":"Europe/Bucharest","type":"adm2","translations":{"es":"Căldăraru","en":"Căldăraru"}},{"name":"Călineşti","state_code":"AG","latitude":"44.81667000","longitude":"25.05000000","population":10419,"timezone":"Europe/Bucharest","type":"adm2","translations":{"es":"Călineşti","en":"Călineşti"}},{"name":"Câmpulung","state_code":"AG","latitude":"45.26667000","longitude":"25.05000000","population":0,"timezone":"Europe/Bucharest","type":"adm2","translations":{"es":"Campamento","en":"Câmpulung"}},{"name":"Căpățânenii Pământeni","state_code":"AG","latitude":"45.31667000","longitude":"24.65000000","population":544,"timezone":"Europe/Bucharest","type":"city","translations":{"es":"Căpățânenii Pământeni","en":"Căpățânenii Pământeni"}},{"name":"Capu Piscului","state_code":"AG","latitude":"45.17999000","longitude":"24.97679000","population":1139,"timezone":"Europe/Bucharest","type":"city","translations":{"es":"Capu Piscului","en":"Capu Piscului"}},{"name":"Căteasca","state_code":"AG","latitude":"44.76667000","longitude":"25.08333000","population":3716,"timezone":"Europe/Bucharest","type":"adm2","translations":{"es":"Căteasca","en":"Căteasca"}},{"name":"Ceparii Pământeni","state_code":"AG","latitude":"45.21667000","longitude":"24.56667000","population":494,"timezone":"Europe/Bucharest","type":"adm2","translations":{"es":"Ceparii Pământeni","en":"Ceparii Pământeni"}},{"name":"Cetăţeni","state_code":"AG","latitude":"45.20000000","longitude":"25.18333000","population":2732,"timezone":"Europe/Bucharest","type":"adm2","translations":{"es":"Cetăţeni","en":"Cetăţeni"}},{"name":"Cicănești","state_code":"AG","latitude":"45.24601000","longitude":"24.60526000","population":506,"timezone":"Europe/Bucharest","type":"adm2","translations":{"es":"Cicănești","en":"Cicănești"}},{"name":"Ciofrângeni","state_code":"AG","latitude":"45.08333000","longitude":"24.53333000","population":2643,"timezone":"Europe/Bucharest","type":"adm2","translations":{"es":"Ciofrángeni","en":"Ciofrângeni"}},{"name":"Ciomăgeşti","state_code":"AG","latitude":"44.83333000","longitude":"24.45000000","population":1362,"timezone":"Europe/Bucharest","type":"adm2","translations":{"es":"Ciomăgeşti","en":"Ciomăgeşti"}},{"name":"Ciulnița","state_code":"AG","latitude":"44.78769000","longitude":"25.15388000","population":1049,"timezone":"Europe/Bucharest","type":"city","translations":{"es":"Ciulnița","en":"Ciulnița"}},{"name":"Cocu","state_code":"AG","latitude":"44.86667000","longitude":"24.65000000","population":2662,"timezone":"Europe/Bucharest","type":"adm2","translations":{"es":"Cocu","en":"Cocu"}},{"name":"Colibași","state_code":"AG","latitude":"44.93544000","longitude":"24.90905000","population":1928,"timezone":"Europe/Bucharest","type":"city","translations":{"es":"Colibași","en":"Colibași"}},{"name":"Comuna Albeștii de Muscel","state_code":"AG","latitude":"45.31667000","longitude":"25.00000000","population":null,"timezone":"Europe/Bucharest","type":"adm2","translations":{"es":"Comuna Albeștii de Muscel","en":"Comuna Albeștii de Muscel"}},{"name":"Comuna Albota","state_code":"AG","latitude":"44.78287000","longitude":"24.81838000","population":null,"timezone":"Europe/Bucharest","type":"city","translations":{"es":"Comuna Albota","en":"Comuna Albota"}},{"name":"Comuna Aninoasa","state_code":"AG","latitude":"45.20222000","longitude":"24.91206000","population":null,"timezone":"Europe/Bucharest","type":"adm2","translations":{"es":"Comuna Aninoasa","en":"Comuna Aninoasa"}},{"name":"Comuna Arefu","state_code":"AG","latitude":"45.33142000","longitude":"24.62944000","population":null,"timezone":"Europe/Bucharest","type":"city","translations":{"es":"Comuna Arefu","en":"Comuna Arefu"}},{"name":"Comuna Băbana","state_code":"AG","latitude":"44.87539000","longitude":"24.71918000","population":null,"timezone":"Europe/Bucharest","type":"adm2","translations":{"es":"Comuna Băbana","en":"Comuna Băbana"}},{"name":"Comuna Băiculeşti","state_code":"AG","latitude":"45.06017000","longitude":"24.67331000","population":32178,"timezone":"Europe/Bucharest","type":"adm2","translations":{"es":"Comuna Băiculeşti","en":"Comuna Băiculeşti"}},{"name":"Comuna Bălileşti","state_code":"AG","latitude":"45.07981000","longitude":"24.93943000","population":1260,"timezone":"Europe/Bucharest","type":"city","translations":{"es":"Comuna Bălileşti","en":"Comuna Bălileşti"}},{"name":"Comuna Bârla","state_code":"AG","latitude":"44.42636000","longitude":"24.77949000","population":850,"timezone":"Europe/Bucharest","type":"city","translations":{"es":"Comuna Bârla","en":"Comuna Bârla"}},{"name":"Comuna Başcov","state_code":"AG","latitude":"44.89295000","longitude":"24.78532000","population":812,"timezone":"Europe/Bucharest","type":"city","translations":{"es":"Comuna de Başcov","en":"Comuna Başcov"}},{"name":"Comuna Beleţi-Negreşti","state_code":"AG","latitude":"44.94651000","longitude":"25.08603000","population":null,"timezone":"Europe/Bucharest","type":"city","translations":{"es":"Comuna Beleţi-Negreşti","en":"Comuna Beleţi-Negreşti"}},{"name":"Comuna Berevoeşti","state_code":"AG","latitude":"45.25327000","longitude":"24.94292000","population":null,"timezone":"Europe/Bucharest","type":"city","translations":{"es":"Comuna Berevoeşti","en":"Comuna Berevoeşti"}},{"name":"Comuna Bogaţi","state_code":"AG","latitude":"44.87344000","longitude":"25.15045000","population":null,"timezone":"Europe/Bucharest","type":"adm2","translations":{"es":"Comuna Bogaţi","en":"Comuna Bogaţi"}},{"name":"Comuna Boteni","state_code":"AG","latitude":"45.17937000","longitude":"25.13073000","population":null,"timezone":"Europe/Bucharest","type":"city","translations":{"es":"Comuna Boteni","en":"Comuna Boteni"}},{"name":"Comuna Boţeşti","state_code":"AG","latitude":"45.00704000","longitude":"25.14723000","population":null,"timezone":"Europe/Bucharest","type":"adm2","translations":{"es":"Comuna Boţeşti","en":"Comuna Boţeşti"}},{"name":"Comuna Brăduleţ","state_code":"AG","latitude":"45.27502000","longitude":"24.77372000","population":null,"timezone":"Europe/Bucharest","type":"adm2","translations":{"es":"Comuna Brăduleţ","en":"Comuna Brăduleţ"}},{"name":"Comuna Budeasa","state_code":"AG","latitude":"44.95042000","longitude":"24.80254000","population":null,"timezone":"Europe/Bucharest","type":"city","translations":{"es":"Comuna Budeasa","en":"Comuna Budeasa"}},{"name":"Comuna Bughea de Jos","state_code":"AG","latitude":"45.27404000","longitude":"25.00324000","population":null,"timezone":"Europe/Bucharest","type":"adm2","translations":{"es":"Comuna Bughea de Jos","en":"Comuna Bughea de Jos"}},{"name":"Comuna Buzoeşti","state_code":"AG","latitude":"44.60205000","longitude":"24.91856000","population":6281,"timezone":"Europe/Bucharest","type":"adm2","translations":{"es":"Comuna Buzoeşti","en":"Comuna Buzoeşti"}},{"name":"Comuna Căldăraru","state_code":"AG","latitude":"44.45395000","longitude":"24.94263000","population":null,"timezone":"Europe/Bucharest","type":"adm2","translations":{"es":"Comuna Căldăraru","en":"Comuna Căldăraru"}},{"name":"Comuna Călineşti","state_code":"AG","latitude":"44.85650000","longitude":"25.01968000","population":null,"timezone":"Europe/Bucharest","type":"city","translations":{"es":"Comuna Călineşti","en":"Comuna Călineşti"}},{"name":"Comuna Căteasca","state_code":"AG","latitude":"44.77056000","longitude":"25.03633000","population":709,"timezone":"Europe/Bucharest","type":"city","translations":{"es":"Comuna Căteasca","en":"Comuna Căteasca"}},{"name":"Comuna Cepari","state_code":"AG","latitude":"45.20564000","longitude":"24.53064000","population":null,"timezone":"Europe/Bucharest","type":"city","translations":{"es":"Comuna Cepari","en":"Comuna Cepari"}},{"name":"Comuna Cetăţeni","state_code":"AG","latitude":"45.19234000","longitude":"25.20789000","population":null,"timezone":"Europe/Bucharest","type":"city","translations":{"es":"Comuna Cetăţeni","en":"Comuna Cetăţeni"}},{"name":"Comuna Cicănești","state_code":"AG","latitude":"45.24577000","longitude":"24.60629000","population":506,"timezone":"Europe/Bucharest","type":"adm2","translations":{"es":"Comuna Cicănești","en":"Comuna Cicănești"}},{"name":"Comuna Ciofrângeni","state_code":"AG","latitude":"45.10277000","longitude":"24.53704000","population":null,"timezone":"Europe/Bucharest","type":"city","translations":{"es":"Comuna Ciofrângeni","en":"Comuna Ciofrângeni"}},{"name":"Comuna Ciomăgeşti","state_code":"AG","latitude":"44.85656000","longitude":"24.47229000","population":null,"timezone":"Europe/Bucharest","type":"city","translations":{"es":"Comuna Ciomăgeşti","en":"Comuna Ciomăgeşti"}},{"name":"Comuna Cocu","state_code":"AG","latitude":"44.87429000","longitude":"24.65112000","population":2662,"timezone":"Europe/Bucharest","type":"adm2","translations":{"es":"Comuna Cocu","en":"Comuna Cocu"}},{"name":"Comuna Corbeni","state_code":"AG","latitude":"45.29597000","longitude":"24.66207000","population":null,"timezone":"Europe/Bucharest","type":"city","translations":{"es":"Comuna Corbeni","en":"Comuna Corbeni"}},{"name":"Comuna Corbi","state_code":"AG","latitude":"45.25572000","longitude":"24.81611000","population":null,"timezone":"Europe/Bucharest","type":"city","translations":{"es":"Comuna Corbi","en":"Comuna Corbi"}},{"name":"Comuna Coşeşti","state_code":"AG","latitude":"45.06431000","longitude":"24.87202000","population":null,"timezone":"Europe/Bucharest","type":"adm2","translations":{"es":"Comuna Coşeşti","en":"Comuna Coşeşti"}},{"name":"Comuna Cotmeana","state_code":"AG","latitude":"45.00518000","longitude":"24.62021000","population":null,"timezone":"Europe/Bucharest","type":"adm2","translations":{"es":"Comuna Cotmeana","en":"Comuna Cotmeana"}},{"name":"Comuna Cuca","state_code":"AG","latitude":"44.95654000","longitude":"24.50636000","population":null,"timezone":"Europe/Bucharest","type":"adm2","translations":{"es":"Comuna Cuca","en":"Comuna Cuca"}},{"name":"Comuna Dâmbovicioara","state_code":"AG","latitude":"45.43452000","longitude":"25.22737000","population":null,"timezone":"Europe/Bucharest","type":"adm2","translations":{"es":"Comuna Dâmbovicioara","en":"Comuna Dâmbovicioara"}},{"name":"Comuna Dărmăneşti","state_code":"AG","latitude":"45.00656000","longitude":"24.90224000","population":null,"timezone":"Europe/Bucharest","type":"adm2","translations":{"es":"Comuna Dărmăneşti","en":"Comuna Dărmăneşti"}},{"name":"Comuna Davideşti","state_code":"AG","latitude":"45.00694000","longitude":"25.03599000","population":null,"timezone":"Europe/Bucharest","type":"adm2","translations":{"es":"Comuna Davideşti","en":"Comuna Davideşti"}},{"name":"Comuna Dobreşti","state_code":"AG","latitude":"44.94992000","longitude":"25.11907000","population":null,"timezone":"Europe/Bucharest","type":"city","translations":{"es":"Comuna Dobreşti","en":"Comuna Dobreşti"}},{"name":"Comuna Domneşti","state_code":"AG","latitude":"45.20562000","longitude":"24.83945000","population":1860,"timezone":"Europe/Bucharest","type":"city","translations":{"es":"Comuna Domneşti","en":"Comuna Domneşti"}},{"name":"Comuna Drăganu","state_code":"AG","latitude":"44.93761000","longitude":"24.70301000","population":null,"timezone":"Europe/Bucharest","type":"city","translations":{"es":"Comuna Drăganu","en":"Comuna Drăganu"}},{"name":"Comuna Dragoslavele","state_code":"AG","latitude":"45.33451000","longitude":"25.17010000","population":2474,"timezone":"Europe/Bucharest","type":"city","translations":{"es":"Comuna Dragoslavele","en":"Comuna Dragoslavele"}},{"name":"Comuna Godeni","state_code":"AG","latitude":"45.22311000","longitude":"24.97842000","population":null,"timezone":"Europe/Bucharest","type":"adm2","translations":{"es":"Comuna Godeni","en":"Comuna Godeni"}},{"name":"Comuna Hârseşti","state_code":"AG","latitude":"44.51091000","longitude":"24.78294000","population":2841,"timezone":"Europe/Bucharest","type":"adm2","translations":{"es":"Comuna Hârseşti","en":"Comuna Hârseşti"}},{"name":"Comuna Hârtieşti","state_code":"AG","latitude":"45.12629000","longitude":"25.11343000","population":null,"timezone":"Europe/Bucharest","type":"adm2","translations":{"es":"Comuna Hârtieşti","en":"Comuna Hârtieşti"}},{"name":"Comuna Leordeni","state_code":"AG","latitude":"44.79117000","longitude":"25.16299000","population":1062,"timezone":"Europe/Bucharest","type":"city","translations":{"es":"Comuna Leordeni","en":"Comuna Leordeni"}},{"name":"Comuna Lereşti","state_code":"AG","latitude":"45.32789000","longitude":"25.06951000","population":null,"timezone":"Europe/Bucharest","type":"adm2","translations":{"es":"Comuna Lereşti","en":"Comuna Lereşti"}},{"name":"Comuna Lunca Corbului","state_code":"AG","latitude":"44.68361000","longitude":"24.76056000","population":3350,"timezone":"Europe/Bucharest","type":"adm2","translations":{"es":"Comuna Lunca Corbului","en":"Comuna Lunca Corbului"}},{"name":"Comuna Mălureni","state_code":"AG","latitude":"45.04780000","longitude":"24.77875000","population":null,"timezone":"Europe/Bucharest","type":"city","translations":{"es":"Comuna Mălureni","en":"Comuna Mălureni"}},{"name":"Comuna Mărăcineni","state_code":"AG","latitude":"44.90857000","longitude":"24.87484000","population":null,"timezone":"Europe/Bucharest","type":"adm2","translations":{"es":"Comuna Mărăcineni","en":"Comuna Mărăcineni"}},{"name":"Comuna Merișani","state_code":"AG","latitude":"44.96674000","longitude":"24.74482000","population":4390,"timezone":"Europe/Bucharest","type":"adm2","translations":{"es":"Comuna Merișani","en":"Comuna Merișani"}},{"name":"Comuna Miceşti","state_code":"AG","latitude":"44.97367000","longitude":"24.85577000","population":null,"timezone":"Europe/Bucharest","type":"city","translations":{"es":"Comuna Miceşti","en":"Comuna Miceşti"}},{"name":"Comuna Mihăeşti","state_code":"AG","latitude":"45.11563000","longitude":"25.01938000","population":null,"timezone":"Europe/Bucharest","type":"adm2","translations":{"es":"Comuna Mihăeşti","en":"Comuna Mihăeşti"}},{"name":"Comuna Mioarele","state_code":"AG","latitude":"45.23396000","longitude":"25.10045000","population":null,"timezone":"Europe/Bucharest","type":"city","translations":{"es":"Comuna Mioarele","en":"Comuna Mioarele"}},{"name":"Comuna Miroşi","state_code":"AG","latitude":"44.40316000","longitude":"24.95170000","population":null,"timezone":"Europe/Bucharest","type":"adm2","translations":{"es":"Comuna Miroşi","en":"Comuna Miroşi"}},{"name":"Comuna Morărești","state_code":"AG","latitude":"45.00760000","longitude":"24.56079000","population":null,"timezone":"Europe/Bucharest","type":"adm2","translations":{"es":"Comuna Morărești","en":"Comuna Morărești"}},{"name":"Comuna Moşoaia","state_code":"AG","latitude":"44.83013000","longitude":"24.79957000","population":null,"timezone":"Europe/Bucharest","type":"city","translations":{"es":"Comuna Moşoaia","en":"Comuna Moşoaia"}},{"name":"Comuna Mozăceni","state_code":"AG","latitude":"44.56366000","longitude":"25.17492000","population":null,"timezone":"Europe/Bucharest","type":"adm2","translations":{"es":"Comuna Mozăceni","en":"Comuna Mozăceni"}},{"name":"Comuna Mușătești","state_code":"AG","latitude":"45.21667000","longitude":"24.78333000","population":null,"timezone":"Europe/Bucharest","type":"adm2","translations":{"es":"Comuna Mușătești","en":"Comuna Mușătești"}},{"name":"Comuna Negraşi","state_code":"AG","latitude":"44.61441000","longitude":"25.12404000","population":null,"timezone":"Europe/Bucharest","type":"adm2","translations":{"es":"Comuna Negrasi","en":"Comuna Negraşi"}},{"name":"Comuna Nucşoara","state_code":"AG","latitude":"45.33798000","longitude":"24.78943000","population":null,"timezone":"Europe/Bucharest","type":"adm2","translations":{"es":"Comuna Nucşoara","en":"Comuna Nucşoara"}},{"name":"Comuna Oarja","state_code":"AG","latitude":"44.75730000","longitude":"24.96935000","population":null,"timezone":"Europe/Bucharest","type":"adm2","translations":{"es":"Comuna Oarja","en":"Comuna Oarja"}},{"name":"Comuna Pietroşani","state_code":"AG","latitude":"45.15375000","longitude":"24.84439000","population":null,"timezone":"Europe/Bucharest","type":"city","translations":{"es":"Comuna Pietroşani","en":"Comuna Pietroşani"}},{"name":"Comuna Poiana Lacului","state_code":"AG","latitude":"44.81199000","longitude":"24.71296000","population":null,"timezone":"Europe/Bucharest","type":"city","translations":{"es":"Comuna Poiana Lacului","en":"Comuna Poiana Lacului"}},{"name":"Comuna Poienarii de Argeş","state_code":"AG","latitude":"45.06667000","longitude":"24.53333000","population":null,"timezone":"Europe/Bucharest","type":"adm2","translations":{"es":"Comuna Poienarii de Argeş","en":"Comuna Poienarii de Argeş"}},{"name":"Comuna Popeşti","state_code":"AG","latitude":"44.44521000","longitude":"25.09114000","population":null,"timezone":"Europe/Bucharest","type":"adm2","translations":{"es":"Comuna Popeşti","en":"Comuna Popeşti"}},{"name":"Comuna Priboieni","state_code":"AG","latitude":"44.87728000","longitude":"25.08680000","population":526,"timezone":"Europe/Bucharest","type":"city","translations":{"es":"Comuna Priboieni","en":"Comuna Priboieni"}},{"name":"Comuna Râca","state_code":"AG","latitude":"44.44216000","longitude":"25.03671000","population":null,"timezone":"Europe/Bucharest","type":"adm2","translations":{"es":"Comuna Râca","en":"Comuna Râca"}},