[{"name":"Anse Boileau","state_code":"02","latitude":"-4.71667000","longitude":"55.48333000","population":4183,"timezone":"Indian/Mahe","type":"adm1","translations":{"es":"Anse Boileau","en":"Anse Boileau"}},{"name":"Anse Etoile","state_code":"03","latitude":"-4.59166667","longitude":"55.45000000","population":6209,"timezone":"Indian/Mahe","type":"city","translations":{"es":"Distrito de Anse Etoile","en":"Anse Etoile"}},{"name":"Anse Royale","state_code":"05","latitude":"-4.73333000","longitude":"55.51667000","population":3818,"timezone":"Indian/Mahe","type":"adm1","translations":{"es":"Anse Royale","en":"Anse Royale"}},{"name":"Beau Vallon","state_code":"08","latitude":"-4.62091000","longitude":"55.43015000","population":4142,"timezone":"Indian/Mahe","type":"adm1","translations":{"es":"Beau Vallon","en":"Beau Vallon"}},{"name":"Bel Ombre","state_code":"10","latitude":"-4.61667000","longitude":"55.41667000","population":4163,"timezone":"Indian/Mahe","type":"adm1","translations":{"es":"Bel Ombre","en":"Bel Ombre"}},{"name":"Cascade","state_code":"11","latitude":"-4.66667000","longitude":"55.50000000","population":7263,"timezone":"Indian/Mahe","type":"adm1","translations":{"es":"Cascada","en":"Cascade"}},{"name":"Victoria","state_code":"16","latitude":"-4.62001000","longitude":"55.45501000","population":24701,"timezone":"Indian/Mahe","type":"capital","translations":{"es":"Victoria","en":"Victoria"}},{"name":"Port Glaud","state_code":"21","latitude":"-4.66667000","longitude":"55.41667000","population":3243,"timezone":"Indian/Mahe","type":"adm1","translations":{"es":"Puerto Glaud","en":"Port Glaud"}},{"name":"Takamaka","state_code":"23","latitude":"-4.76667000","longitude":"55.50000000","population":2580,"timezone":"Indian/Mahe","type":"adm1","translations":{"es":"Takamaka","en":"Takamaka"}}]