[{"name":"Al Hasaheisa","state_code":"GZ","latitude":"14.75264000","longitude":"33.29836000","population":47408,"timezone":"Africa/Khartoum","type":"city","translations":{"es":"Al Hasaheisa","en":"Al Hasaheisa"}},{"name":"Al Hilāliyya","state_code":"GZ","latitude":"14.93980000","longitude":"33.23400000","population":17345,"timezone":"Africa/Khartoum","type":"city","translations":{"es":"Al Hilāliyya","en":"Al Hilāliyya"}},{"name":"Al Kiremit al ‘Arakiyyīn","state_code":"GZ","latitude":"14.34760000","longitude":"32.94370000","population":9775,"timezone":"Africa/Khartoum","type":"city","translations":{"es":"Al Kiremit al ‘Arakiyyīn","en":"Al Kiremit al ‘Arakiyyīn"}},{"name":"Al Manāqil","state_code":"GZ","latitude":"14.24590000","longitude":"32.98910000","population":128297,"timezone":"Africa/Khartoum","type":"city","translations":{"es":"Al Manāqil","en":"Al Manāqil"}},{"name":"Al Masallamiyya","state_code":"GZ","latitude":"14.57480000","longitude":"33.33730000","population":9373,"timezone":"Africa/Khartoum","type":"city","translations":{"es":"Al Masallamiyya","en":"Al Masallamiyya"}},{"name":"Wad Medani","state_code":"GZ","latitude":"14.40118000","longitude":"33.51989000","population":332714,"timezone":"Africa/Khartoum","type":"adm1","translations":{"es":"Wad Medani","en":"Wad Medani"}},{"name":"Wad Rāwah","state_code":"GZ","latitude":"15.16028000","longitude":"33.13972000","population":10348,"timezone":"Africa/Khartoum","type":"city","translations":{"es":"Wad Rāwah","en":"Wad Rāwah"}},{"name":"Al Ḩawātah","state_code":"GD","latitude":"13.41667000","longitude":"34.63333000","population":30184,"timezone":"Africa/Khartoum","type":"city","translations":{"es":"Al Ḩawātah","en":"Al Ḩawātah"}},{"name":"Al Qadarif","state_code":"GD","latitude":"14.03493000","longitude":"35.38344000","population":354927,"timezone":"Africa/Khartoum","type":"adm1","translations":{"es":"Al Qadarif","en":"Al Qadarif"}},{"name":"Doka","state_code":"GD","latitude":"13.51667000","longitude":"35.76667000","population":19821,"timezone":"Africa/Khartoum","type":"city","translations":{"es":"Doka","en":"Doka"}},{"name":"Ad-Damazin","state_code":"NB","latitude":"11.78910000","longitude":"34.35920000","population":186051,"timezone":"Africa/Khartoum","type":"adm1","translations":{"es":"Ad-Damazin","en":"Ad-Damazin"}},{"name":"Ar Ruseris","state_code":"NB","latitude":"11.86590000","longitude":"34.38690000","population":58712,"timezone":"Africa/Khartoum","type":"city","translations":{"es":"Ar Ruseris","en":"Ar Ruseris"}},{"name":"Kurmuk","state_code":"NB","latitude":"10.55000000","longitude":"34.28333000","population":10375,"timezone":"Africa/Khartoum","type":"city","translations":{"es":"Kurmuk","en":"Kurmuk"}},{"name":"Zalingei","state_code":"DC","latitude":"12.90918000","longitude":"23.47058000","population":35061,"timezone":"Africa/Khartoum","type":"adm1","translations":{"es":"Zalingei","en":"Zalingei"}},{"name":"El Daein","state_code":"DE","latitude":"11.46186000","longitude":"26.12583000","population":264734,"timezone":"Africa/Khartoum","type":"adm1","translations":{"es":"El Daein","en":"El Daein"}},{"name":"Aroma","state_code":"KA","latitude":"15.81667000","longitude":"36.13333000","population":12708,"timezone":"Africa/Khartoum","type":"city","translations":{"es":"Aroma","en":"Aroma"}},{"name":"Kassala","state_code":"KA","latitude":"15.45099000","longitude":"36.39998000","population":401477,"timezone":"Africa/Khartoum","type":"adm1","translations":{"es":"Kassala","en":"Kassala"}},{"name":"Wagar","state_code":"KA","latitude":"16.15250000","longitude":"36.20320000","population":11950,"timezone":"Africa/Khartoum","type":"city","translations":{"es":"Wagar","en":"Wagar"}},{"name":"Khartoum","state_code":"KH","latitude":"15.55177000","longitude":"32.53241000","population":1974647,"timezone":"Africa/Khartoum","type":"capital","translations":{"es":"Jartum","en":"Khartoum"}},{"name":"Omdurman","state_code":"KH","latitude":"15.64453000","longitude":"32.47773000","population":1849659,"timezone":"Africa/Khartoum","type":"city","translations":{"es":"Omdurmán","en":"Omdurman"}},{"name":"El Fasher","state_code":"DN","latitude":"13.62793000","longitude":"25.34936000","population":252609,"timezone":"Africa/Khartoum","type":"adm1","translations":{"es":"El Fasher","en":"El Fasher"}},{"name":"Kutum","state_code":"DN","latitude":"14.20000000","longitude":"24.66667000","population":34694,"timezone":"Africa/Khartoum","type":"city","translations":{"es":"Kutum","en":"Kutum"}},{"name":"Umm Kaddadah","state_code":"DN","latitude":"13.60169000","longitude":"26.68759000","population":10979,"timezone":"Africa/Khartoum","type":"city","translations":{"es":"Umm Kaddadah","en":"Umm Kaddadah"}},{"name":"Ar Rahad","state_code":"KN","latitude":"12.71667000","longitude":"30.65000000","population":36518,"timezone":"Africa/Khartoum","type":"city","translations":{"es":"Ar Rahad","en":"Ar Rahad"}},{"name":"Bārah","state_code":"KN","latitude":"13.70000000","longitude":"30.36667000","population":16969,"timezone":"Africa/Khartoum","type":"adm2","translations":{"es":"Barah","en":"Bārah"}},{"name":"El Obeid","state_code":"KN","latitude":"13.18421000","longitude":"30.21669000","population":393311,"timezone":"Africa/Khartoum","type":"adm1","translations":{"es":"El Obeid","en":"El Obeid"}},{"name":"Umm Ruwaba","state_code":"KN","latitude":"12.90610000","longitude":"31.21580000","population":56833,"timezone":"Africa/Khartoum","type":"city","translations":{"es":"Umm Ruwaba","en":"Umm Ruwaba"}},{"name":"Ad Dabbah","state_code":"NO","latitude":"18.05000000","longitude":"30.95000000","population":11626,"timezone":"Africa/Khartoum","type":"city","translations":{"es":"Ad Dabbah","en":"Ad Dabbah"}},{"name":"Argo","state_code":"NO","latitude":"19.51667000","longitude":"30.41667000","population":7716,"timezone":"Africa/Khartoum","type":"city","translations":{"es":"Argo","en":"Argo"}},{"name":"Dongola","state_code":"NO","latitude":"19.18163000","longitude":"30.47689000","population":56167,"timezone":"Africa/Khartoum","type":"adm1","translations":{"es":"Dongola","en":"Dongola"}},{"name":"Karmah an Nuzul","state_code":"NO","latitude":"19.63333000","longitude":"30.41667000","population":3928,"timezone":"Africa/Khartoum","type":"city","translations":{"es":"Karmah y Nuzul","en":"Karmah an Nuzul"}},{"name":"Kuraymah","state_code":"NO","latitude":"18.55000000","longitude":"31.85000000","population":19593,"timezone":"Africa/Khartoum","type":"city","translations":{"es":"Kuraymah","en":"Kuraymah"}},{"name":"Merowe","state_code":"NO","latitude":"18.47036000","longitude":"31.81126000","population":10234,"timezone":"Africa/Khartoum","type":"city","translations":{"es":"Merowe","en":"Merowe"}},{"name":"Gebeit","state_code":"RS","latitude":"21.06667000","longitude":"36.31667000","population":11095,"timezone":"Africa/Khartoum","type":"city","translations":{"es":"Gebeit","en":"Gebeit"}},{"name":"Port Sudan","state_code":"RS","latitude":"19.61745000","longitude":"37.21644000","population":489725,"timezone":"Africa/Khartoum","type":"adm1","translations":{"es":"Puerto Sudán","en":"Port Sudan"}},{"name":"Sawākin","state_code":"RS","latitude":"19.10590000","longitude":"37.33210000","population":null,"timezone":"Africa/Khartoum","type":"city","translations":{"es":"Sawākin","en":"Sawākin"}},{"name":"Tokār","state_code":"RS","latitude":"18.42540000","longitude":"37.72900000","population":37051,"timezone":"Africa/Khartoum","type":"city","translations":{"es":"Tokar","en":"Tokār"}},{"name":"Atbara","state_code":"NR","latitude":"17.70217000","longitude":"33.98638000","population":112021,"timezone":"Africa/Khartoum","type":"city","translations":{"es":"Atbara","en":"Atbara"}},{"name":"Berber","state_code":"NR","latitude":"18.02158000","longitude":"33.98299000","population":26203,"timezone":"Africa/Khartoum","type":"city","translations":{"es":"beréber","en":"Berber"}},{"name":"Ed Damer","state_code":"NR","latitude":"17.59898000","longitude":"33.97205000","population":103941,"timezone":"Africa/Khartoum","type":"adm1","translations":{"es":"Ed Damer","en":"Ed Damer"}},{"name":"El Bauga","state_code":"NR","latitude":"18.26197000","longitude":"33.90812000","population":19141,"timezone":"Africa/Khartoum","type":"city","translations":{"es":"El Bauga","en":"El Bauga"}},{"name":"El Matama","state_code":"NR","latitude":"16.70950000","longitude":"33.35650000","population":11366,"timezone":"Africa/Khartoum","type":"city","translations":{"es":"El Matama","en":"El Matama"}},{"name":"Shendi","state_code":"NR","latitude":"16.69150000","longitude":"33.43410000","population":63746,"timezone":"Africa/Khartoum","type":"city","translations":{"es":"Shendi","en":"Shendi"}},{"name":"Ad Dindar","state_code":"SI","latitude":"13.20000000","longitude":"34.16667000","population":15144,"timezone":"Africa/Khartoum","type":"city","translations":{"es":"Ad Dindar","en":"Ad Dindar"}},{"name":"As Sūkī","state_code":"SI","latitude":"13.31667000","longitude":"33.88333000","population":33524,"timezone":"Africa/Khartoum","type":"city","translations":{"es":"Como Sūkī","en":"As Sūkī"}},{"name":"Jalqani","state_code":"SI","latitude":"12.44860000","longitude":"34.21860000","population":9472,"timezone":"Africa/Khartoum","type":"city","translations":{"es":"Jalqani","en":"Jalqani"}},{"name":"Kināna","state_code":"SI","latitude":"14.03610000","longitude":"33.17120000","population":26233,"timezone":"Africa/Khartoum","type":"city","translations":{"es":"Kinana","en":"Kināna"}},{"name":"Maiurno","state_code":"SI","latitude":"13.41667000","longitude":"33.66667000","population":28727,"timezone":"Africa/Khartoum","type":"city","translations":{"es":"Maiurno","en":"Maiurno"}},{"name":"Singa","state_code":"SI","latitude":"13.14830000","longitude":"33.93117000","population":250000,"timezone":"Africa/Khartoum","type":"adm1","translations":{"es":"Singa","en":"Singa"}},{"name":"Sinnar","state_code":"SI","latitude":"13.56907000","longitude":"33.56718000","population":130122,"timezone":"Africa/Khartoum","type":"city","translations":{"es":"Sinnar","en":"Sinnar"}},{"name":"Gereida","state_code":"DS","latitude":"11.27543000","longitude":"25.14026000","population":120000,"timezone":"Africa/Khartoum","type":"city","translations":{"es":"Gereida","en":"Gereida"}},{"name":"Nyala","state_code":"DS","latitude":"12.04888000","longitude":"24.88069000","population":492984,"timezone":"Africa/Khartoum","type":"adm1","translations":{"es":"Nyala","en":"Nyala"}},{"name":"Abu Jibeha","state_code":"KS","latitude":"11.45620000","longitude":"31.22850000","population":47188,"timezone":"Africa/Khartoum","type":"city","translations":{"es":"Abu Jibeha","en":"Abu Jibeha"}},{"name":"Al Fūlah","state_code":"KS","latitude":"11.73292000","longitude":"28.35786000","population":26020,"timezone":"Africa/Khartoum","type":"city","translations":{"es":"Al Fūlah","en":"Al Fūlah"}},{"name":"Dilling","state_code":"KS","latitude":"12.05000000","longitude":"29.65000000","population":59089,"timezone":"Africa/Khartoum","type":"city","translations":{"es":"Eneldo","en":"Dilling"}},{"name":"Kadugli","state_code":"KS","latitude":"11.01111000","longitude":"29.71833000","population":87666,"timezone":"Africa/Khartoum","type":"adm1","translations":{"es":"Kadugli","en":"Kadugli"}},{"name":"Talodi","state_code":"KS","latitude":"10.63246000","longitude":"30.37970000","population":13188,"timezone":"Africa/Khartoum","type":"city","translations":{"es":"Talodi","en":"Talodi"}},{"name":"Geneina","state_code":"DW","latitude":"13.45262000","longitude":"22.44725000","population":162981,"timezone":"Africa/Khartoum","type":"adm1","translations":{"es":"Geneina","en":"Geneina"}},{"name":"Abū Zabad","state_code":"GK","latitude":"12.35000000","longitude":"29.25000000","population":23317,"timezone":"Africa/Khartoum","type":"city","translations":{"es":"Abu Zabad","en":"Abū Zabad"}},{"name":"Al Lagowa","state_code":"GK","latitude":"11.40000000","longitude":"29.13333000","population":11024,"timezone":"Africa/Khartoum","type":"city","translations":{"es":"Al Lagowa","en":"Al Lagowa"}},{"name":"Al Mijlad","state_code":"GK","latitude":"11.03333000","longitude":"27.73333000","population":40418,"timezone":"Africa/Khartoum","type":"city","translations":{"es":"Al Mijlad","en":"Al Mijlad"}},{"name":"An Nuhūd","state_code":"GK","latitude":"12.70000000","longitude":"28.43333000","population":108008,"timezone":"Africa/Khartoum","type":"city","translations":{"es":"Un Nuhūd","en":"An Nuhūd"}},{"name":"Ad Douiem","state_code":"NW","latitude":"14.00120000","longitude":"32.31160000","population":87068,"timezone":"Africa/Khartoum","type":"city","translations":{"es":"Ad Douiem","en":"Ad Douiem"}},{"name":"Al Kawa","state_code":"NW","latitude":"13.74630000","longitude":"32.49960000","population":10167,"timezone":"Africa/Khartoum","type":"city","translations":{"es":"Al Kawa","en":"Al Kawa"}},{"name":"Al Qiţena","state_code":"NW","latitude":"14.86480000","longitude":"32.36680000","population":18321,"timezone":"Africa/Khartoum","type":"city","translations":{"es":"Al Qiţena","en":"Al Qiţena"}},{"name":"Kosti","state_code":"NW","latitude":"13.16290000","longitude":"32.66347000","population":345068,"timezone":"Africa/Khartoum","type":"city","translations":{"es":"Kosti","en":"Kosti"}},{"name":"Marabba","state_code":"NW","latitude":"12.35000000","longitude":"32.18333000","population":12108,"timezone":"Africa/Khartoum","type":"city","translations":{"es":"Marabba","en":"Marabba"}},{"name":"Rabak","state_code":"NW","latitude":"13.18087000","longitude":"32.73999000","population":135281,"timezone":"Africa/Khartoum","type":"adm1","translations":{"es":"Rabak","en":"Rabak"}},{"name":"Tandaltī","state_code":"NW","latitude":"13.01667000","longitude":"31.86667000","population":31329,"timezone":"Africa/Khartoum","type":"city","translations":{"es":"Tandaltī","en":"Tandaltī"}},{"name":"Um Jar Al Gharbiyya","state_code":"NW","latitude":"13.80130000","longitude":"32.40780000","population":9038,"timezone":"Africa/Khartoum","type":"city","translations":{"es":"Um Jar Al Gharbiyya","en":"Um Jar Al Gharbiyya"}},{"name":"Wad az Zāki","state_code":"NW","latitude":"14.46190000","longitude":"32.20650000","population":9271,"timezone":"Africa/Khartoum","type":"city","translations":{"es":"Wad az Zāki","en":"Wad az Zāki"}}]