[{"name":"Acquaviva","state_code":"01","latitude":"43.94593000","longitude":"12.41850000","population":1530,"timezone":"Europe/San_Marino","type":"adm1","translations":{"es":"Acquaviva","en":"Acquaviva"}},{"name":"Borgo Maggiore","state_code":"06","latitude":"43.94193000","longitude":"12.44738000","population":6424,"timezone":"Europe/San_Marino","type":"adm1","translations":{"es":"Borgo Maggiore","en":"Borgo Maggiore"}},{"name":"Poggio di Chiesanuova","state_code":"02","latitude":"43.90451000","longitude":"12.42142000","population":951,"timezone":"Europe/San_Marino","type":"adm1","translations":{"es":"Poggio di Chiesanuova","en":"Poggio di Chiesanuova"}},{"name":"Domagnano","state_code":"03","latitude":"43.94961000","longitude":"12.46828000","population":3161,"timezone":"Europe/San_Marino","type":"adm1","translations":{"es":"Domagnano","en":"Domagnano"}},{"name":"Faetano","state_code":"04","latitude":"43.92831000","longitude":"12.49798000","population":1177,"timezone":"Europe/San_Marino","type":"adm1","translations":{"es":"Faetano","en":"Faetano"}},{"name":"Fiorentino","state_code":"05","latitude":"43.91001000","longitude":"12.45738000","population":2510,"timezone":"Europe/San_Marino","type":"adm1","translations":{"es":"Fiorentino","en":"Fiorentino"}},{"name":"Monte Giardino","state_code":"08","latitude":"43.90878000","longitude":"12.48201000","population":910,"timezone":"Europe/San_Marino","type":"adm1","translations":{"es":"Monte Giardino","en":"Monte Giardino"}},{"name":"San Marino","state_code":"07","latitude":"43.93667000","longitude":"12.44639000","population":3997,"timezone":"Europe/San_Marino","type":"capital","translations":{"es":"San Marino","en":"San Marino"}},{"name":"Serravalle","state_code":"09","latitude":"43.96897000","longitude":"12.48167000","population":9258,"timezone":"Europe/San_Marino","type":"adm1","translations":{"es":"Serravalle","en":"Serravalle"}}]