[{"name":"São Tomé","state_code":"01","latitude":"0.33654000","longitude":"6.72732000","population":53300,"timezone":"Africa/Sao_Tome","type":"capital","translations":{"es":"Santo Tomé (capital)","en":"São Tomé"}},{"name":"Santana","state_code":"02","latitude":"0.25389000","longitude":"6.73444000","population":4601,"timezone":"Africa/Sao_Tome","type":"city","translations":{"es":"Santana","en":"Santana"}},{"name":"São João dos Angolares","state_code":"03","latitude":"0.13720000","longitude":"6.64972000","population":0,"timezone":"Africa/Sao_Tome","type":"adm2","translations":{"es":"São João dos Angolares","en":"São João dos Angolares"}},{"name":"Neves","state_code":"04","latitude":"0.36667000","longitude":"6.55000000","population":8391,"timezone":"Africa/Sao_Tome","type":"city","translations":{"es":"Neves","en":"Neves"}},{"name":"Guadalupe","state_code":"05","latitude":"0.38333000","longitude":"6.61667000","population":0,"timezone":"Africa/Sao_Tome","type":"adm2","translations":{"es":"Guadalupe","en":"Guadalupe"}},{"name":"Trindade","state_code":"06","latitude":"0.29667000","longitude":"6.68139000","population":0,"timezone":"Africa/Sao_Tome","type":"adm2","translations":{"es":"Trindade","en":"Trindade"}},{"name":"Santo António","state_code":"P","latitude":"1.63943000","longitude":"7.41951000","population":1156,"timezone":"Africa/Sao_Tome","type":"adm1","translations":{"es":"Santo Antonio","en":"Santo António"}}]