[{"name":"Ahuachapán","state_code":"AH","latitude":"13.92139000","longitude":"-89.84500000","population":34102,"timezone":"America/El_Salvador","type":"adm1","translations":{"es":"Ahuachapán","en":"Ahuachapán"}},{"name":"Atiquizaya","state_code":"AH","latitude":"13.97694000","longitude":"-89.75250000","population":9476,"timezone":"America/El_Salvador","type":"city","translations":{"es":"Atiquizaya","en":"Atiquizaya"}},{"name":"Concepción de Ataco","state_code":"AH","latitude":"13.87028000","longitude":"-89.84861000","population":7797,"timezone":"America/El_Salvador","type":"city","translations":{"es":"Concepción de Ataco","en":"Concepción de Ataco"}},{"name":"Guaymango","state_code":"AH","latitude":"13.75028000","longitude":"-89.84222000","population":1517,"timezone":"America/El_Salvador","type":"city","translations":{"es":"Guaymango","en":"Guaymango"}},{"name":"Jujutla","state_code":"AH","latitude":"13.78694000","longitude":"-89.85722000","population":2022,"timezone":"America/El_Salvador","type":"city","translations":{"es":"Jujutla","en":"Jujutla"}},{"name":"San Francisco Menéndez","state_code":"AH","latitude":"13.84306000","longitude":"-90.01583000","population":1264,"timezone":"America/El_Salvador","type":"city","translations":{"es":"San Francisco Menéndez","en":"San Francisco Menéndez"}},{"name":"Tacuba","state_code":"AH","latitude":"13.90111000","longitude":"-89.92972000","population":5055,"timezone":"America/El_Salvador","type":"city","translations":{"es":"Tacuba","en":"Tacuba"}},{"name":"Sensuntepeque","state_code":"CA","latitude":"13.86667000","longitude":"-88.63333000","population":20386,"timezone":"America/El_Salvador","type":"adm1","translations":{"es":"Sensuntepeque","en":"Sensuntepeque"}},{"name":"Victoria","state_code":"CA","latitude":"13.95000000","longitude":"-88.63333000","population":2023,"timezone":"America/El_Salvador","type":"city","translations":{"es":"Victoria","en":"Victoria"}},{"name":"Chalatenango","state_code":"CH","latitude":"14.03333000","longitude":"-88.93333000","population":19364,"timezone":"America/El_Salvador","type":"adm1","translations":{"es":"Chalatenango","en":"Chalatenango"}},{"name":"Nueva Concepción","state_code":"CH","latitude":"14.13333000","longitude":"-89.30000000","population":9990,"timezone":"America/El_Salvador","type":"city","translations":{"es":"Nueva Concepción","en":"Nueva Concepción"}},{"name":"Cojutepeque","state_code":"CU","latitude":"13.71667000","longitude":"-88.93333000","population":46839,"timezone":"America/El_Salvador","type":"adm1","translations":{"es":"Cojutepeque","en":"Cojutepeque"}},{"name":"San Martín","state_code":"CU","latitude":"13.78333000","longitude":"-88.91667000","population":39361,"timezone":"America/El_Salvador","type":"city","translations":{"es":"San Martín","en":"San Martín"}},{"name":"Suchitoto","state_code":"CU","latitude":"13.93806000","longitude":"-89.02778000","population":5735,"timezone":"America/El_Salvador","type":"city","translations":{"es":"Suchitoto","en":"Suchitoto"}},{"name":"Tecoluca","state_code":"CU","latitude":"13.78917000","longitude":"-89.00528000","population":2781,"timezone":"America/El_Salvador","type":"city","translations":{"es":"Tecoluca","en":"Tecoluca"}},{"name":"Tenancingo","state_code":"CU","latitude":"13.83333000","longitude":"-88.98333000","population":1011,"timezone":"America/El_Salvador","type":"city","translations":{"es":"Tenancingo","en":"Tenancingo"}},{"name":"Antiguo Cuscatlán","state_code":"LI","latitude":"13.66492000","longitude":"-89.25319000","population":37451,"timezone":"America/El_Salvador","type":"city","translations":{"es":"Antiguo Cuscatlán","en":"Antiguo Cuscatlán"}},{"name":"Ciudad Arce","state_code":"LI","latitude":"13.84028000","longitude":"-89.44722000","population":10095,"timezone":"America/El_Salvador","type":"city","translations":{"es":"Ciudad Arce","en":"Ciudad Arce"}},{"name":"La Libertad","state_code":"LI","latitude":"13.48833000","longitude":"-89.32222000","population":16855,"timezone":"America/El_Salvador","type":"city","translations":{"es":"La Libertad","en":"La Libertad"}},{"name":"Nuevo Cuscatlán","state_code":"LI","latitude":"13.64861000","longitude":"-89.26528000","population":6469,"timezone":"America/El_Salvador","type":"city","translations":{"es":"Nuevo Cuscatlán","en":"Nuevo Cuscatlán"}},{"name":"Quezaltepeque","state_code":"LI","latitude":"13.83124000","longitude":"-89.27221000","population":28886,"timezone":"America/El_Salvador","type":"city","translations":{"es":"Quezaltepeque","en":"Quezaltepeque"}},{"name":"San Juan Opico","state_code":"LI","latitude":"13.87611000","longitude":"-89.35972000","population":7127,"timezone":"America/El_Salvador","type":"city","translations":{"es":"San Juan Opico","en":"San Juan Opico"}},{"name":"San Pablo Tacachico","state_code":"LI","latitude":"13.97556000","longitude":"-89.34000000","population":3033,"timezone":"America/El_Salvador","type":"city","translations":{"es":"San Pablo Tacachico","en":"San Pablo Tacachico"}},{"name":"Santa Tecla","state_code":"LI","latitude":"13.67694000","longitude":"-89.27972000","population":125532,"timezone":"America/El_Salvador","type":"adm1","translations":{"es":"Santa Tecla","en":"Santa Tecla"}},{"name":"Zaragoza","state_code":"LI","latitude":"13.58944000","longitude":"-89.28889000","population":11749,"timezone":"America/El_Salvador","type":"city","translations":{"es":"Zaragoza","en":"Zaragoza"}},{"name":"El Rosario","state_code":"PA","latitude":"13.49778000","longitude":"-89.02972000","population":5620,"timezone":"America/El_Salvador","type":"city","translations":{"es":"El Rosario","en":"El Rosario"}},{"name":"Olocuilta","state_code":"PA","latitude":"13.56972000","longitude":"-89.11722000","population":6324,"timezone":"America/El_Salvador","type":"city","translations":{"es":"Olocuilta","en":"Olocuilta"}},{"name":"San Pedro Masahuat","state_code":"PA","latitude":"13.54361000","longitude":"-89.03861000","population":2654,"timezone":"America/El_Salvador","type":"city","translations":{"es":"San Pedro Masahuat","en":"San Pedro Masahuat"}},{"name":"Santiago Nonualco","state_code":"PA","latitude":"13.51667000","longitude":"-88.95000000","population":9490,"timezone":"America/El_Salvador","type":"city","translations":{"es":"Santiago Nonualco","en":"Santiago Nonualco"}},{"name":"Zacatecoluca","state_code":"PA","latitude":"13.50000000","longitude":"-88.86667000","population":39613,"timezone":"America/El_Salvador","type":"adm1","translations":{"es":"Zacatecoluca","en":"Zacatecoluca"}},{"name":"Anamorós","state_code":"UN","latitude":"13.74056000","longitude":"-87.87361000","population":2655,"timezone":"America/El_Salvador","type":"city","translations":{"es":"Anamorós","en":"Anamorós"}},{"name":"Conchagua","state_code":"UN","latitude":"13.30778000","longitude":"-87.86472000","population":3034,"timezone":"America/El_Salvador","type":"city","translations":{"es":"Conchagua","en":"Conchagua"}},{"name":"Intipucá","state_code":"UN","latitude":"13.19694000","longitude":"-88.05444000","population":3540,"timezone":"America/El_Salvador","type":"city","translations":{"es":"Intipucá","en":"Intipucá"}},{"name":"La Unión","state_code":"UN","latitude":"13.33694000","longitude":"-87.84389000","population":26807,"timezone":"America/El_Salvador","type":"adm1","translations":{"es":"La Unión","en":"La Unión"}},{"name":"Nueva Esparta","state_code":"UN","latitude":"13.78361000","longitude":"-87.83861000","population":2528,"timezone":"America/El_Salvador","type":"city","translations":{"es":"Nueva Esparta","en":"Nueva Esparta"}},{"name":"Pasaquina","state_code":"UN","latitude":"13.58444000","longitude":"-87.84111000","population":2149,"timezone":"America/El_Salvador","type":"city","translations":{"es":"Pasaquina","en":"Pasaquina"}},{"name":"San Alejo","state_code":"UN","latitude":"13.43139000","longitude":"-87.96306000","population":5149,"timezone":"America/El_Salvador","type":"city","translations":{"es":"San Alejo","en":"San Alejo"}},{"name":"Santa Rosa de Lima","state_code":"UN","latitude":"13.62472000","longitude":"-87.89361000","population":13249,"timezone":"America/El_Salvador","type":"city","translations":{"es":"Santa Rosa de Lima","en":"Santa Rosa de Lima"}},{"name":"Cacaopera","state_code":"MO","latitude":"13.76667000","longitude":"-88.08333000","population":2528,"timezone":"America/El_Salvador","type":"city","translations":{"es":"Cacaopera","en":"Cacaopera"}},{"name":"Corinto","state_code":"MO","latitude":"13.81083000","longitude":"-87.97139000","population":3160,"timezone":"America/El_Salvador","type":"city","translations":{"es":"Corinto","en":"Corinto"}},{"name":"Guatajiagua","state_code":"MO","latitude":"13.66667000","longitude":"-88.20000000","population":5273,"timezone":"America/El_Salvador","type":"city","translations":{"es":"Guatajiagua","en":"Guatajiagua"}},{"name":"Jocoro","state_code":"MO","latitude":"13.61667000","longitude":"-88.01667000","population":4298,"timezone":"America/El_Salvador","type":"city","translations":{"es":"Jocoro","en":"Jocoro"}},{"name":"San Francisco","state_code":"MO","latitude":"13.70000000","longitude":"-88.10000000","population":16152,"timezone":"America/El_Salvador","type":"adm1","translations":{"es":"San Francisco","en":"San Francisco"}},{"name":"Sociedad","state_code":"MO","latitude":"13.70000000","longitude":"-88.01667000","population":1770,"timezone":"America/El_Salvador","type":"city","translations":{"es":"Sociedad","en":"Sociedad"}},{"name":"Chapeltique","state_code":"SM","latitude":"13.63333000","longitude":"-88.26667000","population":3159,"timezone":"America/El_Salvador","type":"city","translations":{"es":"Capilla","en":"Chapeltique"}},{"name":"Chinameca","state_code":"SM","latitude":"13.50000000","longitude":"-88.35000000","population":8646,"timezone":"America/El_Salvador","type":"city","translations":{"es":"Chinameca","en":"Chinameca"}},{"name":"Chirilagua","state_code":"SM","latitude":"13.22028000","longitude":"-88.13861000","population":6393,"timezone":"America/El_Salvador","type":"city","translations":{"es":"Chirilagua","en":"Chirilagua"}},{"name":"Ciudad Barrios","state_code":"SM","latitude":"13.76667000","longitude":"-88.26667000","population":8491,"timezone":"America/El_Salvador","type":"city","translations":{"es":"Ciudad Barrios","en":"Ciudad Barrios"}},{"name":"El Tránsito","state_code":"SM","latitude":"13.35000000","longitude":"-88.35000000","population":9485,"timezone":"America/El_Salvador","type":"city","translations":{"es":"El Tránsito","en":"El Tránsito"}},{"name":"Lolotique","state_code":"SM","latitude":"13.55000000","longitude":"-88.35000000","population":2654,"timezone":"America/El_Salvador","type":"city","translations":{"es":"Lolotique","en":"Lolotique"}},{"name":"Moncagua","state_code":"SM","latitude":"13.53333000","longitude":"-88.25000000","population":2148,"timezone":"America/El_Salvador","type":"city","translations":{"es":"Moncagua","en":"Moncagua"}},{"name":"Nueva Guadalupe","state_code":"SM","latitude":"13.53333000","longitude":"-88.35000000","population":5798,"timezone":"America/El_Salvador","type":"city","translations":{"es":"Nueva Guadalupe","en":"Nueva Guadalupe"}},{"name":"San Miguel","state_code":"SM","latitude":"13.48333000","longitude":"-88.18333000","population":232887,"timezone":"America/El_Salvador","type":"adm1","translations":{"es":"San Miguel","en":"San Miguel"}},{"name":"San Rafael Oriente","state_code":"SM","latitude":"13.38333000","longitude":"-88.35000000","population":19095,"timezone":"America/El_Salvador","type":"city","translations":{"es":"San Rafael Oriente","en":"San Rafael Oriente"}},{"name":"Sesori","state_code":"SM","latitude":"13.71667000","longitude":"-88.36667000","population":1390,"timezone":"America/El_Salvador","type":"city","translations":{"es":"Sensores","en":"Sesori"}},{"name":"Aguilares","state_code":"SS","latitude":"13.95722000","longitude":"-89.18972000","population":21051,"timezone":"America/El_Salvador","type":"city","translations":{"es":"Aguilares","en":"Aguilares"}},{"name":"Apopa","state_code":"SS","latitude":"13.80722000","longitude":"-89.17917000","population":129083,"timezone":"America/El_Salvador","type":"city","translations":{"es":"Apopa","en":"Apopa"}},{"name":"Ayutuxtepeque","state_code":"SS","latitude":"13.74556000","longitude":"-89.20639000","population":31631,"timezone":"America/El_Salvador","type":"city","translations":{"es":"Ayutuxtepeque","en":"Ayutuxtepeque"}},{"name":"Cuscatancingo","state_code":"SS","latitude":"13.73611000","longitude":"-89.18139000","population":44369,"timezone":"America/El_Salvador","type":"city","translations":{"es":"Cuscatancingo","en":"Cuscatancingo"}},{"name":"Delgado","state_code":"SS","latitude":"13.72417000","longitude":"-89.17028000","population":71594,"timezone":"America/El_Salvador","type":"city","translations":{"es":"Delgado","en":"Delgado"}},{"name":"El Paisnal","state_code":"SS","latitude":"13.97361000","longitude":"-89.21861000","population":1641,"timezone":"America/El_Salvador","type":"city","translations":{"es":"El Paisnal","en":"El Paisnal"}},{"name":"Guazapa","state_code":"SS","latitude":"13.87694000","longitude":"-89.17306000","population":10995,"timezone":"America/El_Salvador","type":"city","translations":{"es":"Guazapa","en":"Guazapa"}},{"name":"Ilopango","state_code":"SS","latitude":"13.70167000","longitude":"-89.10944000","population":38890,"timezone":"America/El_Salvador","type":"city","translations":{"es":"Ilopango","en":"Ilopango"}},{"name":"Mejicanos","state_code":"SS","latitude":"13.74028000","longitude":"-89.21306000","population":136641,"timezone":"America/El_Salvador","type":"city","translations":{"es":"Mejicanos","en":"Mejicanos"}},{"name":"Panchimalco","state_code":"SS","latitude":"13.61278000","longitude":"-89.18000000","population":6764,"timezone":"America/El_Salvador","type":"city","translations":{"es":"Panchimalco","en":"Panchimalco"}},{"name":"Rosario de Mora","state_code":"SS","latitude":"13.57528000","longitude":"-89.20889000","population":5178,"timezone":"America/El_Salvador","type":"city","translations":{"es":"Rosario de Mora","en":"Rosario de Mora"}},{"name":"San Marcos","state_code":"SS","latitude":"13.65889000","longitude":"-89.18306000","population":57094,"timezone":"America/El_Salvador","type":"city","translations":{"es":"San Marcos","en":"San Marcos"}},{"name":"San Salvador","state_code":"SS","latitude":"13.68935000","longitude":"-89.18718000","population":525990,"timezone":"America/El_Salvador","type":"capital","translations":{"es":"San Salvador","en":"San Salvador"}},{"name":"Santo Tomás","state_code":"SS","latitude":"13.64083000","longitude":"-89.13333000","population":14581,"timezone":"America/El_Salvador","type":"city","translations":{"es":"Santo Tomás","en":"Santo Tomás"}},{"name":"Soyapango","state_code":"SS","latitude":"13.71024000","longitude":"-89.13989000","population":329708,"timezone":"America/El_Salvador","type":"city","translations":{"es":"Soyapango","en":"Soyapango"}},{"name":"Tonacatepeque","state_code":"SS","latitude":"13.78111000","longitude":"-89.11861000","population":6245,"timezone":"America/El_Salvador","type":"city","translations":{"es":"Tonacatepeque","en":"Tonacatepeque"}},{"name":"Apastepeque","state_code":"SV","latitude":"13.66667000","longitude":"-88.78333000","population":5785,"timezone":"America/El_Salvador","type":"city","translations":{"es":"Apastepeque","en":"Apastepeque"}},{"name":"San Sebastián","state_code":"SV","latitude":"13.73333000","longitude":"-88.83333000","population":7333,"timezone":"America/El_Salvador","type":"city","translations":{"es":"San Sebastián","en":"San Sebastián"}},{"name":"San Vicente","state_code":"SV","latitude":"13.63333000","longitude":"-88.80000000","population":52461,"timezone":"America/El_Salvador","type":"adm1","translations":{"es":"San Vicente","en":"San Vicente"}},{"name":"Candelaria de La Frontera","state_code":"SA","latitude":"14.11667000","longitude":"-89.65000000","population":6301,"timezone":"America/El_Salvador","type":"city","translations":{"es":"Candelaria de La Frontera","en":"Candelaria de La Frontera"}},{"name":"Chalchuapa","state_code":"SA","latitude":"13.98667000","longitude":"-89.68111000","population":32282,"timezone":"America/El_Salvador","type":"city","translations":{"es":"Chalchuapa","en":"Chalchuapa"}},{"name":"Coatepeque","state_code":"SA","latitude":"13.92861000","longitude":"-89.50417000","population":5773,"timezone":"America/El_Salvador","type":"city","translations":{"es":"Coatepeque","en":"Coatepeque"}},{"name":"El Congo","state_code":"SA","latitude":"13.90889000","longitude":"-89.49583000","population":8905,"timezone":"America/El_Salvador","type":"city","translations":{"es":"El Congo","en":"El Congo"}},{"name":"Metapán","state_code":"SA","latitude":"14.33333000","longitude":"-89.45000000","population":19143,"timezone":"America/El_Salvador","type":"city","translations":{"es":"Metapán","en":"Metapán"}},{"name":"Santa Ana","state_code":"SA","latitude":"13.99417000","longitude":"-89.55972000","population":176661,"timezone":"America/El_Salvador","type":"adm1","translations":{"es":"Santa Ana","en":"Santa Ana"}},{"name":"Texistepeque","state_code":"SA","latitude":"14.13333000","longitude":"-89.50000000","population":2401,"timezone":"America/El_Salvador","type":"city","translations":{"es":"Texistepeque","en":"Texistepeque"}},{"name":"Acajutla","state_code":"SO","latitude":"13.59278000","longitude":"-89.82750000","population":22763,"timezone":"America/El_Salvador","type":"city","translations":{"es":"Acajutla","en":"Acajutla"}},{"name":"Armenia","state_code":"SO","latitude":"13.74361000","longitude":"-89.49889000","population":14997,"timezone":"America/El_Salvador","type":"city","translations":{"es":"Armenia","en":"Armenia"}},{"name":"Izalco","state_code":"SO","latitude":"13.74472000","longitude":"-89.67306000","population":19197,"timezone":"America/El_Salvador","type":"city","translations":{"es":"Izalco","en":"Izalco"}},{"name":"Juayúa","state_code":"SO","latitude":"13.84139000","longitude":"-89.74556000","population":9936,"timezone":"America/El_Salvador","type":"city","translations":{"es":"Juayúa","en":"Juayúa"}},{"name":"Nahuizalco","state_code":"SO","latitude":"13.77750000","longitude":"-89.73667000","population":7358,"timezone":"America/El_Salvador","type":"city","translations":{"es":"Nahuizalco","en":"Nahuizalco"}},{"name":"San Antonio del Monte","state_code":"SO","latitude":"13.71639000","longitude":"-89.73833000","population":9135,"timezone":"America/El_Salvador","type":"city","translations":{"es":"San Antonio del Monte","en":"San Antonio del Monte"}},{"name":"Sonsonate","state_code":"SO","latitude":"13.71889000","longitude":"-89.72417000","population":72233,"timezone":"America/El_Salvador","type":"adm1","translations":{"es":"Sonsonate","en":"Sonsonate"}},{"name":"Sonzacate","state_code":"SO","latitude":"13.73417000","longitude":"-89.71472000","population":15446,"timezone":"America/El_Salvador","type":"city","translations":{"es":"Sonzacate","en":"Sonzacate"}},{"name":"Berlín","state_code":"US","latitude":"13.50000000","longitude":"-88.53333000","population":11313,"timezone":"America/El_Salvador","type":"city","translations":{"es":"Berlina","en":"Berlín"}},{"name":"Concepción Batres","state_code":"US","latitude":"13.35000000","longitude":"-88.36667000","population":3286,"timezone":"America/El_Salvador","type":"city","translations":{"es":"Concepción Batres","en":"Concepción Batres"}},{"name":"Jiquilisco","state_code":"US","latitude":"13.31667000","longitude":"-88.58333000","population":9129,"timezone":"America/El_Salvador","type":"city","translations":{"es":"Jiquilisco","en":"Jiquilisco"}},{"name":"Jucuapa","state_code":"US","latitude":"13.51667000","longitude":"-88.38333000","population":10601,"timezone":"America/El_Salvador","type":"city","translations":{"es":"Jucuapa","en":"Jucuapa"}},{"name":"Jucuarán","state_code":"US","latitude":"13.25389000","longitude":"-88.24778000","population":1643,"timezone":"America/El_Salvador","type":"city","translations":{"es":"Jucuarán","en":"Jucuarán"}},{"name":"Ozatlán","state_code":"US","latitude":"13.38333000","longitude":"-88.50000000","population":4171,"timezone":"America/El_Salvador","type":"city","translations":{"es":"Ozatlán","en":"Ozatlán"}},{"name":"Puerto El Triunfo","state_code":"US","latitude":"13.28333000","longitude":"-88.55000000","population":19074,"timezone":"America/El_Salvador","type":"city","translations":{"es":"Puerto El Triunfo","en":"Puerto El Triunfo"}},{"name":"San Agustín","state_code":"US","latitude":"13.43333000","longitude":"-88.60000000","population":2149,"timezone":"America/El_Salvador","type":"city","translations":{"es":"San Agustín","en":"San Agustín"}},{"name":"Santa Elena","state_code":"US","latitude":"13.38333000","longitude":"-88.41667000","population":5887,"timezone":"America/El_Salvador","type":"city","translations":{"es":"Santa Elena","en":"Santa Elena"}},{"name":"Santiago de María","state_code":"US","latitude":"13.48333000","longitude":"-88.46667000","population":17940,"timezone":"America/El_Salvador","type":"city","translations":{"es":"Santiago de María","en":"Santiago de María"}},{"name":"Usulután","state_code":"US","latitude":"13.35000000","longitude":"-88.45000000","population":66125,"timezone":"America/El_Salvador","type":"adm1","translations":{"es":"Usulután","en":"Usulután"}}]