[{"name":"Dushanbe","state_code":"DU","latitude":"38.53666667","longitude":"68.78000000","population":679400,"timezone":"Asia/Dushanbe","type":"capital","translations":{"es":"Dusambé","en":"Dushanbe"}},{"name":"Ishqoshim","state_code":"GB","latitude":"36.72484000","longitude":"71.61331000","population":26000,"timezone":"Asia/Dushanbe","type":"adm2","translations":{"es":"Ishqoshim","en":"Ishqoshim"}},{"name":"Khorugh","state_code":"GB","latitude":"37.48974000","longitude":"71.55304000","population":31100,"timezone":"Asia/Dushanbe","type":"adm1","translations":{"es":"Khorugh","en":"Khorugh"}},{"name":"Murghob","state_code":"GB","latitude":"38.17023000","longitude":"73.96674000","population":10815,"timezone":"Asia/Dushanbe","type":"adm2","translations":{"es":"Murghob","en":"Murghob"}},{"name":"Nohiyai Shughnon","state_code":"GB","latitude":"37.70004000","longitude":"72.16748000","population":null,"timezone":"Asia/Dushanbe","type":"city","translations":{"es":"Nohiyai Shughnon","en":"Nohiyai Shughnon"}},{"name":"Abdurahmoni Jomí","state_code":"KT","latitude":"37.94636000","longitude":"68.80878000","population":9943,"timezone":"Asia/Dushanbe","type":"adm2","translations":{"es":"Abdurahmoni Jomí","en":"Abdurahmoni Jomí"}},{"name":"Boshchorbogh","state_code":"KT","latitude":"37.52027000","longitude":"68.12825000","population":4237,"timezone":"Asia/Dushanbe","type":"city","translations":{"es":"Boshchorbogh","en":"Boshchorbogh"}},{"name":"Bŭstonqal’a","state_code":"KT","latitude":"37.84783000","longitude":"68.83125000","population":4900,"timezone":"Asia/Dushanbe","type":"city","translations":{"es":"Bŭstonqal’a","en":"Bŭstonqal’a"}},{"name":"Chubek","state_code":"KT","latitude":"37.61453000","longitude":"69.70525000","population":19563,"timezone":"Asia/Dushanbe","type":"city","translations":{"es":"Chubek","en":"Chubek"}},{"name":"Danghara","state_code":"KT","latitude":"38.09578000","longitude":"69.33998000","population":22824,"timezone":"Asia/Dushanbe","type":"adm2","translations":{"es":"Danghara","en":"Danghara"}},{"name":"Dŭstí","state_code":"KT","latitude":"37.34812000","longitude":"68.66398000","population":8700,"timezone":"Asia/Dushanbe","type":"adm2","translations":{"es":"Dŭstí","en":"Dŭstí"}},{"name":"Farkhor","state_code":"KT","latitude":"37.49219000","longitude":"69.40356000","population":21736,"timezone":"Asia/Dushanbe","type":"adm2","translations":{"es":"Farjor","en":"Farkhor"}},{"name":"Gharavŭtí","state_code":"KT","latitude":"37.56703000","longitude":"68.44668000","population":8474,"timezone":"Asia/Dushanbe","type":"city","translations":{"es":"Gharavŭtí","en":"Gharavŭtí"}},{"name":"Jilikŭl","state_code":"KT","latitude":"37.49167000","longitude":"68.53106000","population":5434,"timezone":"Asia/Dushanbe","type":"adm2","translations":{"es":"Jilikŭl","en":"Jilikŭl"}},{"name":"Kirov","state_code":"KT","latitude":"37.81908000","longitude":"68.85905000","population":7696,"timezone":"Asia/Dushanbe","type":"city","translations":{"es":"Kírov","en":"Kirov"}},{"name":"Kolkhozobod","state_code":"KT","latitude":"37.58823000","longitude":"68.65886000","population":18476,"timezone":"Asia/Dushanbe","type":"adm2","translations":{"es":"Koljozobod","en":"Kolkhozobod"}},{"name":"Kŭlob","state_code":"KT","latitude":"37.91459000","longitude":"69.78454000","population":214700,"timezone":"Asia/Dushanbe","type":"adm2","translations":{"es":"Kŭlob","en":"Kŭlob"}},{"name":"Moskovskiy","state_code":"KT","latitude":"37.60931000","longitude":"68.58094000","population":22100,"timezone":"Asia/Dushanbe","type":"city","translations":{"es":"Moskovskiy","en":"Moskovskiy"}},{"name":"Mŭ’minobod","state_code":"KT","latitude":"38.10714000","longitude":"70.03213000","population":11955,"timezone":"Asia/Dushanbe","type":"adm2","translations":{"es":"Mŭ’minobod","en":"Mŭ’minobod"}},{"name":"Nohiyai Kolkhozobod","state_code":"KT","latitude":"37.57277000","longitude":"68.81528000","population":null,"timezone":"Asia/Dushanbe","type":"city","translations":{"es":"Nohiyai Kolkhozobod","en":"Nohiyai Kolkhozobod"}},{"name":"Nohiyai Panj","state_code":"KT","latitude":"37.31611000","longitude":"69.16679000","population":null,"timezone":"Asia/Dushanbe","type":"city","translations":{"es":"Nohiyai Panj","en":"Nohiyai Panj"}},{"name":"Nohiyai Vakhsh","state_code":"KT","latitude":"37.75602000","longitude":"68.94138000","population":null,"timezone":"Asia/Dushanbe","type":"city","translations":{"es":"Nohiyai Vakhsh","en":"Nohiyai Vakhsh"}},{"name":"Norak","state_code":"KT","latitude":"38.38917000","longitude":"69.32272000","population":18950,"timezone":"Asia/Dushanbe","type":"adm2","translations":{"es":"Norak","en":"Norak"}},{"name":"Orzu","state_code":"KT","latitude":"37.55820000","longitude":"68.81952000","population":5988,"timezone":"Asia/Dushanbe","type":"city","translations":{"es":"Orzu","en":"Orzu"}},{"name":"Panj","state_code":"KT","latitude":"37.23634000","longitude":"69.09911000","population":8019,"timezone":"Asia/Dushanbe","type":"adm2","translations":{"es":"Panj","en":"Panj"}},{"name":"Qŭrghonteppa","state_code":"KT","latitude":"37.83399000","longitude":"68.78186000","population":null,"timezone":"Asia/Dushanbe","type":"adm1","translations":{"es":"Qŭrghonteppa","en":"Qŭrghonteppa"}},{"name":"Shahritus","state_code":"KT","latitude":"37.26206000","longitude":"68.13849000","population":13042,"timezone":"Asia/Dushanbe","type":"adm2","translations":{"es":"Shahritus","en":"Shahritus"}},{"name":"Sovet","state_code":"KT","latitude":"38.04670000","longitude":"69.58822000","population":8695,"timezone":"Asia/Dushanbe","type":"adm2","translations":{"es":"Sovet","en":"Sovet"}},{"name":"Tartiki","state_code":"KT","latitude":"37.58221000","longitude":"68.13347000","population":2342,"timezone":"Asia/Dushanbe","type":"city","translations":{"es":"Tartiki","en":"Tartiki"}},{"name":"Vakhsh","state_code":"KT","latitude":"37.71485000","longitude":"68.83456000","population":15215,"timezone":"Asia/Dushanbe","type":"adm2","translations":{"es":"Vakhsh","en":"Vakhsh"}},{"name":"Vose’","state_code":"KT","latitude":"37.80396000","longitude":"69.64417000","population":null,"timezone":"Asia/Dushanbe","type":"adm2","translations":{"es":"Vose’","en":"Vose’"}},{"name":"Yovon","state_code":"KT","latitude":"38.31408000","longitude":"69.03784000","population":17471,"timezone":"Asia/Dushanbe","type":"adm2","translations":{"es":"Yovon","en":"Yovon"}},{"name":"Darband","state_code":"RA","latitude":"38.86776000","longitude":"69.96642000","population":1115,"timezone":"Asia/Dushanbe","type":"adm2","translations":{"es":"Darband","en":"Darband"}},{"name":"Hisor","state_code":"RA","latitude":"38.52504000","longitude":"68.55124000","population":23978,"timezone":"Asia/Dushanbe","type":"adm2","translations":{"es":"Hisor","en":"Hisor"}},{"name":"Karakenja","state_code":"RA","latitude":"39.23585000","longitude":"71.52412000","population":2899,"timezone":"Asia/Dushanbe","type":"city","translations":{"es":"Karakenja","en":"Karakenja"}},{"name":"Khodzha-Maston","state_code":"RA","latitude":"38.74457000","longitude":"68.62702000","population":9781,"timezone":"Asia/Dushanbe","type":"city","translations":{"es":"Khodzha-Maston","en":"Khodzha-Maston"}},{"name":"Novobod","state_code":"RA","latitude":"39.01084000","longitude":"70.15082000","population":5352,"timezone":"Asia/Dushanbe","type":"city","translations":{"es":"Novobod","en":"Novobod"}},{"name":"Obigarm","state_code":"RA","latitude":"38.71731000","longitude":"69.70885000","population":6500,"timezone":"Asia/Dushanbe","type":"city","translations":{"es":"Obigarm","en":"Obigarm"}},{"name":"Rasht","state_code":"RA","latitude":"39.02871000","longitude":"70.37446000","population":10771,"timezone":"Asia/Dushanbe","type":"adm2","translations":{"es":"Rasht","en":"Rasht"}},{"name":"Roghun","state_code":"RA","latitude":"38.69331000","longitude":"69.73692000","population":0,"timezone":"Asia/Dushanbe","type":"adm2","translations":{"es":"Roghun","en":"Roghun"}},{"name":"Shahrinav","state_code":"RA","latitude":"38.57085000","longitude":"68.33498000","population":5385,"timezone":"Asia/Dushanbe","type":"adm2","translations":{"es":"Shahrinav","en":"Shahrinav"}},{"name":"Tagob","state_code":"RA","latitude":"38.83827000","longitude":"68.89847000","population":2565,"timezone":"Asia/Dushanbe","type":"city","translations":{"es":"Tagob","en":"Tagob"}},{"name":"Tursunzoda","state_code":"RA","latitude":"38.51271000","longitude":"68.23163000","population":37000,"timezone":"Asia/Dushanbe","type":"adm2","translations":{"es":"Tursunzoda","en":"Tursunzoda"}},{"name":"Vahdat","state_code":"RA","latitude":"38.55632000","longitude":"69.01354000","population":42800,"timezone":"Asia/Dushanbe","type":"adm2","translations":{"es":"Vahdat","en":"Vahdat"}},{"name":"Vahdat District","state_code":"RA","latitude":"38.83333000","longitude":"69.33333000","population":324000,"timezone":"Asia/Dushanbe","type":"district","translations":{"es":"Distrito de Vahdat","en":"Vahdat District"}},{"name":"Varzob","state_code":"RA","latitude":"38.77369000","longitude":"68.81776000","population":2154,"timezone":"Asia/Dushanbe","type":"city","translations":{"es":"Varzob","en":"Varzob"}},{"name":"Varzob District","state_code":"RA","latitude":"38.75000000","longitude":"68.75000000","population":82200,"timezone":"Asia/Dushanbe","type":"district","translations":{"es":"Distrito de Varzob","en":"Varzob District"}},{"name":"Adrasmon","state_code":"SU","latitude":"40.64928000","longitude":"69.98472000","population":13372,"timezone":"Asia/Dushanbe","type":"city","translations":{"es":"Adrasmón","en":"Adrasmon"}},{"name":"Ayní","state_code":"SU","latitude":"39.39406000","longitude":"68.53766000","population":2128,"timezone":"Asia/Dushanbe","type":"adm2","translations":{"es":"Ayní","en":"Ayní"}},{"name":"Bŭston","state_code":"SU","latitude":"40.52286000","longitude":"69.33307000","population":13043,"timezone":"Asia/Dushanbe","type":"adm2","translations":{"es":"Bŭston","en":"Bŭston"}},{"name":"Chkalov","state_code":"SU","latitude":"40.23417000","longitude":"69.69481000","population":null,"timezone":"Asia/Dushanbe","type":"city","translations":{"es":"Chkálov","en":"Chkalov"}},{"name":"Ghafurov","state_code":"SU","latitude":"40.21571000","longitude":"69.72867000","population":0,"timezone":"Asia/Dushanbe","type":"adm2","translations":{"es":"Ghafurov","en":"Ghafurov"}},{"name":"Isfara","state_code":"SU","latitude":"40.12649000","longitude":"70.62526000","population":274000,"timezone":"Asia/Dushanbe","type":"adm2","translations":{"es":"Isfara","en":"Isfara"}},{"name":"Istaravshan","state_code":"SU","latitude":"39.91420000","longitude":"69.00328000","population":273500,"timezone":"Asia/Dushanbe","type":"adm2","translations":{"es":"Istaravshan","en":"Istaravshan"}},{"name":"Khŭjand","state_code":"SU","latitude":"40.28256000","longitude":"69.62216000","population":198700,"timezone":"Asia/Dushanbe","type":"adm1","translations":{"es":"Khujand","en":"Khŭjand"}},{"name":"Kim","state_code":"SU","latitude":"40.20798000","longitude":"70.46882000","population":1500,"timezone":"Asia/Dushanbe","type":"city","translations":{"es":"Kim","en":"Kim"}},{"name":"Konibodom","state_code":"SU","latitude":"40.29414000","longitude":"70.43122000","population":211100,"timezone":"Asia/Dushanbe","type":"adm2","translations":{"es":"Konibodom","en":"Konibodom"}},{"name":"Konsoy","state_code":"SU","latitude":"40.49155000","longitude":"69.70245000","population":6000,"timezone":"Asia/Dushanbe","type":"city","translations":{"es":"Konsoy","en":"Konsoy"}},{"name":"Neftobod","state_code":"SU","latitude":"40.21524000","longitude":"70.57193000","population":4603,"timezone":"Asia/Dushanbe","type":"city","translations":{"es":"Neftobod","en":"Neftobod"}},{"name":"Nohiyai Konibodom","state_code":"SU","latitude":"40.26877000","longitude":"70.33057000","population":null,"timezone":"Asia/Dushanbe","type":"city","translations":{"es":"Nohiyai Konibodom","en":"Nohiyai Konibodom"}},{"name":"Nov","state_code":"SU","latitude":"40.15220000","longitude":"69.37076000","population":13833,"timezone":"Asia/Dushanbe","type":"adm2","translations":{"es":"Nov","en":"Nov"}},{"name":"Oltintopkan","state_code":"SU","latitude":"40.65425000","longitude":"69.59811000","population":4823,"timezone":"Asia/Dushanbe","type":"city","translations":{"es":"Oltintopkan","en":"Oltintopkan"}},{"name":"Pakhtakoron","state_code":"SU","latitude":"40.15709000","longitude":"68.74659000","population":8220,"timezone":"Asia/Dushanbe","type":"city","translations":{"es":"Pakhtakoron","en":"Pakhtakoron"}},{"name":"Palos","state_code":"SU","latitude":"40.31628000","longitude":"69.73743000","population":3288,"timezone":"Asia/Dushanbe","type":"city","translations":{"es":"Palos","en":"Palos"}},{"name":"Panjakent","state_code":"SU","latitude":"39.49524000","longitude":"67.60931000","population":43800,"timezone":"Asia/Dushanbe","type":"adm2","translations":{"es":"Panjakent","en":"Panjakent"}},{"name":"Proletar","state_code":"SU","latitude":"40.16713000","longitude":"69.50163000","population":16441,"timezone":"Asia/Dushanbe","type":"adm2","translations":{"es":"Proletario","en":"Proletar"}},{"name":"Quruqsoy","state_code":"SU","latitude":"40.57648000","longitude":"69.37962000","population":3400,"timezone":"Asia/Dushanbe","type":"city","translations":{"es":"Quruqsoy","en":"Quruqsoy"}},{"name":"Shaydon","state_code":"SU","latitude":"40.66992000","longitude":"70.35020000","population":11705,"timezone":"Asia/Dushanbe","type":"adm2","translations":{"es":"Shaydon","en":"Shaydon"}},{"name":"Shŭrob","state_code":"SU","latitude":"40.04605000","longitude":"70.54117000","population":2900,"timezone":"Asia/Dushanbe","type":"city","translations":{"es":"Shŭrob","en":"Shŭrob"}},{"name":"Taboshar","state_code":"SU","latitude":"40.57017000","longitude":"69.64175000","population":17600,"timezone":"Asia/Dushanbe","type":"city","translations":{"es":"Taboshar","en":"Taboshar"}},{"name":"Vorukh","state_code":"SU","latitude":"39.85125000","longitude":"70.58012000","population":3836,"timezone":"Asia/Dushanbe","type":"city","translations":{"es":"Vorukh","en":"Vorukh"}}]