[{"name":"Ariana","state_code":"12","latitude":"36.86012000","longitude":"10.19337000","population":114486,"timezone":"Africa/Tunis","type":"adm1","translations":{"es":"Ariana","en":"Ariana"}},{"name":"Ettadhamen-Mnihla","state_code":"12","latitude":"36.86250000","longitude":"10.17030000","population":null,"timezone":"Africa/Tunis","type":"adm1","translations":{"es":"Ettadhamen-Mnihla","en":"Ettadhamen-Mnihla"}},{"name":"Kalaat el-Andalous","state_code":"12","latitude":"36.88110000","longitude":"10.26220000","population":18211,"timezone":"Africa/Tunis","type":"city","translations":{"es":"Kalaat el-Andalous","en":"Kalaat el-Andalous"}},{"name":"La Soukra","state_code":"12","latitude":"36.85350000","longitude":"10.25250000","population":129693,"timezone":"Africa/Tunis","type":"city","translations":{"es":"La Soukra","en":"La Soukra"}},{"name":"Mnihla","state_code":"12","latitude":"36.83690000","longitude":"10.20020000","population":0,"timezone":"Africa/Tunis","type":"adm1","translations":{"es":"Mnihla","en":"Mnihla"}},{"name":"Raoued","state_code":"12","latitude":"36.88500000","longitude":"10.24650000","population":0,"timezone":"Africa/Tunis","type":"city","translations":{"es":"Raoued","en":"Raoued"}},{"name":"Sidi Thabet","state_code":"12","latitude":"36.83990000","longitude":"10.04030000","population":11351,"timezone":"Africa/Tunis","type":"city","translations":{"es":"Sidi Thabet","en":"Sidi Thabet"}},{"name":"Amdoun","state_code":"31","latitude":"36.74420000","longitude":"9.05130000","population":null,"timezone":"Africa/Tunis","type":"city","translations":{"es":"Amdoun","en":"Amdoun"}},{"name":"Béja","state_code":"31","latitude":"36.72564000","longitude":"9.18169000","population":61568,"timezone":"Africa/Tunis","type":"adm1","translations":{"es":"Béja","en":"Béja"}},{"name":"Goubellat","state_code":"31","latitude":"36.59560000","longitude":"9.20780000","population":4128,"timezone":"Africa/Tunis","type":"city","translations":{"es":"Goubellat","en":"Goubellat"}},{"name":"Medjez el Bab","state_code":"31","latitude":"36.70640000","longitude":"9.61060000","population":22287,"timezone":"Africa/Tunis","type":"city","translations":{"es":"Medjez el Bab","en":"Medjez el Bab"}},{"name":"Nefza","state_code":"31","latitude":"36.60490000","longitude":"8.97020000","population":null,"timezone":"Africa/Tunis","type":"city","translations":{"es":"Nefza","en":"Nefza"}},{"name":"Tabursuq","state_code":"31","latitude":"36.45692000","longitude":"9.24751000","population":12727,"timezone":"Africa/Tunis","type":"city","translations":{"es":"Tabursuq","en":"Tabursuq"}},{"name":"Téboursouk","state_code":"31","latitude":"36.71040000","longitude":"9.00080000","population":12727,"timezone":"Africa/Tunis","type":"city","translations":{"es":"Téboursouk","en":"Téboursouk"}},{"name":"Testour","state_code":"31","latitude":"36.50140000","longitude":"9.66640000","population":13397,"timezone":"Africa/Tunis","type":"city","translations":{"es":"Testour","en":"Testour"}},{"name":"Thibar","state_code":"31","latitude":"36.46560000","longitude":"9.06220000","population":0,"timezone":"Africa/Tunis","type":"city","translations":{"es":"Tibar","en":"Thibar"}},{"name":"Ben Arous","state_code":"13","latitude":"36.75310000","longitude":"10.22940000","population":88322,"timezone":"Africa/Tunis","type":"adm1","translations":{"es":"Ben Arous","en":"Ben Arous"}},{"name":"Hammam Lif","state_code":"13","latitude":"36.72030000","longitude":"10.32610000","population":null,"timezone":"Africa/Tunis","type":"city","translations":{"es":"Hammam Lif","en":"Hammam Lif"}},{"name":"Mornag","state_code":"13","latitude":"36.66160000","longitude":"10.14630000","population":33421,"timezone":"Africa/Tunis","type":"city","translations":{"es":"Mornag","en":"Mornag"}},{"name":"Mornaguia","state_code":"13","latitude":"36.72140000","longitude":"10.04940000","population":19834,"timezone":"Africa/Tunis","type":"city","translations":{"es":"Mornaguia","en":"Mornaguia"}},{"name":"Radès","state_code":"13","latitude":"36.76946000","longitude":"10.27468000","population":59998,"timezone":"Africa/Tunis","type":"city","translations":{"es":"Radès","en":"Radès"}},{"name":"Al Matlīn","state_code":"23","latitude":"37.24516000","longitude":"10.05000000","population":9904,"timezone":"Africa/Tunis","type":"city","translations":{"es":"Al Matlin","en":"Al Matlīn"}},{"name":"Bizerte","state_code":"23","latitude":"37.27442000","longitude":"9.87391000","population":142966,"timezone":"Africa/Tunis","type":"adm1","translations":{"es":"Bizerta","en":"Bizerte"}},{"name":"Bizerte Sud","state_code":"23","latitude":"37.25528000","longitude":"9.67915000","population":null,"timezone":"Africa/Tunis","type":"city","translations":{"es":"Bizerta Sur","en":"Bizerte Sud"}},{"name":"Douar Tindja","state_code":"23","latitude":"37.16667000","longitude":"9.75000000","population":18551,"timezone":"Africa/Tunis","type":"city","translations":{"es":"Douar Tindja","en":"Douar Tindja"}},{"name":"El Alia","state_code":"23","latitude":"37.16911000","longitude":"10.03478000","population":18359,"timezone":"Africa/Tunis","type":"city","translations":{"es":"El Alia","en":"El Alia"}},{"name":"Mateur","state_code":"23","latitude":"37.04045000","longitude":"9.66557000","population":32492,"timezone":"Africa/Tunis","type":"city","translations":{"es":"Aficionado","en":"Mateur"}},{"name":"Menzel Abderhaman","state_code":"23","latitude":"37.23737000","longitude":"9.86313000","population":19085,"timezone":"Africa/Tunis","type":"city","translations":{"es":"Menzel Abderhaman","en":"Menzel Abderhaman"}},{"name":"Menzel Bourguiba","state_code":"23","latitude":"37.15368000","longitude":"9.78594000","population":54536,"timezone":"Africa/Tunis","type":"city","translations":{"es":"Menzel Bourguiba","en":"Menzel Bourguiba"}},{"name":"Menzel Jemil","state_code":"23","latitude":"37.23618000","longitude":"9.91448000","population":22231,"timezone":"Africa/Tunis","type":"city","translations":{"es":"Menzel Jemil","en":"Menzel Jemil"}},{"name":"Rafrāf","state_code":"23","latitude":"37.19043000","longitude":"10.18365000","population":9850,"timezone":"Africa/Tunis","type":"city","translations":{"es":"Rafrāf","en":"Rafrāf"}},{"name":"Rhar el Melah","state_code":"23","latitude":"37.16939000","longitude":"10.19064000","population":10530,"timezone":"Africa/Tunis","type":"city","translations":{"es":"Rhar el Melah","en":"Rhar el Melah"}},{"name":"Sejenane","state_code":"23","latitude":"37.05722000","longitude":"9.23806000","population":5718,"timezone":"Africa/Tunis","type":"city","translations":{"es":"Sejenane","en":"Sejenane"}},{"name":"Zahānah","state_code":"23","latitude":"37.03959000","longitude":"10.03876000","population":3765,"timezone":"Africa/Tunis","type":"city","translations":{"es":"Zahānah","en":"Zahānah"}},{"name":"Bou Attouche","state_code":"81","latitude":"33.89927000","longitude":"9.78496000","population":2700,"timezone":"Africa/Tunis","type":"city","translations":{"es":"Bou Attouche","en":"Bou Attouche"}},{"name":"El Hamma","state_code":"81","latitude":"33.89152000","longitude":"9.79629000","population":73512,"timezone":"Africa/Tunis","type":"city","translations":{"es":"El Hamma","en":"El Hamma"}},{"name":"Gabès","state_code":"81","latitude":"33.88146000","longitude":"10.09820000","population":116323,"timezone":"Africa/Tunis","type":"adm1","translations":{"es":"Gabés","en":"Gabès"}},{"name":"Matmata","state_code":"81","latitude":"33.54445000","longitude":"9.97157000","population":2406,"timezone":"Africa/Tunis","type":"city","translations":{"es":"Matmata","en":"Matmata"}},{"name":"Ar Rudayyif","state_code":"71","latitude":"34.38270000","longitude":"8.15549000","population":26976,"timezone":"Africa/Tunis","type":"city","translations":{"es":"Ar Rudayyif","en":"Ar Rudayyif"}},{"name":"As Sanad","state_code":"71","latitude":"34.46280000","longitude":"9.26404000","population":9533,"timezone":"Africa/Tunis","type":"city","translations":{"es":"Como Sanad","en":"As Sanad"}},{"name":"Gafsa","state_code":"71","latitude":"34.42500000","longitude":"8.78417000","population":95242,"timezone":"Africa/Tunis","type":"adm1","translations":{"es":"Gafsa","en":"Gafsa"}},{"name":"Metlaoui","state_code":"71","latitude":"34.32081000","longitude":"8.40157000","population":38634,"timezone":"Africa/Tunis","type":"city","translations":{"es":"Metlaoui","en":"Metlaoui"}},{"name":"Mu‘tamadīyat ar Rudayyif","state_code":"71","latitude":"34.40081000","longitude":"8.17057000","population":null,"timezone":"Africa/Tunis","type":"city","translations":{"es":"Mu‘tamadīyat ar Rudayyif","en":"Mu‘tamadīyat ar Rudayyif"}},{"name":"Fernana","state_code":"32","latitude":"36.65547000","longitude":"8.69602000","population":4681,"timezone":"Africa/Tunis","type":"city","translations":{"es":"Fernana","en":"Fernana"}},{"name":"Jendouba","state_code":"32","latitude":"36.48519000","longitude":"8.82325000","population":null,"timezone":"Africa/Tunis","type":"city","translations":{"es":"Jendouba","en":"Jendouba"}},{"name":"Oued Meliz","state_code":"32","latitude":"36.46813000","longitude":"8.54951000","population":null,"timezone":"Africa/Tunis","type":"city","translations":{"es":"Oued Meliz","en":"Oued Meliz"}},{"name":"Tabarka","state_code":"32","latitude":"36.95442000","longitude":"8.75801000","population":19770,"timezone":"Africa/Tunis","type":"city","translations":{"es":"Tabarka","en":"Tabarka"}},{"name":"Haffouz","state_code":"41","latitude":"35.63235000","longitude":"9.67624000","population":8472,"timezone":"Africa/Tunis","type":"city","translations":{"es":"Haffouz","en":"Haffouz"}},{"name":"Kairouan","state_code":"41","latitude":"35.67810000","longitude":"10.09633000","population":139070,"timezone":"Africa/Tunis","type":"adm1","translations":{"es":"Kairuán","en":"Kairouan"}},{"name":"Sbikha","state_code":"41","latitude":"35.93325000","longitude":"10.02081000","population":8036,"timezone":"Africa/Tunis","type":"city","translations":{"es":"Sbikha","en":"Sbikha"}},{"name":"Kasserine","state_code":"42","latitude":"35.16758000","longitude":"8.83651000","population":84365,"timezone":"Africa/Tunis","type":"adm1","translations":{"es":"Kasserine","en":"Kasserine"}},{"name":"Rohia","state_code":"42","latitude":"35.65129000","longitude":"9.05306000","population":4231,"timezone":"Africa/Tunis","type":"city","translations":{"es":"Rohia","en":"Rohia"}},{"name":"Sbiba","state_code":"42","latitude":"35.54332000","longitude":"9.07370000","population":6504,"timezone":"Africa/Tunis","type":"city","translations":{"es":"Sbiba","en":"Sbiba"}},{"name":"Thala","state_code":"42","latitude":"35.57244000","longitude":"8.67031000","population":18230,"timezone":"Africa/Tunis","type":"city","translations":{"es":"Thala","en":"Thala"}},{"name":"Douz","state_code":"73","latitude":"33.46632000","longitude":"9.02030000","population":30245,"timezone":"Africa/Tunis","type":"city","translations":{"es":"Douz","en":"Douz"}},{"name":"El Golaa","state_code":"73","latitude":"33.48485000","longitude":"9.00678000","population":7912,"timezone":"Africa/Tunis","type":"city","translations":{"es":"El Golaa","en":"El Golaa"}},{"name":"Jemna","state_code":"73","latitude":"33.57778000","longitude":"9.01472000","population":7209,"timezone":"Africa/Tunis","type":"city","translations":{"es":"Jemna","en":"Jemna"}},{"name":"Kebili","state_code":"73","latitude":"33.70439000","longitude":"8.96903000","population":26310,"timezone":"Africa/Tunis","type":"adm1","translations":{"es":"Kebili","en":"Kebili"}},{"name":"As Sars","state_code":"33","latitude":"36.07640000","longitude":"9.02117000","population":12137,"timezone":"Africa/Tunis","type":"city","translations":{"es":"Como el Sars","en":"As Sars"}},{"name":"El Kef","state_code":"33","latitude":"36.17424000","longitude":"8.70486000","population":53596,"timezone":"Africa/Tunis","type":"adm1","translations":{"es":"El Kef","en":"El Kef"}},{"name":"El Ksour","state_code":"33","latitude":"35.89607000","longitude":"8.88493000","population":5576,"timezone":"Africa/Tunis","type":"city","translations":{"es":"El Ksour","en":"El Ksour"}},{"name":"Menzel Salem","state_code":"33","latitude":"35.85673000","longitude":"8.47654000","population":2856,"timezone":"Africa/Tunis","type":"city","translations":{"es":"Menzel Salem","en":"Menzel Salem"}},{"name":"Nibbar","state_code":"33","latitude":"36.29411000","longitude":"8.76657000","population":3557,"timezone":"Africa/Tunis","type":"city","translations":{"es":"Nibbar","en":"Nibbar"}},{"name":"Sakiet Sidi Youssef","state_code":"33","latitude":"36.22292000","longitude":"8.35547000","population":6442,"timezone":"Africa/Tunis","type":"city","translations":{"es":"Sakiet Sidi Youssef","en":"Sakiet Sidi Youssef"}},{"name":"Tajerouine","state_code":"33","latitude":"35.89174000","longitude":"8.55276000","population":19362,"timezone":"Africa/Tunis","type":"city","translations":{"es":"Tajerouine","en":"Tajerouine"}},{"name":"Chebba","state_code":"53","latitude":"35.23722000","longitude":"11.11500000","population":22227,"timezone":"Africa/Tunis","type":"city","translations":{"es":"Chebba","en":"Chebba"}},{"name":"Chorbane","state_code":"53","latitude":"35.28581000","longitude":"10.38580000","population":5710,"timezone":"Africa/Tunis","type":"city","translations":{"es":"Chorbane","en":"Chorbane"}},{"name":"El Jem","state_code":"53","latitude":"35.30000000","longitude":"10.71667000","population":21544,"timezone":"Africa/Tunis","type":"city","translations":{"es":"El Jem","en":"El Jem"}},{"name":"Ksour Essaf","state_code":"53","latitude":"35.41808000","longitude":"10.99475000","population":36274,"timezone":"Africa/Tunis","type":"city","translations":{"es":"Ksour Essaf","en":"Ksour Essaf"}},{"name":"Mahdia","state_code":"53","latitude":"35.50472000","longitude":"11.06222000","population":51803,"timezone":"Africa/Tunis","type":"adm1","translations":{"es":"Mahdia","en":"Mahdia"}},{"name":"Melloulèche","state_code":"53","latitude":"35.16617000","longitude":"11.03504000","population":6948,"timezone":"Africa/Tunis","type":"city","translations":{"es":"Melloulèche","en":"Melloulèche"}},{"name":"Salakta","state_code":"53","latitude":"35.39444000","longitude":"11.04361000","population":3477,"timezone":"Africa/Tunis","type":"city","translations":{"es":"Salakta","en":"Salakta"}},{"name":"Sidi Alouane","state_code":"53","latitude":"35.37505000","longitude":"10.93899000","population":7610,"timezone":"Africa/Tunis","type":"city","translations":{"es":"Sidi Alouane","en":"Sidi Alouane"}},{"name":"Zouila","state_code":"53","latitude":"35.50056000","longitude":"11.06056000","population":44349,"timezone":"Africa/Tunis","type":"section","translations":{"es":"Zouila","en":"Zouila"}},{"name":"El Battan","state_code":"14","latitude":"36.80368000","longitude":"9.84424000","population":6458,"timezone":"Africa/Tunis","type":"city","translations":{"es":"El Batán","en":"El Battan"}},{"name":"Manouba","state_code":"14","latitude":"36.81006000","longitude":"10.09557000","population":32005,"timezone":"Africa/Tunis","type":"adm1","translations":{"es":"Manouba","en":"Manouba"}},{"name":"Mu‘tamadīyat Manūbah","state_code":"14","latitude":"36.80907000","longitude":"10.09467000","population":32005,"timezone":"Africa/Tunis","type":"adm1","translations":{"es":"Mu‘tamadīyat Manūbah","en":"Mu‘tamadīyat Manūbah"}},{"name":"Oued Lill","state_code":"14","latitude":"36.83408000","longitude":"10.04057000","population":57851,"timezone":"Africa/Tunis","type":"city","translations":{"es":"Río Lill","en":"Oued Lill"}},{"name":"Ben Gardane","state_code":"82","latitude":"33.13783000","longitude":"11.21965000","population":66567,"timezone":"Africa/Tunis","type":"city","translations":{"es":"Ben Gardane","en":"Ben Gardane"}},{"name":"Beni Kheddache","state_code":"82","latitude":"33.25279000","longitude":"10.19883000","population":3588,"timezone":"Africa/Tunis","type":"city","translations":{"es":"Beni Kheddache","en":"Beni Kheddache"}},{"name":"Erriadh","state_code":"82","latitude":"33.82063000","longitude":"10.85394000","population":14426,"timezone":"Africa/Tunis","type":"city","translations":{"es":"Erriadh","en":"Erriadh"}},{"name":"Houmt El Souk","state_code":"82","latitude":"33.87576000","longitude":"10.85745000","population":75904,"timezone":"Africa/Tunis","type":"city","translations":{"es":"Houmt El Souk","en":"Houmt El Souk"}},{"name":"Jerba Midoun","state_code":"82","latitude":"33.77918000","longitude":"10.95215000","population":null,"timezone":"Africa/Tunis","type":"city","translations":{"es":"Jerba Midoun","en":"Jerba Midoun"}},{"name":"Medenine","state_code":"82","latitude":"33.35495000","longitude":"10.50548000","population":71406,"timezone":"Africa/Tunis","type":"adm1","translations":{"es":"Medenine","en":"Medenine"}},{"name":"Midoun","state_code":"82","latitude":"33.80813000","longitude":"10.99228000","population":32000,"timezone":"Africa/Tunis","type":"adm2","translations":{"es":"Midoun","en":"Midoun"}},{"name":"Zarzis","state_code":"82","latitude":"33.50398000","longitude":"11.11215000","population":80000,"timezone":"Africa/Tunis","type":"city","translations":{"es":"Zarzis","en":"Zarzis"}},{"name":"Banbalah","state_code":"52","latitude":"35.70000000","longitude":"10.80000000","population":12367,"timezone":"Africa/Tunis","type":"city","translations":{"es":"Banbalah","en":"Banbalah"}},{"name":"Bekalta","state_code":"52","latitude":"35.61739000","longitude":"10.99466000","population":17850,"timezone":"Africa/Tunis","type":"city","translations":{"es":"Bekalta","en":"Bekalta"}},{"name":"Beni Hassane","state_code":"52","latitude":"35.56720000","longitude":"10.80869000","population":8801,"timezone":"Africa/Tunis","type":"city","translations":{"es":"Beni Hassane","en":"Beni Hassane"}},{"name":"Djemmal","state_code":"52","latitude":"35.62231000","longitude":"10.75696000","population":50275,"timezone":"Africa/Tunis","type":"city","translations":{"es":"Djemmal","en":"Djemmal"}},{"name":"Ksar Hellal","state_code":"52","latitude":"35.64773000","longitude":"10.89046000","population":49376,"timezone":"Africa/Tunis","type":"city","translations":{"es":"Ksar Hellal","en":"Ksar Hellal"}},{"name":"Ksibet el Mediouni","state_code":"52","latitude":"35.68561000","longitude":"10.84256000","population":13122,"timezone":"Africa/Tunis","type":"city","translations":{"es":"Ksibet el Mediouni","en":"Ksibet el Mediouni"}},{"name":"Lemta","state_code":"52","latitude":"35.66667000","longitude":"10.88333000","population":5790,"timezone":"Africa/Tunis","type":"city","translations":{"es":"Lemta","en":"Lemta"}},{"name":"Menzel Kamel","state_code":"52","latitude":"35.62477000","longitude":"10.66727000","population":8432,"timezone":"Africa/Tunis","type":"city","translations":{"es":"Menzel Kamel","en":"Menzel Kamel"}},{"name":"Mesdour","state_code":"52","latitude":"35.68206000","longitude":"10.72746000","population":4705,"timezone":"Africa/Tunis","type":"city","translations":{"es":"Mesdour","en":"Mesdour"}},{"name":"Monastir","state_code":"52","latitude":"35.77799000","longitude":"10.82617000","population":93306,"timezone":"Africa/Tunis","type":"adm1","translations":{"es":"Monastir","en":"Monastir"}},{"name":"Ouardenine","state_code":"52","latitude":"35.70915000","longitude":"10.67397000","population":18287,"timezone":"Africa/Tunis","type":"city","translations":{"es":"Ouardenina","en":"Ouardenine"}},{"name":"Sahline","state_code":"52","latitude":"35.75166000","longitude":"10.71109000","population":13806,"timezone":"Africa/Tunis","type":"city","translations":{"es":"Sahline","en":"Sahline"}},{"name":"Seïada","state_code":"52","latitude":"35.66887000","longitude":"10.89246000","population":12962,"timezone":"Africa/Tunis","type":"city","translations":{"es":"Seïada","en":"Seïada"}},{"name":"Sidi Ben Nour","state_code":"52","latitude":"35.53333000","longitude":"10.91667000","population":4520,"timezone":"Africa/Tunis","type":"city","translations":{"es":"Sidi Ben Nour","en":"Sidi Ben Nour"}},{"name":"Skanes","state_code":"52","latitude":"35.78333000","longitude":"10.80000000","population":64222,"timezone":"Africa/Tunis","type":"city","translations":{"es":"Skanes","en":"Skanes"}},{"name":"Touza","state_code":"52","latitude":"35.63544000","longitude":"10.82732000","population":7236,"timezone":"Africa/Tunis","type":"city","translations":{"es":"Touza","en":"Touza"}},{"name":"Azmour","state_code":"21","latitude":"36.92440000","longitude":"11.00690000","population":5057,"timezone":"Africa/Tunis","type":"city","translations":{"es":"Azmour","en":"Azmour"}},{"name":"Beni Khalled","state_code":"21","latitude":"36.65038000","longitude":"10.59004000","population":15439,"timezone":"Africa/Tunis","type":"city","translations":{"es":"Beni Khalled","en":"Beni Khalled"}},{"name":"Béni Khiar","state_code":"21","latitude":"36.46666667","longitude":"10.78333333","population":21624,"timezone":"Africa/Tunis","type":"city","translations":{"es":"Beni Khiar","en":"Béni Khiar"}},{"name":"Bou Argoub","state_code":"21","latitude":"36.53853000","longitude":"10.55093000","population":12312,"timezone":"Africa/Tunis","type":"city","translations":{"es":"Bou Argoub","en":"Bou Argoub"}},{"name":"Dar Chaabane","state_code":"21","latitude":"36.47000000","longitude":"10.75000000","population":42140,"timezone":"Africa/Tunis","type":"city","translations":{"es":"Dar Chaabane","en":"Dar Chaabane"}},{"name":"El Haouaria","state_code":"21","latitude":"37.05000000","longitude":"11.01111111","population":9508,"timezone":"Africa/Tunis","type":"city","translations":{"es":"El Haouaria","en":"El Haouaria"}},{"name":"El Maâmoura","state_code":"21","latitude":"36.46666667","longitude":"10.80000000","population":8039,"timezone":"Africa/Tunis","type":"city","translations":{"es":"El Maamoura","en":"El Maâmoura"}},{"name":"El Mida","state_code":"21","latitude":"36.73333333","longitude":"10.85000000","population":4176,"timezone":"Africa/Tunis","type":"city","translations":{"es":"El Mida","en":"El Mida"}},{"name":"El Mrezga","state_code":"21","latitude":"36.42163000","longitude":"10.66411000","population":null,"timezone":"Africa/Tunis","type":"city","translations":{"es":"El Mrezga","en":"El Mrezga"}},{"name":"Grombalia","state_code":"21","latitude":"36.61000000","longitude":"10.50000000","population":23881,"timezone":"Africa/Tunis","type":"city","translations":{"es":"Grombalia","en":"Grombalia"}},{"name":"Hammamet","state_code":"21","latitude":"36.41666667","longitude":"10.60000000","population":97579,"timezone":"Africa/Tunis","type":"city","translations":{"es":"Hammamet","en":"Hammamet"}},{"name":"Kelibia","state_code":"21","latitude":"36.84750000","longitude":"11.09388889","population":58524,"timezone":"Africa/Tunis","type":"city","translations":{"es":"Kélibia","en":"Kelibia"}},{"name":"Korba","state_code":"21","latitude":"36.56666667","longitude":"10.86666667","population":38902,"timezone":"Africa/Tunis","type":"city","translations":{"es":"Korba","en":"Korba"}},{"name":"Korbous","state_code":"21","latitude":"36.81638889","longitude":"10.56861111","population":3581,"timezone":"Africa/Tunis","type":"city","translations":{"es":"Korbous","en":"Korbous"}},{"name":"Menzel Bouzelfa","state_code":"21","latitude":"36.68170000","longitude":"10.58470000","population":18551,"timezone":"Africa/Tunis","type":"city","translations":{"es":"Menzel Bouzelfa","en":"Menzel Bouzelfa"}},{"name":"Menzel Horr","state_code":"21","latitude":"36.73333333","longitude":"10.95000000","population":5473,"timezone":"Africa/Tunis","type":"city","translations":{"es":"Menzel Horr","en":"Menzel Horr"}},{"name":"Menzel Temime","state_code":"21","latitude":"36.78333333","longitude":"10.98333333","population":38908,"timezone":"Africa/Tunis","type":"city","translations":{"es":"Menzel Temime","en":"Menzel Temime"}},{"name":"Nabeul","state_code":"21","latitude":"36.45138900","longitude":"10.73611100","population":70437,"timezone":"Africa/Tunis","type":"adm1","translations":{"es":"Nabeul","en":"Nabeul"}},{"name":"Soliman","state_code":"21","latitude":"36.69512600","longitude":"10.49125700","population":44672,"timezone":"Africa/Tunis","type":"city","translations":{"es":"Solimán","en":"Soliman"}},{"name":"Takelsa","state_code":"21","latitude":"36.79000000","longitude":"10.63000000","population":22151,"timezone":"Africa/Tunis","type":"city","translations":{"es":"Takelsa","en":"Takelsa"}},{"name":"Tazerka","state_code":"21","latitude":"36.55000000","longitude":"10.80000000","population":9388,"timezone":"Africa/Tunis","type":"city","translations":{"es":"Tazerka","en":"Tazerka"}},{"name":"Zaouiet Djedidi","state_code":"21","latitude":"36.65000000","longitude":"10.60000000","population":7886,"timezone":"Africa/Tunis","type":"city","translations":{"es":"Zaouiet Jedidi","en":"Zaouiet Djedidi"}},{"name":"Zriba","state_code":"21","latitude":"36.35585000","longitude":"10.20603400","population":11819,"timezone":"Africa/Tunis","type":"city","translations":{"es":"Zriba","en":"Zriba"}},{"name":"Agareb","state_code":"61","latitude":"34.74406000","longitude":"10.46110000","population":11513,"timezone":"Africa/Tunis","type":"city","translations":{"es":"Agareb","en":"Agareb"}},{"name":"Bir Ali Ben Khalifa","state_code":"61","latitude":"34.73592000","longitude":"10.09240000","population":4905,"timezone":"Africa/Tunis","type":"city","translations":{"es":"Bir Ali Ben Khalifa","en":"Bir Ali Ben Khalifa"}},{"name":"Djebeniana","state_code":"61","latitude":"35.03500000","longitude":"10.90809000","population":7190,"timezone":"Africa/Tunis","type":"city","translations":{"es":"Djebeniana","en":"Djebeniana"}},{"name":"Gremda","state_code":"61","latitude":"34.75000000","longitude":"10.78333000","population":40862,"timezone":"Africa/Tunis","type":"city","translations":{"es":"Gremda","en":"Gremda"}},{"name":"Sfax","state_code":"61","latitude":"34.74056000","longitude":"10.76028000","population":272801,"timezone":"Africa/Tunis","type":"adm1","translations":{"es":"Sfax","en":"Sfax"}},{"name":"Skhira","state_code":"61","latitude":"34.29920000","longitude":"10.06999000","population":11944,"timezone":"Africa/Tunis","type":"city","translations":{"es":"Skhira","en":"Skhira"}},{"name":"Bir el Hafey","state_code":"43","latitude":"34.93212000","longitude":"9.19321000","population":6498,"timezone":"Africa/Tunis","type":"city","translations":{"es":"Bir el Hafey","en":"Bir el Hafey"}},{"name":"Er Regueb","state_code":"43","latitude":"34.85932000","longitude":"9.78654000","population":11420,"timezone":"Africa/Tunis","type":"city","translations":{"es":"Er Regueb","en":"Er Regueb"}},{"name":"Jilma","state_code":"43","latitude":"35.27311000","longitude":"9.42385000","population":5887,"timezone":"Africa/Tunis","type":"city","translations":{"es":"Jilma","en":"Jilma"}},{"name":"Mezzouna","state_code":"43","latitude":"34.57758000","longitude":"9.84193000","population":7390,"timezone":"Africa/Tunis","type":"city","translations":{"es":"Mezzouna","en":"Mezzouna"}},{"name":"Sidi Bouzid","state_code":"43","latitude":"35.03823000","longitude":"9.48494000","population":47595,"timezone":"Africa/Tunis","type":"adm1","translations":{"es":"Sidi Bouzid","en":"Sidi Bouzid"}},{"name":"Bou Arada","state_code":"34","latitude":"36.35251000","longitude":"9.62175000","population":13162,"timezone":"Africa/Tunis","type":"city","translations":{"es":"Bou Arada","en":"Bou Arada"}},{"name":"Gafour","state_code":"34","latitude":"36.32045000","longitude":"9.32424000","population":10272,"timezone":"Africa/Tunis","type":"city","translations":{"es":"Gafour","en":"Gafour"}},{"name":"Kesra","state_code":"34","latitude":"35.81363000","longitude":"9.36434000","population":2602,"timezone":"Africa/Tunis","type":"city","translations":{"es":"Kesra","en":"Kesra"}},{"name":"Le Krib","state_code":"34","latitude":"36.32802000","longitude":"9.13613000","population":7841,"timezone":"Africa/Tunis","type":"city","translations":{"es":"El Krib","en":"Le Krib"}},{"name":"Maktar","state_code":"34","latitude":"35.85798000","longitude":"9.20072000","population":14500,"timezone":"Africa/Tunis","type":"city","translations":{"es":"Maktar","en":"Maktar"}},{"name":"Siliana","state_code":"34","latitude":"36.08497000","longitude":"9.37082000","population":31251,"timezone":"Africa/Tunis","type":"adm1","translations":{"es":"Siliana","en":"Siliana"}},{"name":"Akouda","state_code":"51","latitude":"35.86910000","longitude":"10.56530000","population":27200,"timezone":"Africa/Tunis","type":"city","translations":{"es":"Akouda","en":"Akouda"}},{"name":"Hammam Sousse","state_code":"51","latitude":"35.86090000","longitude":"10.60313000","population":42691,"timezone":"Africa/Tunis","type":"city","translations":{"es":"Baño turco Sousse","en":"Hammam Sousse"}},{"name":"Harqalah","state_code":"51","latitude":"36.03027000","longitude":"10.50904000","population":7423,"timezone":"Africa/Tunis","type":"city","translations":{"es":"Harqalah","en":"Harqalah"}},{"name":"Msaken","state_code":"51","latitude":"35.72917000","longitude":"10.58082000","population":72953,"timezone":"Africa/Tunis","type":"city","translations":{"es":"Msaken","en":"Msaken"}},{"name":"Port el Kantaoui","state_code":"51","latitude":"35.89239000","longitude":"10.59434000","population":6000,"timezone":"Africa/Tunis","type":"city","translations":{"es":"Puerto el Kantaoui","en":"Port el Kantaoui"}},{"name":"Sidi Bou Ali","state_code":"51","latitude":"35.95667000","longitude":"10.47306000","population":10282,"timezone":"Africa/Tunis","type":"city","translations":{"es":"Sidi Bou Ali","en":"Sidi Bou Ali"}},{"name":"Sidi el Hani","state_code":"51","latitude":"35.67139000","longitude":"10.31583000","population":2820,"timezone":"Africa/Tunis","type":"city","translations":{"es":"Sidi el Hani","en":"Sidi el Hani"}},{"name":"Sousse","state_code":"51","latitude":"35.82539000","longitude":"10.63699000","population":221530,"timezone":"Africa/Tunis","type":"adm1","translations":{"es":"Susa","en":"Sousse"}},{"name":"Remada","state_code":"83","latitude":"32.31662000","longitude":"10.39551000","population":6289,"timezone":"Africa/Tunis","type":"city","translations":{"es":"Remada","en":"Remada"}},{"name":"Tataouine","state_code":"83","latitude":"32.92967000","longitude":"10.45177000","population":66924,"timezone":"Africa/Tunis","type":"adm1","translations":{"es":"Tataouine","en":"Tataouine"}},{"name":"Chebika","state_code":"72","latitude":"34.31909000","longitude":"7.93519000","population":1820,"timezone":"Africa/Tunis","type":"city","translations":{"es":"Chebika","en":"Chebika"}},{"name":"Degache","state_code":"72","latitude":"33.97606000","longitude":"8.20810000","population":8134,"timezone":"Africa/Tunis","type":"city","translations":{"es":"Dégache","en":"Degache"}},{"name":"Nefta","state_code":"72","latitude":"33.87309000","longitude":"7.87765000","population":21720,"timezone":"Africa/Tunis","type":"city","translations":{"es":"Nefta","en":"Nefta"}},{"name":"Tamaghzah","state_code":"72","latitude":"34.38849000","longitude":"7.94313000","population":2750,"timezone":"Africa/Tunis","type":"city","translations":{"es":"Tamaghzah","en":"Tamaghzah"}},{"name":"Tozeur","state_code":"72","latitude":"33.91968000","longitude":"8.13352000","population":37365,"timezone":"Africa/Tunis","type":"adm1","translations":{"es":"Tozeur","en":"Tozeur"}},{"name":"Al Marsá","state_code":"11","latitude":"36.87818000","longitude":"10.32466000","population":92987,"timezone":"Africa/Tunis","type":"adm2","translations":{"es":"Al Marsá","en":"Al Marsá"}},{"name":"Carthage","state_code":"11","latitude":"36.85961000","longitude":"10.32978000","population":17010,"timezone":"Africa/Tunis","type":"city","translations":{"es":"Cartago","en":"Carthage"}},{"name":"La Goulette","state_code":"11","latitude":"36.81825000","longitude":"10.30520000","population":79795,"timezone":"Africa/Tunis","type":"city","translations":{"es":"La Goleta","en":"La Goulette"}},{"name":"La Mohammedia","state_code":"11","latitude":"36.67446000","longitude":"10.15633000","population":66593,"timezone":"Africa/Tunis","type":"city","translations":{"es":"La Mohammedia","en":"La Mohammedia"}},{"name":"Sidi Bou Saïd","state_code":"11","latitude":"36.86870000","longitude":"10.34174000","population":7206,"timezone":"Africa/Tunis","type":"city","translations":{"es":"Sidi Bou Said","en":"Sidi Bou Saïd"}},{"name":"Tunis","state_code":"11","latitude":"36.81897000","longitude":"10.16579000","population":602560,"timezone":"Africa/Tunis","type":"capital","translations":{"es":"Túnez","en":"Tunis"}},{"name":"El Fahs","state_code":"22","latitude":"36.37419000","longitude":"9.90651000","population":23561,"timezone":"Africa/Tunis","type":"city","translations":{"es":"El Fahs","en":"El Fahs"}},{"name":"Zaghouan","state_code":"22","latitude":"36.40291000","longitude":"10.14292000","population":20387,"timezone":"Africa/Tunis","type":"adm1","translations":{"es":"Zaghouan","en":"Zaghouan"}}]