[{"name":"Pangai","state_code":"02","latitude":"-19.81468000","longitude":"-174.35423000","population":2000,"timezone":"Pacific/Tongatapu","type":"adm1","translations":{"es":"Pangai","en":"Pangai"}},{"name":"‘Ohonua","state_code":"01","latitude":"-21.33333000","longitude":"-174.95000000","population":null,"timezone":"Pacific/Tongatapu","type":"adm1","translations":{"es":"‘Ohonua","en":"‘Ohonua"}},{"name":"Hihifo","state_code":"03","latitude":"-15.95440000","longitude":"-173.79616000","population":301,"timezone":"Pacific/Tongatapu","type":"adm1","translations":{"es":"Hihifo","en":"Hihifo"}},{"name":"Haveluloto","state_code":"04","latitude":"-21.15216000","longitude":"-175.21333000","population":3473,"timezone":"Pacific/Tongatapu","type":"city","translations":{"es":"Haveluloto","en":"Haveluloto"}},{"name":"Kolonga","state_code":"04","latitude":"-21.13333000","longitude":"-175.06667000","population":1206,"timezone":"Pacific/Tongatapu","type":"city","translations":{"es":"Kolonga","en":"Kolonga"}},{"name":"Nuku‘alofa","state_code":"04","latitude":"-21.13938000","longitude":"-175.20180000","population":22400,"timezone":"Pacific/Tongatapu","type":"capital","translations":{"es":"Nuku'alofa","en":"Nuku‘alofa"}},{"name":"Vaini","state_code":"04","latitude":"-21.19292000","longitude":"-175.17678000","population":3295,"timezone":"Pacific/Tongatapu","type":"city","translations":{"es":"Vaini","en":"Vaini"}},{"name":"Neiafu","state_code":"05","latitude":"-18.65060000","longitude":"-173.98404000","population":3825,"timezone":"Pacific/Tongatapu","type":"adm1","translations":{"es":"Neiafu","en":"Neiafu"}}]