[{"name":"Changhua","state_code":"CHA","latitude":"23.95361000","longitude":"120.49083000","population":221048,"timezone":"Asia/Taipei","type":"city","translations":{"es":"Changhua","en":"Changhua"}},{"name":"Yuanlin","state_code":"CHA","latitude":"23.95671000","longitude":"120.57608000","population":122370,"timezone":"Asia/Taipei","type":"city","translations":{"es":"Yuanlin","en":"Yuanlin"}},{"name":"Chiayi","state_code":"CYI","latitude":"23.47722000","longitude":"120.44527000","population":260749,"timezone":"Asia/Taipei","type":"adm2","translations":{"es":"Chiayi","en":"Chiayi"}},{"name":"Pizitou","state_code":"CYI","latitude":"23.48556000","longitude":"120.44472000","population":5000,"timezone":"Asia/Taipei","type":"section","translations":{"es":"Pizitou","en":"Pizitou"}},{"name":"Budai","state_code":"CYQ","latitude":"23.36000000","longitude":"120.17000000","population":2078,"timezone":"Asia/Taipei","type":"city","translations":{"es":"Budai","en":"Budai"}},{"name":"Chiayi","state_code":"CYQ","latitude":"23.46333000","longitude":"120.58166000","population":null,"timezone":"Asia/Taipei","type":"county","translations":{"es":"Condado de Chiayi","en":"Chiayi"}},{"name":"Dalin","state_code":"CYQ","latitude":"23.59888889","longitude":"120.47000000","population":777,"timezone":"Asia/Taipei","type":"section","translations":{"es":"Dalin","en":"Dalin"}},{"name":"Minxiong","state_code":"CYQ","latitude":"23.55039900","longitude":"120.44569600","population":5000,"timezone":"Asia/Taipei","type":"section","translations":{"es":"minxiong","en":"Minxiong"}},{"name":"Hsinchu","state_code":"HSZ","latitude":"24.67416000","longitude":"121.16111000","population":null,"timezone":"Asia/Taipei","type":"county","translations":{"es":"Condado de Hsinchu","en":"Hsinchu"}},{"name":"Hsinchu","state_code":"HSQ","latitude":"24.80361000","longitude":"120.96861000","population":455275,"timezone":"Asia/Taipei","type":"adm2","translations":{"es":"Hsinchu","en":"Hsinchu"}},{"name":"Hukou","state_code":"HSQ","latitude":"24.90000000","longitude":"121.05000000","population":3138,"timezone":"Asia/Taipei","type":"city","translations":{"es":"Hukou","en":"Hukou"}},{"name":"Zhubei","state_code":"HSQ","latitude":"24.83333333","longitude":"121.01194444","population":220662,"timezone":"Asia/Taipei","type":"adm2","translations":{"es":"Zhubei","en":"Zhubei"}},{"name":"Hualien","state_code":"HUA","latitude":"23.78166000","longitude":"121.39333000","population":97077,"timezone":"Asia/Taipei","type":"city","translations":{"es":"Hualién","en":"Hualien"}},{"name":"Kaohsiung","state_code":"KHH","latitude":"22.61626000","longitude":"120.31333000","population":2721500,"timezone":"Asia/Taipei","type":"adm1","translations":{"es":"Kaohsiung","en":"Kaohsiung"}},{"name":"Jincheng","state_code":"KIN","latitude":"24.43415000","longitude":"118.31712000","population":37507,"timezone":"Asia/Taipei","type":"adm1","translations":{"es":"Jincheng","en":"Jincheng"}},{"name":"Kinmen","state_code":"KIN","latitude":"24.45333000","longitude":"118.38861000","population":null,"timezone":"Asia/Taipei","type":"county","translations":{"es":"Condado de Kinmen","en":"Kinmen"}},{"name":"Lienchiang","state_code":"LIE","latitude":"26.37004000","longitude":"120.49545000","population":null,"timezone":"Asia/Taipei","type":"city","translations":{"es":"Lienchiang","en":"Lienchiang"}},{"name":"Nangan","state_code":"LIE","latitude":"26.15039000","longitude":"119.93284000","population":7815,"timezone":"Asia/Taipei","type":"adm2","translations":{"es":"Nangan","en":"Nangan"}},{"name":"Miaoli","state_code":"MIA","latitude":"24.48972000","longitude":"120.90638000","population":85954,"timezone":"Asia/Taipei","type":"city","translations":{"es":"Miaoli","en":"Miaoli"}},{"name":"Lugu","state_code":"NAN","latitude":"23.74639000","longitude":"120.75250000","population":17746,"timezone":"Asia/Taipei","type":"city","translations":{"es":"Lugu","en":"Lugu"}},{"name":"Nantou","state_code":"NAN","latitude":"23.83419000","longitude":"120.92704000","population":96524,"timezone":"Asia/Taipei","type":"city","translations":{"es":"Nantou","en":"Nantou"}},{"name":"Puli","state_code":"NAN","latitude":"23.96639000","longitude":"120.96952000","population":86406,"timezone":"Asia/Taipei","type":"city","translations":{"es":"Puli","en":"Puli"}},{"name":"Zhongxing New Village","state_code":"NAN","latitude":"23.95908000","longitude":"120.68516000","population":25549,"timezone":"Asia/Taipei","type":"adm1","translations":{"es":"Nueva aldea de Zhongxing","en":"Zhongxing New Village"}},{"name":"Magong","state_code":"PEN","latitude":"23.56540000","longitude":"119.58627000","population":63437,"timezone":"Asia/Taipei","type":"adm2","translations":{"es":"Magong","en":"Magong"}},{"name":"Penghu","state_code":"PEN","latitude":"23.57111000","longitude":"119.61138000","population":null,"timezone":"Asia/Taipei","type":"county","translations":{"es":"Condado de Penghu","en":"Penghu"}},{"name":"Donggang","state_code":"PIF","latitude":"22.46515000","longitude":"120.44927000","population":47746,"timezone":"Asia/Taipei","type":"city","translations":{"es":"Donggang","en":"Donggang"}},{"name":"Hengchun","state_code":"PIF","latitude":"22.00417000","longitude":"120.74389000","population":29702,"timezone":"Asia/Taipei","type":"adm3","translations":{"es":"Hengchun","en":"Hengchun"}},{"name":"Pingtung","state_code":"PIF","latitude":"22.49555000","longitude":"120.61444000","population":191815,"timezone":"Asia/Taipei","type":"city","translations":{"es":"Pingtung","en":"Pingtung"}},{"name":"Taichung","state_code":"TXG","latitude":"24.14690000","longitude":"120.68390000","population":2867537,"timezone":"Asia/Taipei","type":"adm2","translations":{"es":"Taichung","en":"Taichung"}},{"name":"Tainan","state_code":"TNN","latitude":"22.99083000","longitude":"120.21333000","population":1854682,"timezone":"Asia/Taipei","type":"adm2","translations":{"es":"Tainan","en":"Tainan"}},{"name":"Yujing","state_code":"TNN","latitude":"23.12493000","longitude":"120.46138000","population":16597,"timezone":"Asia/Taipei","type":"city","translations":{"es":"Yujing","en":"Yujing"}},{"name":"Banqiao","state_code":"TPE","latitude":"25.01427000","longitude":"121.46719000","population":550256,"timezone":"Asia/Taipei","type":"adm2","translations":{"es":"Banqiao","en":"Banqiao"}},{"name":"Jiufen","state_code":"TPE","latitude":"25.10957000","longitude":"121.84424000","population":3100,"timezone":"Asia/Taipei","type":"city","translations":{"es":"Jiufen","en":"Jiufen"}},{"name":"Taipei","state_code":"TPE","latitude":"25.04776000","longitude":"121.53185000","population":2442991,"timezone":"Asia/Taipei","type":"capital","translations":{"es":"Taipéi","en":"Taipei"}},{"name":"Taitung","state_code":"TTT","latitude":"22.88361000","longitude":"121.04833000","population":null,"timezone":"Asia/Taipei","type":"city","translations":{"es":"Taitung","en":"Taitung"}},{"name":"Daxi","state_code":"TAO","latitude":"24.88373000","longitude":"121.29043000","population":94222,"timezone":"Asia/Taipei","type":"city","translations":{"es":"Daxi","en":"Daxi"}},{"name":"Taoyuan","state_code":"TAO","latitude":"24.89500000","longitude":"121.24611000","population":2352683,"timezone":"Asia/Taipei","type":"city","translations":{"es":"Taoyuan","en":"Taoyuan"}},{"name":"Yilan","state_code":"ILA","latitude":"24.54250000","longitude":"121.63361000","population":94742,"timezone":"Asia/Taipei","type":"city","translations":{"es":"Yilan","en":"Yilan"}},{"name":"Douliu","state_code":"YUN","latitude":"23.70944000","longitude":"120.54333000","population":107924,"timezone":"Asia/Taipei","type":"adm2","translations":{"es":"Douliu","en":"Douliu"}},{"name":"Yunlin","state_code":"YUN","latitude":"23.70701000","longitude":"120.38481000","population":null,"timezone":"Asia/Taipei","type":"city","translations":{"es":"Yunlin","en":"Yunlin"}}]