[{"name":"Artigas","state_code":"AR","latitude":"-30.40000000","longitude":"-56.46667000","population":40658,"timezone":"America/Montevideo","type":"adm1","translations":{"es":"Artigas","en":"Artigas"}},{"name":"Baltasar Brum","state_code":"AR","latitude":"-30.71905000","longitude":"-57.32596000","population":2728,"timezone":"America/Montevideo","type":"city","translations":{"es":"Baltasar Brum","en":"Baltasar Brum"}},{"name":"Bella Unión","state_code":"AR","latitude":"-30.25966000","longitude":"-57.59919000","population":12200,"timezone":"America/Montevideo","type":"city","translations":{"es":"Bella Unión","en":"Bella Unión"}},{"name":"Las Piedras","state_code":"AR","latitude":"-30.26204000","longitude":"-57.58174000","population":2185,"timezone":"America/Montevideo","type":"section","translations":{"es":"Las Piedras","en":"Las Piedras"}},{"name":"Tomás Gomensoro","state_code":"AR","latitude":"-30.42870000","longitude":"-57.43609000","population":2659,"timezone":"America/Montevideo","type":"city","translations":{"es":"Tomás Gomensoro","en":"Tomás Gomensoro"}},{"name":"Aguas Corrientes","state_code":"CA","latitude":"-34.52194000","longitude":"-56.39361000","population":1047,"timezone":"America/Montevideo","type":"city","translations":{"es":"Aguas Corrientes","en":"Aguas Corrientes"}},{"name":"Atlántida","state_code":"CA","latitude":"-34.77190000","longitude":"-55.75840000","population":5562,"timezone":"America/Montevideo","type":"city","translations":{"es":"Atlántida","en":"Atlántida"}},{"name":"Barra de Carrasco","state_code":"CA","latitude":"-34.87722000","longitude":"-56.02972000","population":5410,"timezone":"America/Montevideo","type":"city","translations":{"es":"Barra de Carrasco","en":"Barra de Carrasco"}},{"name":"Barros Blancos","state_code":"CA","latitude":"-34.75240000","longitude":"-56.00259000","population":31650,"timezone":"America/Montevideo","type":"city","translations":{"es":"Barros Blancos","en":"Barros Blancos"}},{"name":"Canelones","state_code":"CA","latitude":"-34.52278000","longitude":"-56.27778000","population":19865,"timezone":"America/Montevideo","type":"adm1","translations":{"es":"Canelones","en":"Canelones"}},{"name":"Colonia Nicolich","state_code":"CA","latitude":"-34.81516000","longitude":"-56.02435000","population":8902,"timezone":"America/Montevideo","type":"city","translations":{"es":"Colonia Nicolich","en":"Colonia Nicolich"}},{"name":"Empalme Olmos","state_code":"CA","latitude":"-34.69753000","longitude":"-55.89268000","population":4199,"timezone":"America/Montevideo","type":"city","translations":{"es":"Empalme Olmos","en":"Empalme Olmos"}},{"name":"Joaquín Suárez","state_code":"CA","latitude":"-34.73501000","longitude":"-56.03470000","population":6570,"timezone":"America/Montevideo","type":"city","translations":{"es":"Joaquín Suárez","en":"Joaquín Suárez"}},{"name":"Juanicó","state_code":"CA","latitude":"-34.59454000","longitude":"-56.25334000","population":1305,"timezone":"America/Montevideo","type":"city","translations":{"es":"Juanicó","en":"Juanicó"}},{"name":"La Floresta","state_code":"CA","latitude":"-34.75572000","longitude":"-55.68141000","population":1107,"timezone":"America/Montevideo","type":"city","translations":{"es":"La Floresta","en":"La Floresta"}},{"name":"La Paz","state_code":"CA","latitude":"-34.76031000","longitude":"-56.22590000","population":19913,"timezone":"America/Montevideo","type":"city","translations":{"es":"La Paz","en":"La Paz"}},{"name":"Las Piedras","state_code":"CA","latitude":"-34.73020000","longitude":"-56.21915000","population":69682,"timezone":"America/Montevideo","type":"city","translations":{"es":"Las Piedras","en":"Las Piedras"}},{"name":"Las Toscas","state_code":"CA","latitude":"-34.73333000","longitude":"-55.71667000","population":3146,"timezone":"America/Montevideo","type":"city","translations":{"es":"Las Toscas","en":"Las Toscas"}},{"name":"Los Cerrillos","state_code":"CA","latitude":"-34.60500000","longitude":"-56.35639000","population":2508,"timezone":"America/Montevideo","type":"city","translations":{"es":"Los Cerrillos","en":"Los Cerrillos"}},{"name":"Migues","state_code":"CA","latitude":"-34.48759000","longitude":"-55.62793000","population":2109,"timezone":"America/Montevideo","type":"city","translations":{"es":"Migueles","en":"Migues"}},{"name":"Montes","state_code":"CA","latitude":"-34.49339000","longitude":"-55.56219000","population":1760,"timezone":"America/Montevideo","type":"city","translations":{"es":"Montes","en":"Montes"}},{"name":"Pando","state_code":"CA","latitude":"-34.71716000","longitude":"-55.95840000","population":24047,"timezone":"America/Montevideo","type":"city","translations":{"es":"Pando","en":"Pando"}},{"name":"Paso de Carrasco","state_code":"CA","latitude":"-34.86028000","longitude":"-56.05222000","population":15393,"timezone":"America/Montevideo","type":"city","translations":{"es":"Paso de Carrasco","en":"Paso de Carrasco"}},{"name":"Progreso","state_code":"CA","latitude":"-34.66737000","longitude":"-56.21758000","population":16244,"timezone":"America/Montevideo","type":"city","translations":{"es":"Progreso","en":"Progreso"}},{"name":"San Antonio","state_code":"CA","latitude":"-34.45130000","longitude":"-56.08036000","population":1489,"timezone":"America/Montevideo","type":"city","translations":{"es":"San Antonio","en":"San Antonio"}},{"name":"San Bautista","state_code":"CA","latitude":"-34.44016000","longitude":"-55.95861000","population":1905,"timezone":"America/Montevideo","type":"city","translations":{"es":"San Bautista","en":"San Bautista"}},{"name":"San Jacinto","state_code":"CA","latitude":"-34.54465000","longitude":"-55.87151000","population":3954,"timezone":"America/Montevideo","type":"city","translations":{"es":"San Jacinto","en":"San Jacinto"}},{"name":"San Ramón","state_code":"CA","latitude":"-34.29155000","longitude":"-55.95571000","population":7133,"timezone":"America/Montevideo","type":"city","translations":{"es":"San Ramón","en":"San Ramón"}},{"name":"Santa Lucía","state_code":"CA","latitude":"-34.45333000","longitude":"-56.39056000","population":16742,"timezone":"America/Montevideo","type":"city","translations":{"es":"Santa Lucía","en":"Santa Lucía"}},{"name":"Santa Rosa","state_code":"CA","latitude":"-34.49819000","longitude":"-56.03795000","population":3727,"timezone":"America/Montevideo","type":"city","translations":{"es":"Santa Rosa","en":"Santa Rosa"}},{"name":"Sauce","state_code":"CA","latitude":"-34.65191000","longitude":"-56.06431000","population":5910,"timezone":"America/Montevideo","type":"city","translations":{"es":"Salsa","en":"Sauce"}},{"name":"Soca","state_code":"CA","latitude":"-34.68432000","longitude":"-55.70200000","population":1742,"timezone":"America/Montevideo","type":"city","translations":{"es":"Soca","en":"Soca"}},{"name":"Tala","state_code":"CA","latitude":"-34.34349000","longitude":"-55.76375000","population":4949,"timezone":"America/Montevideo","type":"city","translations":{"es":"Tala","en":"Tala"}},{"name":"Toledo","state_code":"CA","latitude":"-34.73807000","longitude":"-56.09469000","population":4397,"timezone":"America/Montevideo","type":"city","translations":{"es":"Toledo","en":"Toledo"}},{"name":"Aceguá","state_code":"CL","latitude":"-31.87178000","longitude":"-54.16351000","population":1511,"timezone":"America/Montevideo","type":"city","translations":{"es":"Aceguá","en":"Aceguá"}},{"name":"Isidoro Noblía","state_code":"CL","latitude":"-31.96218000","longitude":"-54.12309000","population":2331,"timezone":"America/Montevideo","type":"city","translations":{"es":"Isidoro Noblía","en":"Isidoro Noblía"}},{"name":"Melo","state_code":"CL","latitude":"-32.37028000","longitude":"-54.16750000","population":51830,"timezone":"America/Montevideo","type":"adm1","translations":{"es":"Melo","en":"Melo"}},{"name":"Río Branco","state_code":"CL","latitude":"-32.59802000","longitude":"-53.38583000","population":14604,"timezone":"America/Montevideo","type":"city","translations":{"es":"Río Branco","en":"Río Branco"}},{"name":"Tupambaé","state_code":"CL","latitude":"-32.83333000","longitude":"-54.76667000","population":1122,"timezone":"America/Montevideo","type":"city","translations":{"es":"Tupambaé","en":"Tupambaé"}},{"name":"Carmelo","state_code":"CO","latitude":"-34.00023000","longitude":"-58.28402000","population":18041,"timezone":"America/Montevideo","type":"city","translations":{"es":"Carmelo","en":"Carmelo"}},{"name":"Colonia del Sacramento","state_code":"CO","latitude":"-34.46262000","longitude":"-57.83976000","population":26231,"timezone":"America/Montevideo","type":"adm1","translations":{"es":"Colonia del Sacramento","en":"Colonia del Sacramento"}},{"name":"Florencio Sánchez","state_code":"CO","latitude":"-33.87785000","longitude":"-57.37166000","population":3716,"timezone":"America/Montevideo","type":"city","translations":{"es":"Florencio Sánchez","en":"Florencio Sánchez"}},{"name":"Juan L. Lacaze","state_code":"CO","latitude":"-34.41888000","longitude":"-57.45285000","population":12816,"timezone":"America/Montevideo","type":"city","translations":{"es":"Juan L. Lacaze","en":"Juan L. Lacaze"}},{"name":"Nueva Helvecia","state_code":"CO","latitude":"-34.30000000","longitude":"-57.23333000","population":10630,"timezone":"America/Montevideo","type":"city","translations":{"es":"Nueva Helvecia","en":"Nueva Helvecia"}},{"name":"Nueva Palmira","state_code":"CO","latitude":"-33.87031000","longitude":"-58.41176000","population":9857,"timezone":"America/Montevideo","type":"city","translations":{"es":"Nueva Palmira","en":"Nueva Palmira"}},{"name":"Ombúes de Lavalle","state_code":"CO","latitude":"-33.93783000","longitude":"-57.80959000","population":3390,"timezone":"America/Montevideo","type":"city","translations":{"es":"Ombúes de Lavalle","en":"Ombúes de Lavalle"}},{"name":"Rosario","state_code":"CO","latitude":"-34.31667000","longitude":"-57.35000000","population":10085,"timezone":"America/Montevideo","type":"city","translations":{"es":"Rosario","en":"Rosario"}},{"name":"Tarariras","state_code":"CO","latitude":"-34.26555000","longitude":"-57.61866000","population":6632,"timezone":"America/Montevideo","type":"city","translations":{"es":"Tarariras","en":"Tarariras"}},{"name":"Blanquillo","state_code":"DU","latitude":"-32.76667000","longitude":"-55.63333000","population":1084,"timezone":"America/Montevideo","type":"city","translations":{"es":"Blanquillo","en":"Blanquillo"}},{"name":"Carlos Reyles","state_code":"DU","latitude":"-33.05658000","longitude":"-56.47652000","population":976,"timezone":"America/Montevideo","type":"city","translations":{"es":"Carlos Reyles","en":"Carlos Reyles"}},{"name":"Durazno","state_code":"DU","latitude":"-33.38056000","longitude":"-56.52361000","population":34368,"timezone":"America/Montevideo","type":"adm1","translations":{"es":"Durazno","en":"Durazno"}},{"name":"La Paloma","state_code":"DU","latitude":"-32.72689000","longitude":"-55.58270000","population":1567,"timezone":"America/Montevideo","type":"city","translations":{"es":"La Paloma","en":"La Paloma"}},{"name":"Santa Bernardina","state_code":"DU","latitude":"-33.35360000","longitude":"-56.52498000","population":1094,"timezone":"America/Montevideo","type":"city","translations":{"es":"Santa Bernardina","en":"Santa Bernardina"}},{"name":"Sarandí del Yi","state_code":"DU","latitude":"-33.35000000","longitude":"-55.63333000","population":7176,"timezone":"America/Montevideo","type":"city","translations":{"es":"Sarandí del Yi","en":"Sarandí del Yi"}},{"name":"Villa del Carmen","state_code":"DU","latitude":"-33.23943000","longitude":"-56.00936000","population":2692,"timezone":"America/Montevideo","type":"city","translations":{"es":"Villa del Carmen","en":"Villa del Carmen"}},{"name":"Trinidad","state_code":"FS","latitude":"-33.51650000","longitude":"-56.89957000","population":22893,"timezone":"America/Montevideo","type":"adm1","translations":{"es":"Trinidad","en":"Trinidad"}},{"name":"25 de Agosto","state_code":"FD","latitude":"-34.41167000","longitude":"-56.40222000","population":1849,"timezone":"America/Montevideo","type":"city","translations":{"es":"25 de agosto","en":"25 de Agosto"}},{"name":"25 de Mayo","state_code":"FD","latitude":"-34.18917000","longitude":"-56.33944000","population":1852,"timezone":"America/Montevideo","type":"city","translations":{"es":"25 de mayo","en":"25 de Mayo"}},{"name":"Alejandro Gallinal","state_code":"FD","latitude":"-33.86252000","longitude":"-55.54264000","population":1357,"timezone":"America/Montevideo","type":"city","translations":{"es":"Alejandro Gallinal","en":"Alejandro Gallinal"}},{"name":"Cardal","state_code":"FD","latitude":"-34.29056000","longitude":"-56.38889000","population":1291,"timezone":"America/Montevideo","type":"city","translations":{"es":"Cardenal","en":"Cardal"}},{"name":"Casupá","state_code":"FD","latitude":"-34.09994000","longitude":"-55.64811000","population":2402,"timezone":"America/Montevideo","type":"city","translations":{"es":"Casupá","en":"Casupá"}},{"name":"Florida","state_code":"FD","latitude":"-34.09556000","longitude":"-56.21417000","population":33639,"timezone":"America/Montevideo","type":"adm1","translations":{"es":"Florida","en":"Florida"}},{"name":"Sarandí Grande","state_code":"FD","latitude":"-33.73333000","longitude":"-56.33333000","population":6130,"timezone":"America/Montevideo","type":"city","translations":{"es":"Sarandí Grande","en":"Sarandí Grande"}},{"name":"José Batlle y Ordóñez","state_code":"LA","latitude":"-33.46667000","longitude":"-55.11667000","population":2203,"timezone":"America/Montevideo","type":"city","translations":{"es":"José Batlle y Ordóñez","en":"José Batlle y Ordóñez"}},{"name":"José Pedro Varela","state_code":"LA","latitude":"-33.45451000","longitude":"-54.53586000","population":5118,"timezone":"America/Montevideo","type":"city","translations":{"es":"José Pedro Varela","en":"José Pedro Varela"}},{"name":"Mariscala","state_code":"LA","latitude":"-34.04085000","longitude":"-54.77732000","population":1626,"timezone":"America/Montevideo","type":"city","translations":{"es":"Mariscala","en":"Mariscala"}},{"name":"Minas","state_code":"LA","latitude":"-34.37589000","longitude":"-55.23771000","population":38446,"timezone":"America/Montevideo","type":"adm1","translations":{"es":"Minas","en":"Minas"}},{"name":"Solís de Mataojo","state_code":"LA","latitude":"-34.59951000","longitude":"-55.46808000","population":2825,"timezone":"America/Montevideo","type":"city","translations":{"es":"Solís de Mataojo","en":"Solís de Mataojo"}},{"name":"Aiguá","state_code":"MA","latitude":"-34.20498000","longitude":"-54.75665000","population":2465,"timezone":"America/Montevideo","type":"city","translations":{"es":"Aiguá","en":"Aiguá"}},{"name":"Maldonado","state_code":"MA","latitude":"-34.90000000","longitude":"-54.95000000","population":55478,"timezone":"America/Montevideo","type":"adm1","translations":{"es":"Maldonado","en":"Maldonado"}},{"name":"Pan de Azúcar","state_code":"MA","latitude":"-34.77870000","longitude":"-55.23582000","population":6597,"timezone":"America/Montevideo","type":"city","translations":{"es":"Pan de Azúcar","en":"Pan de Azúcar"}},{"name":"Piriápolis","state_code":"MA","latitude":"-34.86287000","longitude":"-55.27471000","population":7968,"timezone":"America/Montevideo","type":"city","translations":{"es":"Piriápolis","en":"Piriápolis"}},{"name":"Punta del Este","state_code":"MA","latitude":"-34.94747000","longitude":"-54.93382000","population":9277,"timezone":"America/Montevideo","type":"city","translations":{"es":"Punta del Este","en":"Punta del Este"}},{"name":"San Carlos","state_code":"MA","latitude":"-34.79123000","longitude":"-54.91824000","population":27471,"timezone":"America/Montevideo","type":"city","translations":{"es":"San Carlos","en":"San Carlos"}},{"name":"Aires Puros","state_code":"MO","latitude":"-34.85200000","longitude":"-56.18300000","population":null,"timezone":"America/Montevideo","type":"city","translations":{"es":"Aires Puros","en":"Aires Puros"}},{"name":"Arroyo Seco","state_code":"MO","latitude":"-34.80400000","longitude":"-56.27700000","population":null,"timezone":"America/Montevideo","type":"adm1","translations":{"es":"Arroyo Seco","en":"Arroyo Seco"}},{"name":"Atahualpa","state_code":"MO","latitude":"-34.80900000","longitude":"-56.23000000","population":null,"timezone":"America/Montevideo","type":"city","translations":{"es":"Atahualpa","en":"Atahualpa"}},{"name":"Bañados de Carrasco","state_code":"MO","latitude":"-34.82100000","longitude":"-56.06700000","population":null,"timezone":"America/Montevideo","type":"city","translations":{"es":"Bañados de Carrasco","en":"Bañados de Carrasco"}},{"name":"Barra de Carrasco","state_code":"MO","latitude":"-34.88400000","longitude":"-56.04700000","population":5410,"timezone":"America/Montevideo","type":"city","translations":{"es":"Barra de Carrasco","en":"Barra de Carrasco"}},{"name":"Barrio Sur","state_code":"MO","latitude":"-34.90800000","longitude":"-56.19400000","population":null,"timezone":"America/Montevideo","type":"city","translations":{"es":"Barrio Sur","en":"Barrio Sur"}},{"name":"Bella Italia","state_code":"MO","latitude":"-34.85600000","longitude":"-56.15500000","population":null,"timezone":"America/Montevideo","type":"city","translations":{"es":"Bella Italia","en":"Bella Italia"}},{"name":"Bella Vista","state_code":"MO","latitude":"-34.87527778","longitude":"-56.18666667","population":0,"timezone":"America/Montevideo","type":"city","translations":{"es":"Bella Vista","en":"Bella Vista"}},{"name":"Belvedere","state_code":"MO","latitude":"-34.85155556","longitude":"-56.21611111","population":0,"timezone":"America/Montevideo","type":"city","translations":{"es":"Belvedere","en":"Belvedere"}},{"name":"Buceo","state_code":"MO","latitude":"-34.90000000","longitude":"-56.13305556","population":0,"timezone":"America/Montevideo","type":"city","translations":{"es":"Buceo","en":"Buceo"}},{"name":"Capurro","state_code":"MO","latitude":"-34.90500000","longitude":"-56.21700000","population":0,"timezone":"America/Montevideo","type":"city","translations":{"es":"Capurro","en":"Capurro"}},{"name":"Carrasco","state_code":"MO","latitude":"-34.88333333","longitude":"-56.06666667","population":0,"timezone":"America/Montevideo","type":"city","translations":{"es":"Carrasco","en":"Carrasco"}},{"name":"Carrasco Norte","state_code":"MO","latitude":"-34.86800000","longitude":"-56.04300000","population":null,"timezone":"America/Montevideo","type":"city","translations":{"es":"Carrasco Norte","en":"Carrasco Norte"}},{"name":"Casabó","state_code":"MO","latitude":"-34.86388889","longitude":"-56.34111111","population":2000,"timezone":"America/Montevideo","type":"city","translations":{"es":"Casabó","en":"Casabó"}},{"name":"Casavalle","state_code":"MO","latitude":"-34.84300000","longitude":"-56.20300000","population":null,"timezone":"America/Montevideo","type":"city","translations":{"es":"Casavalle","en":"Casavalle"}},{"name":"Centro","state_code":"MO","latitude":"-34.90361111","longitude":"-56.18833333","population":1270737,"timezone":"America/Montevideo","type":"capital","translations":{"es":"Centro","en":"Centro"}},{"name":"Cerrito","state_code":"MO","latitude":"-34.81500000","longitude":"-56.22500000","population":19913,"timezone":"America/Montevideo","type":"city","translations":{"es":"Cerrito","en":"Cerrito"}},{"name":"Cerro","state_code":"MO","latitude":"-34.88444444","longitude":"-56.25138889","population":null,"timezone":"America/Montevideo","type":"city","translations":{"es":"Cerro","en":"Cerro"}},{"name":"Ciudad Vieja","state_code":"MO","latitude":"-34.90800000","longitude":"-56.20400000","population":null,"timezone":"America/Montevideo","type":"capital","translations":{"es":"Ciudad Vieja","en":"Ciudad Vieja"}},{"name":"Colón","state_code":"MO","latitude":"-34.86500000","longitude":"-56.18000000","population":0,"timezone":"America/Montevideo","type":"capital","translations":{"es":"Colon","en":"Colón"}},{"name":"Conciliación","state_code":"MO","latitude":"-34.82361111","longitude":"-56.23194444","population":0,"timezone":"America/Montevideo","type":"city","translations":{"es":"Conciliación","en":"Conciliación"}},{"name":"Cordón","state_code":"MO","latitude":"-34.90000000","longitude":"-56.17858333","population":0,"timezone":"America/Montevideo","type":"capital","translations":{"es":"Cordón","en":"Cordón"}},{"name":"Flor de Maroñas","state_code":"MO","latitude":"-34.85055556","longitude":"-56.12472222","population":0,"timezone":"America/Montevideo","type":"city","translations":{"es":"Flor de Maroñas","en":"Flor de Maroñas"}},{"name":"Goes","state_code":"MO","latitude":"-34.87500000","longitude":"-56.19200000","population":null,"timezone":"America/Montevideo","type":"city","translations":{"es":"Va","en":"Goes"}},{"name":"Ituzaingó","state_code":"MO","latitude":"-34.84750000","longitude":"-56.14361111","population":771,"timezone":"America/Montevideo","type":"city","translations":{"es":"Ituzaingó","en":"Ituzaingó"}},{"name":"Jacinto Vera","state_code":"MO","latitude":"-34.88300000","longitude":"-56.16600000","population":null,"timezone":"America/Montevideo","type":"capital","translations":{"es":"Jacinto Vera","en":"Jacinto Vera"}},{"name":"Jardines del Hipódromo","state_code":"MO","latitude":"-34.88100000","longitude":"-56.15300000","population":null,"timezone":"America/Montevideo","type":"city","translations":{"es":"Jardines del Hipódromo","en":"Jardines del Hipódromo"}},{"name":"La Blanqueada","state_code":"MO","latitude":"-34.89700000","longitude":"-56.18500000","population":null,"timezone":"America/Montevideo","type":"capital","translations":{"es":"La Blanqueada","en":"La Blanqueada"}},{"name":"La Comercial","state_code":"MO","latitude":"-34.89400000","longitude":"-56.19700000","population":null,"timezone":"America/Montevideo","type":"capital","translations":{"es":"La Comercial","en":"La Comercial"}},{"name":"La Figurita","state_code":"MO","latitude":"-34.88600000","longitude":"-56.20300000","population":null,"timezone":"America/Montevideo","type":"capital","translations":{"es":"La Figurita","en":"La Figurita"}},{"name":"La Teja","state_code":"MO","latitude":"-34.86200000","longitude":"-56.23600000","population":null,"timezone":"America/Montevideo","type":"city","translations":{"es":"La Teja","en":"La Teja"}},{"name":"La Unión","state_code":"MO","latitude":"-34.87861111","longitude":"-56.13583333","population":0,"timezone":"America/Montevideo","type":"city","translations":{"es":"La Unión","en":"La Unión"}},{"name":"Larrañaga","state_code":"MO","latitude":"-34.86100000","longitude":"-56.16300000","population":null,"timezone":"America/Montevideo","type":"capital","translations":{"es":"Larrañaga","en":"Larrañaga"}},{"name":"Las Acacias","state_code":"MO","latitude":"-34.85500000","longitude":"-56.17000000","population":null,"timezone":"America/Montevideo","type":"city","translations":{"es":"Las Acacias","en":"Las Acacias"}},{"name":"Lezica","state_code":"MO","latitude":"-34.84600000","longitude":"-56.22300000","population":null,"timezone":"America/Montevideo","type":"city","translations":{"es":"Lezica","en":"Lezica"}},{"name":"Malvín","state_code":"MO","latitude":"-34.89352778","longitude":"-56.09994444","population":0,"timezone":"America/Montevideo","type":"city","translations":{"es":"Malvín","en":"Malvín"}},{"name":"Malvín Norte","state_code":"MO","latitude":"-34.87800000","longitude":"-56.08300000","population":null,"timezone":"America/Montevideo","type":"city","translations":{"es":"Malvín Norte","en":"Malvín Norte"}},{"name":"Manga","state_code":"MO","latitude":"-34.80722222","longitude":"-56.13805556","population":0,"timezone":"America/Montevideo","type":"city","translations":{"es":"Manga","en":"Manga"}},{"name":"Marconi","state_code":"MO","latitude":"-34.86200000","longitude":"-56.14700000","population":null,"timezone":"America/Montevideo","type":"city","translations":{"es":"Marconi","en":"Marconi"}},{"name":"Maroñas","state_code":"MO","latitude":"-34.86338889","longitude":"-56.12963889","population":0,"timezone":"America/Montevideo","type":"city","translations":{"es":"Maroñas","en":"Maroñas"}},{"name":"Melilla","state_code":"MO","latitude":"-34.83700000","longitude":"-56.25900000","population":null,"timezone":"America/Montevideo","type":"city","translations":{"es":"Melilla","en":"Melilla"}},{"name":"Mercado Modelo","state_code":"MO","latitude":"-34.85600000","longitude":"-56.20200000","population":null,"timezone":"America/Montevideo","type":"capital","translations":{"es":"Mercado Modelo","en":"Mercado Modelo"}},{"name":"Montevideo","state_code":"MO","latitude":"-34.90328000","longitude":"-56.18816000","population":1302954,"timezone":"America/Montevideo","type":"capital","translations":{"es":"Montevideo","en":"Montevideo"}},{"name":"Nuevo París","state_code":"MO","latitude":"-34.83333333","longitude":"-56.25000000","population":0,"timezone":"America/Montevideo","type":"city","translations":{"es":"Nuevo París","en":"Nuevo París"}},{"name":"Pajas Blancas","state_code":"MO","latitude":"-34.80167000","longitude":"-56.33417000","population":2000,"timezone":"America/Montevideo","type":"city","translations":{"es":"Pajas Blancas","en":"Pajas Blancas"}},{"name":"Palermo","state_code":"MO","latitude":"-34.90300000","longitude":"-56.18200000","population":null,"timezone":"America/Montevideo","type":"capital","translations":{"es":"Palermo","en":"Palermo"}},{"name":"Parque Batlle","state_code":"MO","latitude":"-34.90000000","longitude":"-56.18000000","population":null,"timezone":"America/Montevideo","type":"capital","translations":{"es":"Parque Batlle","en":"Parque Batlle"}},{"name":"Parque Rodó","state_code":"MO","latitude":"-34.90800000","longitude":"-56.17100000","population":null,"timezone":"America/Montevideo","type":"capital","translations":{"es":"Parque Rodó","en":"Parque Rodó"}},{"name":"Paso de la Arena","state_code":"MO","latitude":"-34.86100000","longitude":"-56.23900000","population":null,"timezone":"America/Montevideo","type":"city","translations":{"es":"Paso de la Arena","en":"Paso de la Arena"}},{"name":"Paso Molino","state_code":"MO","latitude":"-34.85000000","longitude":"-56.21666667","population":0,"timezone":"America/Montevideo","type":"city","translations":{"es":"Paso Molino","en":"Paso Molino"}},{"name":"Peñarol","state_code":"MO","latitude":"-34.82519444","longitude":"-56.19916667","population":0,"timezone":"America/Montevideo","type":"capital","translations":{"es":"Peñarol","en":"Peñarol"}},{"name":"Perez Castellanos","state_code":"MO","latitude":"-34.84300000","longitude":"-56.21300000","population":null,"timezone":"America/Montevideo","type":"city","translations":{"es":"Pérez Castellanos","en":"Perez Castellanos"}},{"name":"Piedras Blancas","state_code":"MO","latitude":"-34.82361111","longitude":"-56.14027778","population":0,"timezone":"America/Montevideo","type":"city","translations":{"es":"Piedras Blancas","en":"Piedras Blancas"}},{"name":"Pocitos","state_code":"MO","latitude":"-34.90833333","longitude":"-56.15000000","population":0,"timezone":"America/Montevideo","type":"city","translations":{"es":"Pocitos","en":"Pocitos"}},{"name":"Prado","state_code":"MO","latitude":"-34.85600000","longitude":"-56.20400000","population":null,"timezone":"America/Montevideo","type":"capital","translations":{"es":"Prado","en":"Prado"}},{"name":"Punta Carretas","state_code":"MO","latitude":"-34.92188889","longitude":"-56.15944444","population":0,"timezone":"America/Montevideo","type":"city","translations":{"es":"Punta Carretas","en":"Punta Carretas"}},{"name":"Punta de Rieles","state_code":"MO","latitude":"-34.84700000","longitude":"-56.25200000","population":null,"timezone":"America/Montevideo","type":"city","translations":{"es":"Punta de Rieles","en":"Punta de Rieles"}},{"name":"Punta Espinillo","state_code":"MO","latitude":"-34.83500000","longitude":"-56.28600000","population":null,"timezone":"America/Montevideo","type":"adm1","translations":{"es":"Punta Espinillo","en":"Punta Espinillo"}},{"name":"Punta Gorda","state_code":"MO","latitude":"-34.88647222","longitude":"-56.08983333","population":0,"timezone":"America/Montevideo","type":"city","translations":{"es":"Punta Gorda","en":"Punta Gorda"}},{"name":"Reducto","state_code":"MO","latitude":"-34.87831944","longitude":"-56.18957778","population":1270737,"timezone":"America/Montevideo","type":"capital","translations":{"es":"Reducto","en":"Reducto"}},{"name":"Santiago Vázquez","state_code":"MO","latitude":"-34.79028000","longitude":"-56.35000000","population":1468,"timezone":"America/Montevideo","type":"city","translations":{"es":"Santiago Vázquez","en":"Santiago Vázquez"}},{"name":"Sayago","state_code":"MO","latitude":"-34.83583333","longitude":"-56.21250000","population":0,"timezone":"America/Montevideo","type":"city","translations":{"es":"Sayago","en":"Sayago"}},{"name":"Tres Cruces","state_code":"MO","latitude":"-34.89583333","longitude":"-56.16805556","population":0,"timezone":"America/Montevideo","type":"city","translations":{"es":"Tres Cruces","en":"Tres Cruces"}},{"name":"Tres Ombues","state_code":"MO","latitude":"-34.76600000","longitude":"-56.33000000","population":null,"timezone":"America/Montevideo","type":"city","translations":{"es":"Tres Ombues","en":"Tres Ombues"}},{"name":"Villa Española","state_code":"MO","latitude":"-34.86388889","longitude":"-56.14472222","population":0,"timezone":"America/Montevideo","type":"city","translations":{"es":"Villa Española","en":"Villa Española"}},{"name":"Villa García","state_code":"MO","latitude":"-34.78111000","longitude":"-56.05333000","population":0,"timezone":"America/Montevideo","type":"city","translations":{"es":"Villa García","en":"Villa García"}},{"name":"Villa Muñoz","state_code":"MO","latitude":"-34.88781389","longitude":"-56.17701389","population":0,"timezone":"America/Montevideo","type":"capital","translations":{"es":"Villa Muñoz","en":"Villa Muñoz"}},{"name":"Estación Porvenir","state_code":"PA","latitude":"-32.37085000","longitude":"-57.85371000","population":1055,"timezone":"America/Montevideo","type":"city","translations":{"es":"Estación Porvenir","en":"Estación Porvenir"}},{"name":"Guichón","state_code":"PA","latitude":"-32.35846000","longitude":"-57.19778000","population":5039,"timezone":"America/Montevideo","type":"city","translations":{"es":"Guichón","en":"Guichón"}},{"name":"Paysandú","state_code":"PA","latitude":"-32.31710000","longitude":"-58.08072000","population":76429,"timezone":"America/Montevideo","type":"adm1","translations":{"es":"Paysandú","en":"Paysandú"}},{"name":"Piedras Coloradas","state_code":"PA","latitude":"-32.37183000","longitude":"-57.60901000","population":1094,"timezone":"America/Montevideo","type":"city","translations":{"es":"Piedras Coloradas","en":"Piedras Coloradas"}},{"name":"Quebracho","state_code":"PA","latitude":"-31.93526000","longitude":"-57.90140000","population":2813,"timezone":"America/Montevideo","type":"city","translations":{"es":"Quebracho","en":"Quebracho"}},{"name":"San Félix","state_code":"PA","latitude":"-32.34631000","longitude":"-58.10094000","population":1718,"timezone":"America/Montevideo","type":"city","translations":{"es":"San Félix","en":"San Félix"}},{"name":"Fray Bentos","state_code":"RN","latitude":"-33.11651000","longitude":"-58.31067000","population":24406,"timezone":"America/Montevideo","type":"adm1","translations":{"es":"Fray Bentos","en":"Fray Bentos"}},{"name":"Nuevo Berlín","state_code":"RN","latitude":"-32.97974000","longitude":"-58.05858000","population":2450,"timezone":"America/Montevideo","type":"city","translations":{"es":"Nuevo Berlín","en":"Nuevo Berlín"}},{"name":"San Javier","state_code":"RN","latitude":"-32.66523000","longitude":"-58.13320000","population":1781,"timezone":"America/Montevideo","type":"city","translations":{"es":"San Javier","en":"San Javier"}},{"name":"Young","state_code":"RN","latitude":"-32.69844000","longitude":"-57.62693000","population":16756,"timezone":"America/Montevideo","type":"city","translations":{"es":"Joven","en":"Young"}},{"name":"Minas de Corrales","state_code":"RV","latitude":"-31.57375000","longitude":"-55.47075000","population":3788,"timezone":"America/Montevideo","type":"city","translations":{"es":"Minas de Corrales","en":"Minas de Corrales"}},{"name":"Rivera","state_code":"RV","latitude":"-30.90534000","longitude":"-55.55076000","population":64631,"timezone":"America/Montevideo","type":"adm1","translations":{"es":"Rivera","en":"Rivera"}},{"name":"Tranqueras","state_code":"RV","latitude":"-31.20000000","longitude":"-55.75000000","population":7235,"timezone":"America/Montevideo","type":"city","translations":{"es":"Tranqueras","en":"Tranqueras"}},{"name":"Vichadero","state_code":"RV","latitude":"-31.77794000","longitude":"-54.69183000","population":3698,"timezone":"America/Montevideo","type":"city","translations":{"es":"Vichadero","en":"Vichadero"}},{"name":"Castillos","state_code":"RO","latitude":"-34.19871000","longitude":"-53.85919000","population":7541,"timezone":"America/Montevideo","type":"city","translations":{"es":"Castillos","en":"Castillos"}},{"name":"Cebollatí","state_code":"RO","latitude":"-33.26703000","longitude":"-53.79425000","population":1609,"timezone":"America/Montevideo","type":"city","translations":{"es":"Cebollatí","en":"Cebollatí"}},{"name":"Chui","state_code":"RO","latitude":"-33.69792000","longitude":"-53.45926000","population":9675,"timezone":"America/Montevideo","type":"city","translations":{"es":"Chui","en":"Chui"}},{"name":"Dieciocho de Julio","state_code":"RO","latitude":"-33.68216000","longitude":"-53.55325000","population":977,"timezone":"America/Montevideo","type":"city","translations":{"es":"Dieciocho de Julio","en":"Dieciocho de Julio"}},{"name":"La Paloma","state_code":"RO","latitude":"-34.66268000","longitude":"-54.16452000","population":3495,"timezone":"America/Montevideo","type":"city","translations":{"es":"La Paloma","en":"La Paloma"}},{"name":"Lascano","state_code":"RO","latitude":"-33.67235000","longitude":"-54.20650000","population":6976,"timezone":"America/Montevideo","type":"city","translations":{"es":"Lascano","en":"Lascano"}},{"name":"Rocha","state_code":"RO","latitude":"-34.48333000","longitude":"-54.33333000","population":25422,"timezone":"America/Montevideo","type":"adm1","translations":{"es":"Rocha","en":"Rocha"}},{"name":"Velázquez","state_code":"RO","latitude":"-34.03631000","longitude":"-54.28054000","population":1022,"timezone":"America/Montevideo","type":"city","translations":{"es":"Velázquez","en":"Velázquez"}},{"name":"Belén","state_code":"SA","latitude":"-30.78716000","longitude":"-57.77577000","population":1926,"timezone":"America/Montevideo","type":"city","translations":{"es":"Belén","en":"Belén"}},{"name":"Salto","state_code":"SA","latitude":"-31.38333000","longitude":"-57.96667000","population":124878,"timezone":"America/Montevideo","type":"adm1","translations":{"es":"Salto","en":"Salto"}},{"name":"Villa Constitución","state_code":"SA","latitude":"-31.06913000","longitude":"-57.84946000","population":2846,"timezone":"America/Montevideo","type":"city","translations":{"es":"Villa Constitución","en":"Villa Constitución"}},{"name":"Delta del Tigre","state_code":"SJ","latitude":"-34.76488000","longitude":"-56.36450000","population":17973,"timezone":"America/Montevideo","type":"city","translations":{"es":"Delta del Tigre","en":"Delta del Tigre"}},{"name":"Ecilda Paullier","state_code":"SJ","latitude":"-34.35778000","longitude":"-57.04883000","population":2585,"timezone":"America/Montevideo","type":"city","translations":{"es":"Ecilda Paullier","en":"Ecilda Paullier"}},{"name":"Libertad","state_code":"SJ","latitude":"-34.63459000","longitude":"-56.61739000","population":11458,"timezone":"America/Montevideo","type":"city","translations":{"es":"Libertad","en":"Libertad"}},{"name":"Puntas de Valdéz","state_code":"SJ","latitude":"-34.58550000","longitude":"-56.70097000","population":1491,"timezone":"America/Montevideo","type":"city","translations":{"es":"Puntas de Valdéz","en":"Puntas de Valdéz"}},{"name":"Rafael Perazza","state_code":"SJ","latitude":"-34.52335000","longitude":"-56.79710000","population":1274,"timezone":"America/Montevideo","type":"city","translations":{"es":"Rafael Perazza","en":"Rafael Perazza"}},{"name":"Rodríguez","state_code":"SJ","latitude":"-34.38100000","longitude":"-56.53797000","population":2604,"timezone":"America/Montevideo","type":"city","translations":{"es":"Rodríguez","en":"Rodríguez"}},{"name":"San José de Mayo","state_code":"SJ","latitude":"-34.33750000","longitude":"-56.71361000","population":36747,"timezone":"America/Montevideo","type":"adm1","translations":{"es":"San José de Mayo","en":"San José de Mayo"}},{"name":"Cardona","state_code":"SO","latitude":"-33.87049000","longitude":"-57.36954000","population":4600,"timezone":"America/Montevideo","type":"city","translations":{"es":"Cardona","en":"Cardona"}},{"name":"Dolores","state_code":"SO","latitude":"-33.53009000","longitude":"-58.21701000","population":17174,"timezone":"America/Montevideo","type":"city","translations":{"es":"Dolores","en":"Dolores"}},{"name":"José Enrique Rodó","state_code":"SO","latitude":"-33.69618000","longitude":"-57.53153000","population":2120,"timezone":"America/Montevideo","type":"city","translations":{"es":"José Enrique Rodó","en":"José Enrique Rodó"}},{"name":"Mercedes","state_code":"SO","latitude":"-33.25240000","longitude":"-58.03047000","population":41974,"timezone":"America/Montevideo","type":"adm1","translations":{"es":"Mercedes","en":"Mercedes"}},{"name":"Palmitas","state_code":"SO","latitude":"-33.50719000","longitude":"-57.80079000","population":2123,"timezone":"America/Montevideo","type":"city","translations":{"es":"Palmitas","en":"Palmitas"}},{"name":"Santa Catalina","state_code":"SO","latitude":"-33.79100000","longitude":"-57.48824000","population":1067,"timezone":"America/Montevideo","type":"city","translations":{"es":"Santa Catalina","en":"Santa Catalina"}},{"name":"Villa Soriano","state_code":"SO","latitude":"-33.39811000","longitude":"-58.32177000","population":1124,"timezone":"America/Montevideo","type":"city","translations":{"es":"Villa Soriano","en":"Villa Soriano"}},{"name":"Curtina","state_code":"TA","latitude":"-32.15000000","longitude":"-56.11667000","population":1037,"timezone":"America/Montevideo","type":"city","translations":{"es":"Cortina","en":"Curtina"}},{"name":"Paso de los Toros","state_code":"TA","latitude":"-32.81667000","longitude":"-56.51667000","population":12985,"timezone":"America/Montevideo","type":"city","translations":{"es":"Paso de los Toros","en":"Paso de los Toros"}},{"name":"Tacuarembó","state_code":"TA","latitude":"-31.71694000","longitude":"-55.98111000","population":54755,"timezone":"America/Montevideo","type":"adm1","translations":{"es":"Tacuarembó","en":"Tacuarembó"}},{"name":"Santa Clara de Olimar","state_code":"TT","latitude":"-32.92254000","longitude":"-54.94447000","population":2341,"timezone":"America/Montevideo","type":"city","translations":{"es":"Santa Clara de Olimar","en":"Santa Clara de Olimar"}},{"name":"Treinta y Tres","state_code":"TT","latitude":"-33.23333000","longitude":"-54.38333000","population":25477,"timezone":"America/Montevideo","type":"adm1","translations":{"es":"Treinta y Tres","en":"Treinta y Tres"}},{"name":"Vergara","state_code":"TT","latitude":"-32.94419000","longitude":"-53.93810000","population":3810,"timezone":"America/Montevideo","type":"city","translations":{"es":"Vergara","en":"Vergara"}},{"name":"Villa Sara","state_code":"TT","latitude":"-33.25340000","longitude":"-54.41947000","population":1199,"timezone":"America/Montevideo","type":"city","translations":{"es":"Villa Sara","en":"Villa Sara"}}]