[{"name":"Christiansted","state_code":"SC","latitude":"17.74403640","longitude":"-64.71060860","population":1866,"timezone":"America/St_Thomas","type":"city","translations":{"es":"Christiansted","en":"Christiansted"}},{"name":"East End","state_code":"SC","latitude":"17.75238820","longitude":"-64.67030100","population":null,"timezone":"America/St_Thomas","type":"city","translations":{"es":"Extremo este","en":"East End"}},{"name":"Frederiksted","state_code":"SC","latitude":"17.71246910","longitude":"-64.88671920","population":528,"timezone":"America/St_Thomas","type":"city","translations":{"es":"Frederiksted","en":"Frederiksted"}},{"name":"Good Hope","state_code":"SC","latitude":"17.72234420","longitude":"-64.71724940","population":null,"timezone":"America/St_Thomas","type":"city","translations":{"es":"Buena Esperanza","en":"Good Hope"}},{"name":"Northcentral","state_code":"SC","latitude":"17.75011450","longitude":"-64.82384910","population":null,"timezone":"America/St_Thomas","type":"city","translations":{"es":"Centro Norte","en":"Northcentral"}},{"name":"Northwest","state_code":"SC","latitude":"17.73827820","longitude":"-64.89063470","population":null,"timezone":"America/St_Thomas","type":"city","translations":{"es":"Noroeste","en":"Northwest"}},{"name":"Sion Farm","state_code":"SC","latitude":"17.75432760","longitude":"-64.77946110","population":null,"timezone":"America/St_Thomas","type":"adm1","translations":{"es":"Granja Sion","en":"Sion Farm"}},{"name":"Southcentral","state_code":"SC","latitude":"17.70649170","longitude":"-64.81448650","population":null,"timezone":"America/St_Thomas","type":"city","translations":{"es":"Centro-sur","en":"Southcentral"}},{"name":"Southwest","state_code":"SC","latitude":"17.69177870","longitude":"-64.93559390","population":null,"timezone":"America/St_Thomas","type":"city","translations":{"es":"Suroeste","en":"Southwest"}},{"name":"Central","state_code":"SJ","latitude":"18.33568380","longitude":"-64.79470780","population":2743,"timezone":"America/St_Thomas","type":"adm1","translations":{"es":"Central","en":"Central"}},{"name":"Coral Bay","state_code":"SJ","latitude":"18.34800890","longitude":"-64.72196820","population":null,"timezone":"America/St_Thomas","type":"city","translations":{"es":"Bahía de Coral","en":"Coral Bay"}},{"name":"Cruz Bay","state_code":"SJ","latitude":"18.31820370","longitude":"-64.80242110","population":null,"timezone":"America/St_Thomas","type":"adm1","translations":{"es":"Cruz Bay","en":"Cruz Bay"}},{"name":"East End","state_code":"SJ","latitude":"18.34036470","longitude":"-64.68062660","population":null,"timezone":"America/St_Thomas","type":"city","translations":{"es":"Extremo este","en":"East End"}},{"name":"Charlotte Amalie","state_code":"ST","latitude":"18.34127610","longitude":"-64.94838690","population":null,"timezone":"America/St_Thomas","type":"capital","translations":{"es":"Carlota Amalia","en":"Charlotte Amalie"}},{"name":"East End","state_code":"ST","latitude":"18.32901620","longitude":"-64.87047310","population":null,"timezone":"America/St_Thomas","type":"city","translations":{"es":"Extremo este","en":"East End"}},{"name":"Northside","state_code":"ST","latitude":"18.37380810","longitude":"-64.95589090","population":null,"timezone":"America/St_Thomas","type":"city","translations":{"es":"Lado norte","en":"Northside"}},{"name":"Southside","state_code":"ST","latitude":"18.30529120","longitude":"-64.91724450","population":null,"timezone":"America/St_Thomas","type":"city","translations":{"es":"Lado sur","en":"Southside"}},{"name":"Tutu","state_code":"ST","latitude":"18.33884270","longitude":"-64.89530720","population":null,"timezone":"America/St_Thomas","type":"city","translations":{"es":"Tutú","en":"Tutu"}},{"name":"Water Island","state_code":"ST","latitude":"18.32086530","longitude":"-64.96932630","population":null,"timezone":"America/St_Thomas","type":"city","translations":{"es":"Isla del Agua","en":"Water Island"}},{"name":"West End","state_code":"ST","latitude":"18.37243670","longitude":"-65.06490130","population":null,"timezone":"America/St_Thomas","type":"city","translations":{"es":"West End","en":"West End"}}]