[{"name":"Chibombo","state_code":"02","latitude":"-14.65685000","longitude":"28.07057000","population":4310,"timezone":"Africa/Lusaka","type":"city","translations":{"es":"Chibombo","en":"Chibombo"}},{"name":"Chibombo District","state_code":"02","latitude":"-14.65808000","longitude":"28.07376000","population":4477,"timezone":"Africa/Lusaka","type":"district","translations":{"es":"Distrito de Chibombo","en":"Chibombo District"}},{"name":"Kabwe","state_code":"02","latitude":"-14.44690000","longitude":"28.44644000","population":299206,"timezone":"Africa/Lusaka","type":"adm1","translations":{"es":"Kabwe","en":"Kabwe"}},{"name":"Kapiri Mposhi","state_code":"02","latitude":"-13.97147000","longitude":"28.66985000","population":83211,"timezone":"Africa/Lusaka","type":"city","translations":{"es":"Kapiri Mposhi","en":"Kapiri Mposhi"}},{"name":"Mkushi","state_code":"02","latitude":"-13.62015000","longitude":"29.39390000","population":45927,"timezone":"Africa/Lusaka","type":"city","translations":{"es":"Mkushi","en":"Mkushi"}},{"name":"Mumbwa","state_code":"02","latitude":"-14.98293000","longitude":"27.06190000","population":49461,"timezone":"Africa/Lusaka","type":"city","translations":{"es":"Mumbwa","en":"Mumbwa"}},{"name":"Serenje","state_code":"02","latitude":"-13.23251000","longitude":"30.23522000","population":30217,"timezone":"Africa/Lusaka","type":"city","translations":{"es":"Serenje","en":"Serenje"}},{"name":"Chambishi","state_code":"08","latitude":"-12.63247000","longitude":"28.05367000","population":34888,"timezone":"Africa/Lusaka","type":"city","translations":{"es":"Chambishi","en":"Chambishi"}},{"name":"Chililabombwe","state_code":"08","latitude":"-12.36475000","longitude":"27.82286000","population":141899,"timezone":"Africa/Lusaka","type":"city","translations":{"es":"Chililabombwe","en":"Chililabombwe"}},{"name":"Chingola","state_code":"08","latitude":"-12.52897000","longitude":"27.88382000","population":255000,"timezone":"Africa/Lusaka","type":"adm2","translations":{"es":"Chingola","en":"Chingola"}},{"name":"Chingola District","state_code":"08","latitude":"-12.48478000","longitude":"27.66313000","population":299936,"timezone":"Africa/Lusaka","type":"district","translations":{"es":"Distrito de Chingola","en":"Chingola District"}},{"name":"Kalulushi","state_code":"08","latitude":"-12.84151000","longitude":"28.09479000","population":104046,"timezone":"Africa/Lusaka","type":"city","translations":{"es":"Kalulushi","en":"Kalulushi"}},{"name":"Kataba","state_code":"08","latitude":"-11.88333000","longitude":"29.78333000","population":14000,"timezone":"Africa/Lusaka","type":"city","translations":{"es":"Kataba","en":"Kataba"}},{"name":"Kitwe","state_code":"08","latitude":"-12.80243000","longitude":"28.21323000","population":625000,"timezone":"Africa/Lusaka","type":"city","translations":{"es":"Kitwe","en":"Kitwe"}},{"name":"Luanshya","state_code":"08","latitude":"-13.13667000","longitude":"28.41661000","population":193293,"timezone":"Africa/Lusaka","type":"city","translations":{"es":"Luanshya","en":"Luanshya"}},{"name":"Mpongwe","state_code":"08","latitude":"-13.50914000","longitude":"28.15504000","population":25388,"timezone":"Africa/Lusaka","type":"city","translations":{"es":"Mpongwe","en":"Mpongwe"}},{"name":"Mufulira","state_code":"08","latitude":"-12.54982000","longitude":"28.24071000","population":182400,"timezone":"Africa/Lusaka","type":"city","translations":{"es":"Mufulira","en":"Mufulira"}},{"name":"Ndola","state_code":"08","latitude":"-12.95867000","longitude":"28.63659000","population":624579,"timezone":"Africa/Lusaka","type":"adm1","translations":{"es":"Ndola","en":"Ndola"}},{"name":"Chadiza","state_code":"03","latitude":"-14.06779000","longitude":"32.43917000","population":3690,"timezone":"Africa/Lusaka","type":"city","translations":{"es":"Chadiza","en":"Chadiza"}},{"name":"Chipata","state_code":"03","latitude":"-13.63333000","longitude":"32.65000000","population":327059,"timezone":"Africa/Lusaka","type":"adm1","translations":{"es":"Chipata","en":"Chipata"}},{"name":"Lundazi","state_code":"03","latitude":"-12.29292000","longitude":"33.17820000","population":45149,"timezone":"Africa/Lusaka","type":"city","translations":{"es":"Lundazi","en":"Lundazi"}},{"name":"Nyimba","state_code":"03","latitude":"-14.55656000","longitude":"30.81490000","population":19252,"timezone":"Africa/Lusaka","type":"city","translations":{"es":"Nyimba","en":"Nyimba"}},{"name":"Petauke","state_code":"03","latitude":"-14.24117000","longitude":"31.31975000","population":58156,"timezone":"Africa/Lusaka","type":"city","translations":{"es":"Petauke","en":"Petauke"}},{"name":"Kawambwa","state_code":"04","latitude":"-9.79150000","longitude":"29.07913000","population":31161,"timezone":"Africa/Lusaka","type":"city","translations":{"es":"Kawambwa","en":"Kawambwa"}},{"name":"Mansa","state_code":"04","latitude":"-11.19976000","longitude":"28.89431000","population":170965,"timezone":"Africa/Lusaka","type":"adm1","translations":{"es":"Mansa","en":"Mansa"}},{"name":"Mwense","state_code":"04","latitude":"-10.38447000","longitude":"28.69800000","population":4378,"timezone":"Africa/Lusaka","type":"city","translations":{"es":"Mwense","en":"Mwense"}},{"name":"Nchelenge","state_code":"04","latitude":"-9.34506000","longitude":"28.73396000","population":77746,"timezone":"Africa/Lusaka","type":"city","translations":{"es":"Nchelenge","en":"Nchelenge"}},{"name":"Samfya","state_code":"04","latitude":"-11.36491000","longitude":"29.55652000","population":51309,"timezone":"Africa/Lusaka","type":"city","translations":{"es":"Samfya","en":"Samfya"}},{"name":"Chongwe","state_code":"09","latitude":"-15.32916000","longitude":"28.68204000","population":57443,"timezone":"Africa/Lusaka","type":"city","translations":{"es":"Chongwe","en":"Chongwe"}},{"name":"Kafue","state_code":"09","latitude":"-15.76911000","longitude":"28.18136000","population":104174,"timezone":"Africa/Lusaka","type":"city","translations":{"es":"Kafue","en":"Kafue"}},{"name":"Luangwa","state_code":"09","latitude":"-15.61667000","longitude":"30.41667000","population":9187,"timezone":"Africa/Lusaka","type":"city","translations":{"es":"Luangwa","en":"Luangwa"}},{"name":"Lusaka","state_code":"09","latitude":"-15.40669000","longitude":"28.28713000","population":2204059,"timezone":"Africa/Lusaka","type":"capital","translations":{"es":"Lusaka","en":"Lusaka"}},{"name":"Chama","state_code":"10","latitude":"-11.21303000","longitude":"33.15210000","population":12923,"timezone":"Africa/Lusaka","type":"city","translations":{"es":"Chama","en":"Chama"}},{"name":"Chinsali","state_code":"10","latitude":"-10.54142000","longitude":"32.08162000","population":38805,"timezone":"Africa/Lusaka","type":"adm1","translations":{"es":"Chinsali","en":"Chinsali"}},{"name":"Isoka","state_code":"10","latitude":"-10.16062000","longitude":"32.63353000","population":31739,"timezone":"Africa/Lusaka","type":"city","translations":{"es":"Isoka","en":"Isoka"}},{"name":"Mpika","state_code":"10","latitude":"-11.83431000","longitude":"31.45287000","population":63740,"timezone":"Africa/Lusaka","type":"city","translations":{"es":"Mpika","en":"Mpika"}},{"name":"Nakonde","state_code":"10","latitude":"-9.34213000","longitude":"32.74500000","population":91107,"timezone":"Africa/Lusaka","type":"city","translations":{"es":"Nakonde","en":"Nakonde"}},{"name":"Kaputa","state_code":"05","latitude":"-8.46887000","longitude":"29.66193000","population":35663,"timezone":"Africa/Lusaka","type":"city","translations":{"es":"Kaputa","en":"Kaputa"}},{"name":"Kasama","state_code":"05","latitude":"-10.21289000","longitude":"31.18084000","population":158051,"timezone":"Africa/Lusaka","type":"adm1","translations":{"es":"Kasama","en":"Kasama"}},{"name":"Luwingu","state_code":"05","latitude":"-10.26210000","longitude":"29.92712000","population":28436,"timezone":"Africa/Lusaka","type":"city","translations":{"es":"Luwingu","en":"Luwingu"}},{"name":"Mbala","state_code":"05","latitude":"-8.84024000","longitude":"31.36587000","population":42424,"timezone":"Africa/Lusaka","type":"city","translations":{"es":"Mbala","en":"Mbala"}},{"name":"Mporokoso","state_code":"05","latitude":"-9.37273000","longitude":"30.12501000","population":30381,"timezone":"Africa/Lusaka","type":"city","translations":{"es":"Mporokoso","en":"Mporokoso"}},{"name":"Mpulungu","state_code":"05","latitude":"-8.76234000","longitude":"31.11405000","population":55405,"timezone":"Africa/Lusaka","type":"city","translations":{"es":"Mpulungu","en":"Mpulungu"}},{"name":"Mungwi","state_code":"05","latitude":"-10.17320000","longitude":"31.36942000","population":12536,"timezone":"Africa/Lusaka","type":"city","translations":{"es":"Mungwi","en":"Mungwi"}},{"name":"Kabompo","state_code":"06","latitude":"-13.59268000","longitude":"24.20081000","population":15069,"timezone":"Africa/Lusaka","type":"city","translations":{"es":"Kabompo","en":"Kabompo"}},{"name":"Kalengwa","state_code":"06","latitude":"-13.46586000","longitude":"25.00271000","population":7574,"timezone":"Africa/Lusaka","type":"city","translations":{"es":"Kalengwa","en":"Kalengwa"}},{"name":"Kansanshi","state_code":"06","latitude":"-12.09514000","longitude":"26.42727000","population":40705,"timezone":"Africa/Lusaka","type":"city","translations":{"es":"Kansanshi","en":"Kansanshi"}},{"name":"Kasempa","state_code":"06","latitude":"-13.45836000","longitude":"25.83380000","population":28894,"timezone":"Africa/Lusaka","type":"city","translations":{"es":"Kasempa","en":"Kasempa"}},{"name":"Mufumbwe","state_code":"06","latitude":"-13.68333000","longitude":"24.80000000","population":6155,"timezone":"Africa/Lusaka","type":"city","translations":{"es":"Mufumbwe","en":"Mufumbwe"}},{"name":"Mwinilunga","state_code":"06","latitude":"-11.73584000","longitude":"24.42926000","population":25425,"timezone":"Africa/Lusaka","type":"city","translations":{"es":"Mwinilunga","en":"Mwinilunga"}},{"name":"Solwezi","state_code":"06","latitude":"-12.16880000","longitude":"26.38938000","population":301370,"timezone":"Africa/Lusaka","type":"adm1","translations":{"es":"Solwezi","en":"Solwezi"}},{"name":"Zambezi","state_code":"06","latitude":"-13.54323000","longitude":"23.10467000","population":26885,"timezone":"Africa/Lusaka","type":"city","translations":{"es":"Zambeze","en":"Zambezi"}},{"name":"Choma","state_code":"07","latitude":"-16.80889000","longitude":"26.98750000","population":98974,"timezone":"Africa/Lusaka","type":"adm1","translations":{"es":"Choma","en":"Choma"}},{"name":"Gwembe","state_code":"07","latitude":"-16.49755000","longitude":"27.60691000","population":2052,"timezone":"Africa/Lusaka","type":"city","translations":{"es":"Gwembe","en":"Gwembe"}},{"name":"Itezhi-Tezhi","state_code":"07","latitude":"-15.74092000","longitude":"26.04146000","population":22449,"timezone":"Africa/Lusaka","type":"district","translations":{"es":"Distrito de Itezhi-Tezhi","en":"Itezhi-Tezhi"}},{"name":"Livingstone","state_code":"07","latitude":"-17.84194000","longitude":"25.85425000","population":177393,"timezone":"Africa/Lusaka","type":"adm2","translations":{"es":"Livingstone","en":"Livingstone"}},{"name":"Maamba","state_code":"07","latitude":"-17.36667000","longitude":"27.15000000","population":21676,"timezone":"Africa/Lusaka","type":"city","translations":{"es":"Maamba","en":"Maamba"}},{"name":"Mazabuka","state_code":"07","latitude":"-15.85601000","longitude":"27.74800000","population":116503,"timezone":"Africa/Lusaka","type":"city","translations":{"es":"Mazabuka","en":"Mazabuka"}},{"name":"Monze","state_code":"07","latitude":"-16.28333000","longitude":"27.48333000","population":60281,"timezone":"Africa/Lusaka","type":"city","translations":{"es":"Monze","en":"Monze"}},{"name":"Nakambala","state_code":"07","latitude":"-15.83244000","longitude":"27.77994000","population":10425,"timezone":"Africa/Lusaka","type":"city","translations":{"es":"Nakambala","en":"Nakambala"}},{"name":"Namwala","state_code":"07","latitude":"-15.75042000","longitude":"26.43839000","population":15614,"timezone":"Africa/Lusaka","type":"city","translations":{"es":"Namwala","en":"Namwala"}},{"name":"Siavonga","state_code":"07","latitude":"-16.53818000","longitude":"28.70876000","population":26951,"timezone":"Africa/Lusaka","type":"city","translations":{"es":"Siavonga","en":"Siavonga"}},{"name":"Siavonga District","state_code":"07","latitude":"-16.26742000","longitude":"28.55036000","population":58864,"timezone":"Africa/Lusaka","type":"district","translations":{"es":"Distrito de Siavonga","en":"Siavonga District"}},{"name":"Sinazongwe","state_code":"07","latitude":"-17.26140000","longitude":"27.46179000","population":15191,"timezone":"Africa/Lusaka","type":"city","translations":{"es":"Sinazongwe","en":"Sinazongwe"}},{"name":"Kalabo","state_code":"01","latitude":"-14.99307000","longitude":"22.67926000","population":18477,"timezone":"Africa/Lusaka","type":"city","translations":{"es":"Kalabo","en":"Kalabo"}},{"name":"Kaoma","state_code":"01","latitude":"-14.78333000","longitude":"24.80000000","population":34347,"timezone":"Africa/Lusaka","type":"city","translations":{"es":"Kaoma","en":"Kaoma"}},{"name":"Limulunga","state_code":"01","latitude":"-15.09691000","longitude":"23.13757000","population":10684,"timezone":"Africa/Lusaka","type":"city","translations":{"es":"Limulunga","en":"Limulunga"}},{"name":"Lukulu","state_code":"01","latitude":"-14.37067000","longitude":"23.24196000","population":19344,"timezone":"Africa/Lusaka","type":"city","translations":{"es":"Lukulu","en":"Lukulu"}},{"name":"Mongu","state_code":"01","latitude":"-15.24835000","longitude":"23.12741000","population":111450,"timezone":"Africa/Lusaka","type":"adm1","translations":{"es":"Mongu","en":"Mongu"}},{"name":"Senanga","state_code":"01","latitude":"-16.11667000","longitude":"23.26667000","population":20878,"timezone":"Africa/Lusaka","type":"city","translations":{"es":"Senanga","en":"Senanga"}},{"name":"Sesheke","state_code":"01","latitude":"-17.47593000","longitude":"24.29684000","population":29922,"timezone":"Africa/Lusaka","type":"city","translations":{"es":"Sesheke","en":"Sesheke"}}]